[
  {
    "wikiId": "Q2913021",
    "name": "Liverpool Beach",
    "cat": "beach",
    "lon": -60.6,
    "lat": -62.6486
  },
  {
    "wikiId": "Q2913023",
    "name": "Romanes Beach",
    "cat": "beach",
    "lon": 166.367,
    "lat": -77.2833
  },
  {
    "wikiId": "Q2913026",
    "name": "Blacksand Beach",
    "cat": "beach",
    "lon": 166.15,
    "lat": -77.55
  },
  {
    "wikiId": "Q2913029",
    "name": "Koke Strand",
    "cat": "beach",
    "lon": 39.65,
    "lat": -69.2167
  },
  {
    "wikiId": "Q2913032",
    "name": "Waipuke Beach",
    "cat": "beach",
    "lon": 166.4,
    "lat": -77.2333
  },
  {
    "wikiId": "Q2913035",
    "name": "Mikre Beach",
    "cat": "beach",
    "lon": -61.4083,
    "lat": -62.8375
  },
  {
    "wikiId": "Q2913038",
    "name": "Skua Beach",
    "cat": "beach",
    "lon": 73.6833,
    "lat": -53.0833
  },
  {
    "wikiId": "Q2913040",
    "name": "Kladara Beach",
    "cat": "beach",
    "lon": -59.7625,
    "lat": -62.5292
  },
  {
    "wikiId": "Q2913042",
    "name": "Caughley Beach",
    "cat": "beach",
    "lon": 166.433,
    "lat": -77.2167
  },
  {
    "wikiId": "Q2913044",
    "name": "President Beaches",
    "cat": "beach",
    "lon": -61.1167,
    "lat": -62.625
  },
  {
    "wikiId": "Q2913047",
    "name": "Kizahashi Beach",
    "cat": "beach",
    "lon": 39.5833,
    "lat": -69.4667
  },
  {
    "wikiId": "Q2913049",
    "name": "Oshiage Beach",
    "cat": "beach",
    "lon": 39.45,
    "lat": -69.6333
  },
  {
    "wikiId": "Q2913051",
    "name": "Marinovic Beach",
    "cat": "beach",
    "lon": 163.533,
    "lat": -77.5833
  },
  {
    "wikiId": "Q2913057",
    "name": "Waterpipe Beach",
    "cat": "beach",
    "lon": -45.6167,
    "lat": -60.7167
  },
  {
    "wikiId": "Q2913062",
    "name": "Ridley Beach",
    "cat": "beach",
    "lon": 170.217,
    "lat": -71.3
  },
  {
    "wikiId": "Q2913064",
    "name": "Ogi Beach",
    "cat": "beach",
    "lon": 39.40278,
    "lat": -69.14583
  },
  {
    "wikiId": "Q2919773",
    "name": "Playa de El Palo, Málaga",
    "cat": "beach",
    "lon": -4.36215,
    "lat": 36.719045
  },
  {
    "wikiId": "Q2920064",
    "name": "Praia do Gravatá",
    "cat": "beach",
    "lon": -48.43374,
    "lat": -27.61349
  },
  {
    "wikiId": "Q2932449",
    "name": "Cabrillo Beach",
    "cat": "beach",
    "lon": -118.28285,
    "lat": 33.70946
  },
  {
    "wikiId": "Q2932489",
    "name": "Q2932489",
    "cat": "beach",
    "lon": -38.79111111,
    "lat": -13.12694444
  },
  {
    "wikiId": "Q2933429",
    "name": "cala Goloritzé",
    "cat": "beach",
    "lon": 9.68978,
    "lat": 40.10793
  },
  {
    "wikiId": "Q2933593",
    "name": "Figuerolles",
    "cat": "beach",
    "lon": 5.595642,
    "lat": 43.16436
  },
  {
    "wikiId": "Q2936442",
    "name": "Canoa Quebrada",
    "cat": "beach",
    "lon": -37.692778,
    "lat": -4.528333
  },
  {
    "wikiId": "Q2943955",
    "name": "Praia das Bananas",
    "cat": "beach",
    "lon": 7.44148064,
    "lat": 1.69015002
  },
  {
    "wikiId": "Q2944697",
    "name": "Knox Coast",
    "cat": "beach",
    "lon": 105,
    "lat": -66.5
  },
  {
    "wikiId": "Q2962667",
    "name": "Q2962667",
    "cat": "beach",
    "lon": 2.4103,
    "lat": 36.6034
  },
  {
    "wikiId": "Q2983456",
    "name": "Eights Coast",
    "cat": "beach",
    "lon": -96,
    "lat": -73.5
  },
  {
    "wikiId": "Q2983463",
    "name": "Banzare Coast",
    "cat": "beach",
    "lon": 126,
    "lat": -67
  },
  {
    "wikiId": "Q2983466",
    "name": "Lassiter Coast",
    "cat": "beach",
    "lon": -62,
    "lat": -73.75
  },
  {
    "wikiId": "Q2983473",
    "name": "Clarie Coast",
    "cat": "beach",
    "lon": 133,
    "lat": -66.5
  },
  {
    "wikiId": "Q2991944",
    "name": "Q2991944",
    "cat": "beach",
    "lon": -0.998611,
    "lat": 45.6056
  },
  {
    "wikiId": "Q2998669",
    "name": "Bowman Coast",
    "cat": "beach",
    "lon": -65,
    "lat": -68.1667
  },
  {
    "wikiId": "Q3010671",
    "name": "Bakutis Coast",
    "cat": "beach",
    "lon": -120,
    "lat": -74.75
  },
  {
    "wikiId": "Q3010676",
    "name": "Danco Coast",
    "cat": "beach",
    "lon": -62,
    "lat": -64.7
  },
  {
    "wikiId": "Q3048342",
    "name": "Loubet Coast",
    "cat": "beach",
    "lon": -66,
    "lat": -67
  },
  {
    "wikiId": "Q3048858",
    "name": "Eel River Bar",
    "cat": "beach",
    "lon": -66.3682,
    "lat": 48.024565
  },
  {
    "wikiId": "Q3100988",
    "name": "Genève-Plage",
    "cat": "beach",
    "lon": 6.171945,
    "lat": 46.213828
  },
  {
    "wikiId": "Q3107195",
    "name": "Q3107195",
    "cat": "beach",
    "lon": -48.42516,
    "lat": -27.3893
  },
  {
    "wikiId": "Q3108543",
    "name": "Flamenca Beach, Spain",
    "cat": "beach",
    "lon": -0.72096,
    "lat": 37.92807
  },
  {
    "wikiId": "Q3112039",
    "name": "Saturrarán",
    "cat": "beach",
    "lon": -2.4103,
    "lat": 43.3217
  },
  {
    "wikiId": "Q3114891",
    "name": "Grande Anse, Réunion",
    "cat": "beach",
    "lon": 55.5469,
    "lat": -21.3689
  },
  {
    "wikiId": "Q3115006",
    "name": "Q3115006",
    "cat": "beach",
    "lon": -1.75139,
    "lat": 49.3817
  },
  {
    "wikiId": "Q3118720",
    "name": "Guanabo",
    "cat": "beach",
    "lon": -82.13916667,
    "lat": 23.16472222
  },
  {
    "wikiId": "Q3178225",
    "name": "Pipa Beach",
    "cat": "beach",
    "lon": -35.0476,
    "lat": -6.22758
  },
  {
    "wikiId": "Q3209242",
    "name": "La Franqui",
    "cat": "beach",
    "lon": 3.032772,
    "lat": 42.933679
  },
  {
    "wikiId": "Q3236819",
    "name": "Q3236819",
    "cat": "beach",
    "lon": -4.29916667,
    "lat": 48.18166667
  },
  {
    "wikiId": "Q3271969",
    "name": "Manly Beach",
    "cat": "beach",
    "lon": 151.287777777,
    "lat": -33.789722222
  },
  {
    "wikiId": "Q3275202",
    "name": "Madagh beach",
    "cat": "beach",
    "lon": -1.06687,
    "lat": 35.6315
  },
  {
    "wikiId": "Q3276579",
    "name": "Playa de Camposoto",
    "cat": "beach",
    "lon": -6.23166667,
    "lat": 36.43083333
  },
  {
    "wikiId": "Q3277360",
    "name": "La Cachucha beach",
    "cat": "beach",
    "lon": -6.18583333,
    "lat": 36.52555556
  },
  {
    "wikiId": "Q3289099",
    "name": "Kappad",
    "cat": "beach",
    "lon": 75.7175,
    "lat": 11.385
  },
  {
    "wikiId": "Q3302027",
    "name": "Genipabu",
    "cat": "beach",
    "lon": -35.19666667,
    "lat": -5.70888889
  },
  {
    "wikiId": "Q3302169",
    "name": "Beach of Durrës",
    "cat": "beach",
    "lon": 19.48666667,
    "lat": 41.30583333
  },
  {
    "wikiId": "Q3304101",
    "name": "Maracajaú",
    "cat": "beach",
    "lon": -35.31166667,
    "lat": -5.41027778
  },
  {
    "wikiId": "Q3307722",
    "name": "Davis Coast",
    "cat": "beach",
    "lon": -60,
    "lat": -64
  },
  {
    "wikiId": "Q3324072",
    "name": "Moriani-Plage",
    "cat": "beach",
    "lon": 9.53008,
    "lat": 42.37438
  },
  {
    "wikiId": "Q3327655",
    "name": "Praia de Samil",
    "cat": "beach",
    "lon": -8.776333333,
    "lat": 42.209302777
  },
  {
    "wikiId": "Q3328909",
    "name": "Llevant",
    "cat": "beach",
    "lon": 2.218056,
    "lat": 41.404444
  },
  {
    "wikiId": "Q3329621",
    "name": "Playa de Bogatell",
    "cat": "beach",
    "lon": 2.20625,
    "lat": 41.39388889
  },
  {
    "wikiId": "Q3329630",
    "name": "Platja de la Nova Icària",
    "cat": "beach",
    "lon": 2.20180556,
    "lat": 41.39033333
  },
  {
    "wikiId": "Q3329668",
    "name": "Platja de la Nova Mar Bella",
    "cat": "beach",
    "lon": 2.21658333,
    "lat": 41.40336111
  },
  {
    "wikiId": "Q3331605",
    "name": "Platja de la Mar Bella",
    "cat": "beach",
    "lon": 2.21188889,
    "lat": 41.39852778
  },
  {
    "wikiId": "Q3331620",
    "name": "Sant Sebastià",
    "cat": "beach",
    "lon": 2.18962778,
    "lat": 41.37345833
  },
  {
    "wikiId": "Q3332363",
    "name": "Q3332363",
    "cat": "beach",
    "lon": -8.96969,
    "lat": 39.88273
  },
  {
    "wikiId": "Q3347844",
    "name": "Oak Street Beach",
    "cat": "beach",
    "lon": -87.623,
    "lat": 41.903
  },
  {
    "wikiId": "Q3350264",
    "name": "Patenga",
    "cat": "beach",
    "lon": 91.79139,
    "lat": 22.23523
  },
  {
    "wikiId": "Q3361665",
    "name": "Palombaggia",
    "cat": "beach",
    "lon": 9.32583333,
    "lat": 41.55805556
  },
  {
    "wikiId": "Q3366591",
    "name": "Borchgrevink Coast",
    "cat": "beach",
    "lon": 169.5,
    "lat": -73
  },
  {
    "wikiId": "Q3375957",
    "name": "Bellevue Beach",
    "cat": "beach",
    "lon": 12.5923,
    "lat": 55.778
  },
  {
    "wikiId": "Q3376964",
    "name": "Platja del Racó de l'Albir",
    "cat": "beach",
    "lon": -0.06435,
    "lat": 38.57478
  },
  {
    "wikiId": "Q3380106",
    "name": "Platja de Llevant",
    "cat": "beach",
    "lon": -0.11889,
    "lat": 38.53528
  },
  {
    "wikiId": "Q3390828",
    "name": "Plage Blanche",
    "cat": "beach",
    "lon": -10.78,
    "lat": 28.87
  },
  {
    "wikiId": "Q3390830",
    "name": "Platja Nord",
    "cat": "beach",
    "lon": 0.404606,
    "lat": 40.3679
  },
  {
    "wikiId": "Q3390832",
    "name": "Platja Sud",
    "cat": "beach",
    "lon": 0.401799999,
    "lat": 40.3582
  },
  {
    "wikiId": "Q3390837",
    "name": "Q3390837",
    "cat": "beach",
    "lon": 109.116,
    "lat": 21.4174
  },
  {
    "wikiId": "Q3390838",
    "name": "Praia de Ipanema",
    "cat": "beach",
    "lon": -43.205,
    "lat": -22.985
  },
  {
    "wikiId": "Q3390841",
    "name": "Q3390841",
    "cat": "beach",
    "lon": -1.56972,
    "lat": 49.6572
  },
  {
    "wikiId": "Q3390845",
    "name": "Grande Anse",
    "cat": "beach",
    "lon": -61.7944,
    "lat": 16.3069
  },
  {
    "wikiId": "Q3390849",
    "name": "Q3390849",
    "cat": "beach",
    "lon": -1.75139,
    "lat": 49.3817
  },
  {
    "wikiId": "Q3390850",
    "name": "Q3390850",
    "cat": "beach",
    "lon": 9.23418,
    "lat": 42.71946
  },
  {
    "wikiId": "Q3390854",
    "name": "Gorliz",
    "cat": "beach",
    "lon": -2.94611,
    "lat": 43.4189
  },
  {
    "wikiId": "Q3390855",
    "name": "Praia do Gunga",
    "cat": "beach",
    "lon": -35.90472222,
    "lat": -9.85972222
  },
  {
    "wikiId": "Q3390856",
    "name": "Plage de Pompierre",
    "cat": "beach",
    "lon": -61.5708,
    "lat": 15.8719
  },
  {
    "wikiId": "Q3390857",
    "name": "Q3390857",
    "cat": "beach",
    "lon": -2.84181,
    "lat": 47.5967
  },
  {
    "wikiId": "Q3390858",
    "name": "Q3390858",
    "cat": "beach",
    "lon": 0.33698,
    "lat": 40.2933
  },
  {
    "wikiId": "Q3390869",
    "name": "La Souris Chaude",
    "cat": "beach",
    "lon": 55.2578,
    "lat": -21.1183
  },
  {
    "wikiId": "Q3390870",
    "name": "Plage de la Grande-Conche",
    "cat": "beach",
    "lon": -1.01486,
    "lat": 45.6169
  },
  {
    "wikiId": "Q3390871",
    "name": "Plage de la Vieille église",
    "cat": "beach",
    "lon": -1.75139,
    "lat": 49.3817
  },
  {
    "wikiId": "Q3390873",
    "name": "Plage des Brisants",
    "cat": "beach",
    "lon": 55.2219,
    "lat": -21.0583
  },
  {
    "wikiId": "Q3390877",
    "name": "Playa de la Caracola",
    "cat": "beach",
    "lon": 0.417814,
    "lat": 40.4003
  },
  {
    "wikiId": "Q3390878",
    "name": "plage des Libraires",
    "cat": "beach",
    "lon": -2.348,
    "lat": 47.267
  },
  {
    "wikiId": "Q3390879",
    "name": "plage du Touquet-Paris-Plage",
    "cat": "beach",
    "lon": 1.576881,
    "lat": 50.511813
  },
  {
    "wikiId": "Q3390881",
    "name": "Los Muertos Beach",
    "cat": "beach",
    "lon": -105.23931,
    "lat": 20.59863
  },
  {
    "wikiId": "Q3390883",
    "name": "Praia do Francês",
    "cat": "beach",
    "lon": -35.8392,
    "lat": -9.76972
  },
  {
    "wikiId": "Q2175440",
    "name": "Maasvlaktestrand",
    "cat": "beach",
    "lon": 3.98806,
    "lat": 51.92167
  },
  {
    "wikiId": "Q2178650",
    "name": "Harlingen beach",
    "cat": "beach",
    "lon": 5.4157,
    "lat": 53.167180555
  },
  {
    "wikiId": "Q2184059",
    "name": "Praia dos Ingleses",
    "cat": "beach",
    "lon": -48.39126,
    "lat": -27.43516
  },
  {
    "wikiId": "Q2189435",
    "name": "Dueodde",
    "cat": "beach",
    "lon": 15.074242,
    "lat": 54.991711
  },
  {
    "wikiId": "Q2193204",
    "name": "Vliehors",
    "cat": "beach",
    "lon": 4.9086,
    "lat": 53.2297
  },
  {
    "wikiId": "Q2211781",
    "name": "Praia dos Açores",
    "cat": "beach",
    "lon": -48.52307,
    "lat": -27.78428
  },
  {
    "wikiId": "Q2220755",
    "name": "Bussloo recreation site",
    "cat": "beach",
    "lon": 6.104191666,
    "lat": 52.201280555
  },
  {
    "wikiId": "Q2228618",
    "name": "Q2228618",
    "cat": "beach",
    "lon": -48.37452,
    "lat": -27.45688
  },
  {
    "wikiId": "Q2231113",
    "name": "Avatele Beach",
    "cat": "beach",
    "lon": -169.913072222,
    "lat": -19.126713888
  },
  {
    "wikiId": "Q2236035",
    "name": "Schinaria, Rethymno",
    "cat": "beach",
    "lon": 24.42166667,
    "lat": 35.16611111
  },
  {
    "wikiId": "Q2250342",
    "name": "Kleine Knip",
    "cat": "beach",
    "lon": -69.15278,
    "lat": 12.34083
  },
  {
    "wikiId": "Q2330338",
    "name": "Ponta Negra",
    "cat": "beach",
    "lon": -35.17111111,
    "lat": -5.88111111
  },
  {
    "wikiId": "Q2334856",
    "name": "Porto de Galinhas beach",
    "cat": "beach",
    "lon": -35.001111,
    "lat": -8.504167
  },
  {
    "wikiId": "Q2350498",
    "name": "Ocean Beach",
    "cat": "beach",
    "lon": -122.510833333,
    "lat": 37.759444444
  },
  {
    "wikiId": "Q2361524",
    "name": "Q2361524",
    "cat": "beach",
    "lon": -37.793629,
    "lat": -12.24524
  },
  {
    "wikiId": "Q2368514",
    "name": "Playa Porto Marie",
    "cat": "beach",
    "lon": -69.08639,
    "lat": 12.21917
  },
  {
    "wikiId": "Q2370121",
    "name": "Seaquarium Beach",
    "cat": "beach",
    "lon": -68.89861,
    "lat": 12.08611
  },
  {
    "wikiId": "Q2382877",
    "name": "Arenalet del Verger",
    "cat": "beach",
    "lon": 3.37944444,
    "lat": 39.76555556
  },
  {
    "wikiId": "Q2402448",
    "name": "Cacupé",
    "cat": "beach",
    "lon": -48.526183,
    "lat": -27.541611
  },
  {
    "wikiId": "Q2414727",
    "name": "Playa de Las Teresitas",
    "cat": "beach",
    "lon": -16.185833333,
    "lat": 28.508611111
  },
  {
    "wikiId": "Q2416446",
    "name": "Praia da Armação",
    "cat": "beach",
    "lon": -48.5076,
    "lat": -27.74264
  },
  {
    "wikiId": "Q2423544",
    "name": "Jomtien",
    "cat": "beach",
    "lon": 100.89372,
    "lat": 12.88233
  },
  {
    "wikiId": "Q2429475",
    "name": "Three Cliffs Bay",
    "cat": "beach",
    "lon": -4.11516,
    "lat": 51.5682
  },
  {
    "wikiId": "Q2453857",
    "name": "Triopetra",
    "cat": "beach",
    "lon": 24.54788889,
    "lat": 35.11488889
  },
  {
    "wikiId": "Q2457088",
    "name": "Joaquina",
    "cat": "beach",
    "lon": -48.45881,
    "lat": -27.6405
  },
  {
    "wikiId": "Q2458640",
    "name": "Playa Kanoa",
    "cat": "beach",
    "lon": -68.86306,
    "lat": 12.17222
  },
  {
    "wikiId": "Q2460851",
    "name": "Navagio",
    "cat": "beach",
    "lon": 20.624872874,
    "lat": 37.859598197
  },
  {
    "wikiId": "Q2467681",
    "name": "Praia da Solidão",
    "cat": "beach",
    "lon": -48.53331,
    "lat": -27.79387
  },
  {
    "wikiId": "Q2470694",
    "name": "Playa Lagun",
    "cat": "beach",
    "lon": -69.15028,
    "lat": 12.31806
  },
  {
    "wikiId": "Q2480021",
    "name": "Q2480021",
    "cat": "beach",
    "lon": -48.43906,
    "lat": -27.4229
  },
  {
    "wikiId": "Q2485733",
    "name": "Q2485733",
    "cat": "beach",
    "lon": -48.5,
    "lat": -27.71119
  },
  {
    "wikiId": "Q2489901",
    "name": "Grote Knip",
    "cat": "beach",
    "lon": -69.15167,
    "lat": 12.35167
  },
  {
    "wikiId": "Q2498044",
    "name": "Q2498044",
    "cat": "beach",
    "lon": -48.54654,
    "lat": -27.45914
  },
  {
    "wikiId": "Q2502811",
    "name": "Playa Gipy",
    "cat": "beach",
    "lon": -69.15583,
    "lat": 12.39028
  },
  {
    "wikiId": "Q2535130",
    "name": "Cape São Roque",
    "cat": "beach",
    "lon": -35.26666667,
    "lat": -5.48333333
  },
  {
    "wikiId": "Q2539131",
    "name": "Praia do Forte",
    "cat": "beach",
    "lon": -48.51949,
    "lat": -27.43318
  },
  {
    "wikiId": "Q2542980",
    "name": "Heerderstrand",
    "cat": "beach",
    "lon": 6.007277777,
    "lat": 52.399083333
  },
  {
    "wikiId": "Q2545517",
    "name": "Yyteri",
    "cat": "beach",
    "lon": 21.5225,
    "lat": 61.56416667
  },
  {
    "wikiId": "Q2558018",
    "name": "Langevelderslag",
    "cat": "beach",
    "lon": 4.478333,
    "lat": 52.299444
  },
  {
    "wikiId": "Q2561808",
    "name": "As Catedrais beach",
    "cat": "beach",
    "lon": -7.15722222,
    "lat": 43.55388889
  },
  {
    "wikiId": "Q2563842",
    "name": "Playa Santa Cruz",
    "cat": "beach",
    "lon": -69.145,
    "lat": 12.30611
  },
  {
    "wikiId": "Q2566561",
    "name": "Whatipu",
    "cat": "beach",
    "lon": 174.48,
    "lat": -37.03
  },
  {
    "wikiId": "Q2576481",
    "name": "Budd Coast",
    "cat": "beach",
    "lon": 112,
    "lat": -66.5
  },
  {
    "wikiId": "Q2602329",
    "name": "Oates Coast",
    "cat": "beach",
    "lon": 159,
    "lat": -69.5
  },
  {
    "wikiId": "Q2607094",
    "name": "Mawson Coast",
    "cat": "beach",
    "lon": 63.5,
    "lat": -67.6667
  },
  {
    "wikiId": "Q2619811",
    "name": "Lazurnaya Bay",
    "cat": "beach",
    "lon": 132.118056,
    "lat": 43.195556
  },
  {
    "wikiId": "Q2625348",
    "name": "Sardinero",
    "cat": "beach",
    "lon": -3.7875,
    "lat": 43.47416667
  },
  {
    "wikiId": "Q2634933",
    "name": "Scott Coast",
    "cat": "beach",
    "lon": 162.5,
    "lat": -76.5
  },
  {
    "wikiId": "Q2647191",
    "name": "Q2647191",
    "cat": "beach",
    "lon": -117.7523,
    "lat": 33.5097
  },
  {
    "wikiId": "Q2667949",
    "name": "Wassenaarse Slag",
    "cat": "beach",
    "lon": 4.35,
    "lat": 52.16222
  },
  {
    "wikiId": "Q2681086",
    "name": "Oscar II Coast",
    "cat": "beach",
    "lon": -62.5,
    "lat": -65.75
  },
  {
    "wikiId": "Q2690441",
    "name": "Praia do Saquinho",
    "cat": "beach",
    "lon": -48.536111111,
    "lat": -27.804444444
  },
  {
    "wikiId": "Q2715427",
    "name": "Q2715427",
    "cat": "beach",
    "lon": 6.1326,
    "lat": 53.4802
  },
  {
    "wikiId": "Q2720154",
    "name": "La Concha Beach",
    "cat": "beach",
    "lon": -1.991499999,
    "lat": 43.315199999
  },
  {
    "wikiId": "Q2762470",
    "name": "Praia Arroio Seco",
    "cat": "beach",
    "lon": -49.81843611,
    "lat": -29.45764444
  },
  {
    "wikiId": "Q2814796",
    "name": "Sudan Beach",
    "cat": "beach",
    "lon": -36.45,
    "lat": -54.3167
  },
  {
    "wikiId": "Q2814812",
    "name": "South Beaches",
    "cat": "beach",
    "lon": -61.05694444,
    "lat": -62.65833333
  },
  {
    "wikiId": "Q2814819",
    "name": "Arkutino Beach",
    "cat": "beach",
    "lon": -60.3278,
    "lat": -62.75
  },
  {
    "wikiId": "Q2814826",
    "name": "Kaino-hama Beach",
    "cat": "beach",
    "lon": 39.5667,
    "lat": -69.0167
  },
  {
    "wikiId": "Q2814831",
    "name": "Robbery Beaches",
    "cat": "beach",
    "lon": -61.083,
    "lat": -62.616
  },
  {
    "wikiId": "Q2814836",
    "name": "Papua Beach",
    "cat": "beach",
    "lon": -36.5667,
    "lat": -54.25
  },
  {
    "wikiId": "Q2815260",
    "name": "Pimpirev Beach",
    "cat": "beach",
    "lon": -60.4139,
    "lat": -62.6197
  },
  {
    "wikiId": "Q2815262",
    "name": "Half Moon Beach",
    "cat": "beach",
    "lon": -60.7778,
    "lat": -62.4803
  },
  {
    "wikiId": "Q2815329",
    "name": "Binder Beach",
    "cat": "beach",
    "lon": -37.7167,
    "lat": -54.0167
  },
  {
    "wikiId": "Q2815348",
    "name": "Balsam Beach",
    "cat": "beach",
    "lon": -36.4333,
    "lat": -54.3167
  },
  {
    "wikiId": "Q2815393",
    "name": "Paul Beach",
    "cat": "beach",
    "lon": -37.4,
    "lat": -54.0667
  },
  {
    "wikiId": "Q2815401",
    "name": "Bonner Beach",
    "cat": "beach",
    "lon": -36.0167,
    "lat": -54.8333
  },
  {
    "wikiId": "Q2815477",
    "name": "Foyn Coast",
    "cat": "beach",
    "lon": -64.3333,
    "lat": -66.6667
  },
  {
    "wikiId": "Q2826848",
    "name": "Agia Anna, Euboea",
    "cat": "beach",
    "lon": 23.4,
    "lat": 38.86667
  },
  {
    "wikiId": "Q2830632",
    "name": "Brighton Beach",
    "cat": "beach",
    "lon": -37.1667,
    "lat": -54.1167
  },
  {
    "wikiId": "Q2830648",
    "name": "Dragon Beach",
    "cat": "beach",
    "lon": -60.1333,
    "lat": -62.4667
  },
  {
    "wikiId": "Q2830770",
    "name": "Gerlovo Beach",
    "cat": "beach",
    "lon": -60.8153,
    "lat": -62.4889
  },
  {
    "wikiId": "Q2835168",
    "name": "Q2835168",
    "cat": "beach",
    "lon": -3.5422,
    "lat": 43.49834
  },
  {
    "wikiId": "Q2836834",
    "name": "Q2836834",
    "cat": "beach",
    "lon": -3.77089,
    "lat": 43.48257
  },
  {
    "wikiId": "Q2837655",
    "name": "Playa de Pedregalejo",
    "cat": "beach",
    "lon": -4.375320245,
    "lat": 36.72055612
  },
  {
    "wikiId": "Q2839584",
    "name": "Panxón",
    "cat": "beach",
    "lon": -8.82048889,
    "lat": 42.14196111
  },
  {
    "wikiId": "Q2867112",
    "name": "Melville Beach, Saskatchewan",
    "cat": "beach",
    "lon": -102.7177,
    "lat": 50.61672
  },
  {
    "wikiId": "Q2874320",
    "name": "Ponta das Canas",
    "cat": "beach",
    "lon": -48.4316,
    "lat": -27.39772
  },
  {
    "wikiId": "Q2877673",
    "name": "Dumas Beach",
    "cat": "beach",
    "lon": 72.71527778,
    "lat": 21.07916667
  },
  {
    "wikiId": "Q2879303",
    "name": "Q2879303",
    "cat": "beach",
    "lon": -0.19775,
    "lat": 39.70045
  },
  {
    "wikiId": "Q2879375",
    "name": "Q2879375",
    "cat": "beach",
    "lon": -2.25959,
    "lat": 36.79416
  },
  {
    "wikiId": "Q2879767",
    "name": "Baie des Tortues",
    "cat": "beach",
    "lon": 165.454456,
    "lat": -21.60643
  },
  {
    "wikiId": "Q2881871",
    "name": "Zarautz",
    "cat": "beach",
    "lon": -2.16364,
    "lat": 43.2888
  },
  {
    "wikiId": "Q2881924",
    "name": "Q2881924",
    "cat": "beach",
    "lon": -3.1823168,
    "lat": 36.7490466
  },
  {
    "wikiId": "Q2888465",
    "name": "Frexulfe Beach",
    "cat": "beach",
    "lon": -6.674495,
    "lat": 43.559185
  },
  {
    "wikiId": "Q2893260",
    "name": "Playa de la Ribera",
    "cat": "beach",
    "lon": -5.31527778,
    "lat": 35.88694444
  },
  {
    "wikiId": "Q2895643",
    "name": "Benagil",
    "cat": "beach",
    "lon": -8.42583,
    "lat": 37.0875
  },
  {
    "wikiId": "Q2900110",
    "name": "Betina špilja",
    "cat": "beach",
    "lon": 18.122947222,
    "lat": 42.6395
  },
  {
    "wikiId": "Q2912997",
    "name": "McDonald Beach",
    "cat": "beach",
    "lon": 166.367,
    "lat": -77.25
  },
  {
    "wikiId": "Q2912998",
    "name": "Gilchrist Beach",
    "cat": "beach",
    "lon": 73.6,
    "lat": -53.033333333
  },
  {
    "wikiId": "Q3390889",
    "name": "Plages de Montsarrac",
    "cat": "beach",
    "lon": -2.72917,
    "lat": 47.5947
  },
  {
    "wikiId": "Q3393181",
    "name": "Poetto",
    "cat": "beach",
    "lon": 9.16917,
    "lat": 39.20861
  },
  {
    "wikiId": "Q3393542",
    "name": "Pointe Fine",
    "cat": "beach",
    "lon": -67.4806,
    "lat": 48.5383
  },
  {
    "wikiId": "Q3394182",
    "name": "Playa de Berria",
    "cat": "beach",
    "lon": -3.46326944,
    "lat": 43.46431944
  },
  {
    "wikiId": "Q3394898",
    "name": "Jaz Beach",
    "cat": "beach",
    "lon": 18.80472222,
    "lat": 42.28333333
  },
  {
    "wikiId": "Q3395750",
    "name": "Isla La Deva y el Playón de Bayas",
    "cat": "beach",
    "lon": -6.032833333,
    "lat": 43.590111111
  },
  {
    "wikiId": "Q3398218",
    "name": "Beach of A Lanzada",
    "cat": "beach",
    "lon": -8.8771,
    "lat": 42.4494
  },
  {
    "wikiId": "Q3399373",
    "name": "Beach of Orzán",
    "cat": "beach",
    "lon": -8.40618,
    "lat": 43.3699
  },
  {
    "wikiId": "Q3399382",
    "name": "Praia de Riazor",
    "cat": "beach",
    "lon": -8.411299999,
    "lat": 43.368599999
  },
  {
    "wikiId": "Q3401224",
    "name": "Q3401224",
    "cat": "beach",
    "lon": -48.62306,
    "lat": -27.6056
  },
  {
    "wikiId": "Q3401234",
    "name": "Q3401234",
    "cat": "beach",
    "lon": -48.597249,
    "lat": -27.611586
  },
  {
    "wikiId": "Q3401244",
    "name": "Prainha",
    "cat": "beach",
    "lon": -43.50528,
    "lat": -23.03965
  },
  {
    "wikiId": "Q3426178",
    "name": "Playa de Las Canteras",
    "cat": "beach",
    "lon": -15.436111111,
    "lat": 28.14
  },
  {
    "wikiId": "Q3438155",
    "name": "Rodeo Beach",
    "cat": "beach",
    "lon": -122.53692,
    "lat": 37.82993
  },
  {
    "wikiId": "Q3465043",
    "name": "Danče Beach",
    "cat": "beach",
    "lon": 18.100788888,
    "lat": 42.640611111
  },
  {
    "wikiId": "Q3469629",
    "name": "Salar de Antofalla",
    "cat": "beach",
    "lon": -67.6856,
    "lat": -25.6836
  },
  {
    "wikiId": "Q3469630",
    "name": "Salar de Pastos Grandes",
    "cat": "beach",
    "lon": -66.72059,
    "lat": -24.62552
  },
  {
    "wikiId": "Q3469801",
    "name": "Salina de la Laguna Verde",
    "cat": "beach",
    "lon": -68.665,
    "lat": -27.4886
  },
  {
    "wikiId": "Q3472721",
    "name": "Santa María del Mar, Havana",
    "cat": "beach",
    "lon": -82.191666666,
    "lat": 23.1725
  },
  {
    "wikiId": "Q3482030",
    "name": "Shichiri Mihama",
    "cat": "beach",
    "lon": 136.039,
    "lat": 33.788889
  },
  {
    "wikiId": "Q3491767",
    "name": "Leptokarya",
    "cat": "beach",
    "lon": 22.5612,
    "lat": 40.06032
  },
  {
    "wikiId": "Q3506816",
    "name": "Jericho Beach",
    "cat": "beach",
    "lon": -123.192,
    "lat": 49.272
  },
  {
    "wikiId": "Q3525242",
    "name": "Shankumugham Beach",
    "cat": "beach",
    "lon": 76.9123703,
    "lat": 8.4811295
  },
  {
    "wikiId": "Q3553247",
    "name": "Vagator Beach",
    "cat": "beach",
    "lon": 73.7448437,
    "lat": 15.597971
  },
  {
    "wikiId": "Q3556881",
    "name": "Reggae Beach",
    "cat": "beach",
    "lon": -77.0440936,
    "lat": 18.4214964
  },
  {
    "wikiId": "Q3560574",
    "name": "Paralia Skotinas",
    "cat": "beach",
    "lon": 22.58333333,
    "lat": 40.03333333
  },
  {
    "wikiId": "Q3565376",
    "name": "Paralia Panteleimonos",
    "cat": "beach",
    "lon": 22.5915,
    "lat": 40.0174
  },
  {
    "wikiId": "Q3649992",
    "name": "Cala Violina",
    "cat": "beach",
    "lon": 10.77433333,
    "lat": 42.85561111
  },
  {
    "wikiId": "Q3649993",
    "name": "Cala del Leone",
    "cat": "beach",
    "lon": 10.35461944,
    "lat": 43.463725
  },
  {
    "wikiId": "Q3650053",
    "name": "Spiaggia di Calamosca",
    "cat": "beach",
    "lon": 9.15196,
    "lat": 39.18641
  },
  {
    "wikiId": "Q3656317",
    "name": "Olympiaki Akti",
    "cat": "beach",
    "lon": 22.58333333,
    "lat": 40.26666667
  },
  {
    "wikiId": "Q3657228",
    "name": "Capocotta",
    "cat": "beach",
    "lon": 12.40297,
    "lat": 41.66458
  },
  {
    "wikiId": "Q3657864",
    "name": "Capriccioli",
    "cat": "beach",
    "lon": 9.552902,
    "lat": 41.079424
  },
  {
    "wikiId": "Q3687633",
    "name": "The Silver Strand",
    "cat": "beach",
    "lon": -8.77528,
    "lat": 54.6643
  },
  {
    "wikiId": "Q3695282",
    "name": "Gafanha da Encarnação",
    "cat": "beach",
    "lon": -8.75056667,
    "lat": 40.61476667
  },
  {
    "wikiId": "Q3705947",
    "name": "Piscinas",
    "cat": "beach",
    "lon": 8.45055556,
    "lat": 39.54027778
  },
  {
    "wikiId": "Q3744366",
    "name": "Fiascherino",
    "cat": "beach",
    "lon": 9.924599,
    "lat": 44.064153
  },
  {
    "wikiId": "Q3750600",
    "name": "Graham Coast",
    "cat": "beach",
    "lon": -64,
    "lat": -65.75
  },
  {
    "wikiId": "Q3751798",
    "name": "Zumberge Coast",
    "cat": "beach",
    "lon": -74,
    "lat": -78
  },
  {
    "wikiId": "Q3751802",
    "name": "Wilkins Coast",
    "cat": "beach",
    "lon": -63,
    "lat": -69.6667
  },
  {
    "wikiId": "Q3751806",
    "name": "English Coast",
    "cat": "beach",
    "lon": -73,
    "lat": -73.5
  },
  {
    "wikiId": "Q3751815",
    "name": "Black Coast",
    "cat": "beach",
    "lon": -62,
    "lat": -71.75
  },
  {
    "wikiId": "Q3753808",
    "name": "Playa de Gulpiyuri",
    "cat": "beach",
    "lon": -4.886105,
    "lat": 43.44756
  },
  {
    "wikiId": "Q3756074",
    "name": "Rymill Coast",
    "cat": "beach",
    "lon": -67.5,
    "lat": -71
  },
  {
    "wikiId": "Q3817775",
    "name": "Agraciada Beach",
    "cat": "beach",
    "lon": -58.426666666,
    "lat": -33.808333333
  },
  {
    "wikiId": "Q3821086",
    "name": "La Punta Beach (Lake Como)",
    "cat": "beach",
    "lon": 9.38027778,
    "lat": 46.16277778
  },
  {
    "wikiId": "Q3822371",
    "name": "Playa El Yaque",
    "cat": "beach",
    "lon": -63.96166667,
    "lat": 10.89666667
  },
  {
    "wikiId": "Q3828296",
    "name": "Spiaggia delle Bombarde",
    "cat": "beach",
    "lon": 8.2578,
    "lat": 40.5844
  },
  {
    "wikiId": "Q3834987",
    "name": "Litorale del Cavallino",
    "cat": "beach",
    "lon": 12.49815,
    "lat": 45.45399
  },
  {
    "wikiId": "Q3892461",
    "name": "Lysiacha Bay",
    "cat": "beach",
    "lon": 35.163888888,
    "lat": 44.898055555
  },
  {
    "wikiId": "Q3905173",
    "name": "Spiaggia di Mugoni",
    "cat": "beach",
    "lon": 8.20253,
    "lat": 40.6176
  },
  {
    "wikiId": "Q3909149",
    "name": "Porto Ferro",
    "cat": "beach",
    "lon": 8.196111111,
    "lat": 40.683333333
  },
  {
    "wikiId": "Q3933851",
    "name": "Dufek Coast",
    "cat": "beach",
    "lon": -179,
    "lat": -84.5
  },
  {
    "wikiId": "Q3944448",
    "name": "Platja de Mutxavista",
    "cat": "beach",
    "lon": -0.40495,
    "lat": 38.40148
  },
  {
    "wikiId": "Q3944573",
    "name": "Q3944573",
    "cat": "beach",
    "lon": -0.38985,
    "lat": 38.42445
  },
  {
    "wikiId": "Q3947467",
    "name": "San Leone",
    "cat": "beach",
    "lon": 13.588888888,
    "lat": 37.261388888
  },
  {
    "wikiId": "Q3966656",
    "name": "Spiagge bianche",
    "cat": "beach",
    "lon": 10.44008889,
    "lat": 43.37270278
  },
  {
    "wikiId": "Q3966660",
    "name": "Lecciona",
    "cat": "beach",
    "lon": 10.2425,
    "lat": 43.8502
  },
  {
    "wikiId": "Q3966662",
    "name": "Spiaggia Bérchida",
    "cat": "beach",
    "lon": 9.8102331,
    "lat": 40.4792063
  },
  {
    "wikiId": "Q3966664",
    "name": "Calamosche beach",
    "cat": "beach",
    "lon": 15.105652,
    "lat": 36.824366
  },
  {
    "wikiId": "Q3966665",
    "name": "Q3966665",
    "cat": "beach",
    "lon": -3.97173056,
    "lat": 43.44621944
  },
  {
    "wikiId": "Q3966667",
    "name": "Spiaggia di Cavoli",
    "cat": "beach",
    "lon": 10.18703,
    "lat": 42.73702
  },
  {
    "wikiId": "Q3966668",
    "name": "spiaggia  di Fetovaia",
    "cat": "beach",
    "lon": 10.15365,
    "lat": 42.73282
  },
  {
    "wikiId": "Q3966672",
    "name": "The Pink Beach",
    "cat": "beach",
    "lon": 9.35594,
    "lat": 41.2791
  },
  {
    "wikiId": "Q3966673",
    "name": "Playa de Valdearenas",
    "cat": "beach",
    "lon": -3.968694444,
    "lat": 43.448027777
  },
  {
    "wikiId": "Q3966675",
    "name": "Svanemølle Beach",
    "cat": "beach",
    "lon": 12.5831,
    "lat": 55.7206
  },
  {
    "wikiId": "Q4025915",
    "name": "Q4025915",
    "cat": "beach",
    "lon": -0.19085,
    "lat": 39.71742
  },
  {
    "wikiId": "Q4075966",
    "name": "Baklan",
    "cat": "beach",
    "lon": 131.4,
    "lat": 42.816666666
  },
  {
    "wikiId": "Q4084189",
    "name": "Pravda Coast",
    "cat": "beach",
    "lon": 94,
    "lat": -67
  },
  {
    "wikiId": "Q4084201",
    "name": "Shackleton Coast",
    "cat": "beach",
    "lon": 162,
    "lat": -82
  },
  {
    "wikiId": "Q4165988",
    "name": "Barking Sands",
    "cat": "beach",
    "lon": -159.776944444,
    "lat": 22.058055555
  },
  {
    "wikiId": "Q4167946",
    "name": "Eighty Mile Beach",
    "cat": "beach",
    "lon": 121.397,
    "lat": -19.2697
  },
  {
    "wikiId": "Q4170274",
    "name": "Playa de El Rinconcillo",
    "cat": "beach",
    "lon": -5.44111111,
    "lat": 36.15777778
  },
  {
    "wikiId": "Q4172268",
    "name": "Beaches in Kurortny District of Saint Petersburg",
    "cat": "beach",
    "lon": 29.943055555,
    "lat": 60.122222222
  },
  {
    "wikiId": "Q4189738",
    "name": "Pangandaran",
    "cat": "beach",
    "lon": 108.638753,
    "lat": -7.687528
  },
  {
    "wikiId": "Q4251048",
    "name": "Eastern Beach",
    "cat": "beach",
    "lon": -5.33978,
    "lat": 36.14893
  },
  {
    "wikiId": "Q4253934",
    "name": "Lanzheron",
    "cat": "beach",
    "lon": 30.765487,
    "lat": 46.475255
  },
  {
    "wikiId": "Q4267578",
    "name": "Playa del Chorillo",
    "cat": "beach",
    "lon": -5.322499999,
    "lat": 35.884999999
  },
  {
    "wikiId": "Q4267614",
    "name": "Playa del Barranco",
    "cat": "beach",
    "lon": -5.44555556,
    "lat": 36.145
  },
  {
    "wikiId": "Q4267640",
    "name": "Playa de El Chinarral",
    "cat": "beach",
    "lon": -5.43666667,
    "lat": 36.11222222
  },
  {
    "wikiId": "Q4267662",
    "name": "Playa de Los Ladrillos",
    "cat": "beach",
    "lon": -5.44666667,
    "lat": 36.14027778
  },
  {
    "wikiId": "Q4321796",
    "name": "Hillary Coast",
    "cat": "beach",
    "lon": 161,
    "lat": -79.3333
  },
  {
    "wikiId": "Q4406371",
    "name": "Samara embankment",
    "cat": "beach",
    "lon": 50.082222222,
    "lat": 53.189694444
  },
  {
    "wikiId": "Q4461740",
    "name": "Tragumna",
    "cat": "beach",
    "lon": -9.266764,
    "lat": 51.500814
  },
  {
    "wikiId": "Q4536220",
    "name": "Yagry",
    "cat": "beach",
    "lon": 39.833333333,
    "lat": 64.6
  },
  {
    "wikiId": "Q4666774",
    "name": "Aberavon Beach",
    "cat": "beach",
    "lon": -3.82639,
    "lat": 51.5964
  },
  {
    "wikiId": "Q4666890",
    "name": "Aberdeen Beach and Queens Links",
    "cat": "beach",
    "lon": -2.07722,
    "lat": 57.1531
  },
  {
    "wikiId": "Q4667129",
    "name": "Abermawr",
    "cat": "beach",
    "lon": -5.0853,
    "lat": 51.9694
  },
  {
    "wikiId": "Q4692427",
    "name": "Aghia Fotia Beach",
    "cat": "beach",
    "lon": 25.87361813,
    "lat": 35.02156202
  },
  {
    "wikiId": "Q4692434",
    "name": "Aghios Andreas Beach",
    "cat": "beach",
    "lon": 21.310219,
    "lat": 37.66378
  },
  {
    "wikiId": "Q4692589",
    "name": "Agioi Apostoli",
    "cat": "beach",
    "lon": 23.97666667,
    "lat": 35.50833333
  },
  {
    "wikiId": "Q31103",
    "name": "Fulong Beach",
    "cat": "beach",
    "lon": 121.94527778,
    "lat": 25.02083333
  },
  {
    "wikiId": "Q32892",
    "name": "Tai Po Lung Mei Beach",
    "cat": "beach",
    "lon": 114.227739,
    "lat": 22.471136
  },
  {
    "wikiId": "Q63894",
    "name": "Copacabana Beach",
    "cat": "beach",
    "lon": -43.181649,
    "lat": -22.970958
  },
  {
    "wikiId": "Q115358",
    "name": "Guardalavaca",
    "cat": "beach",
    "lon": -75.828888888,
    "lat": 21.125
  },
  {
    "wikiId": "Q124971",
    "name": "Sabrina Coast",
    "cat": "beach",
    "lon": 119,
    "lat": -67.3333
  },
  {
    "wikiId": "Q168548",
    "name": "Vai",
    "cat": "beach",
    "lon": 26.26472222,
    "lat": 35.25416667
  },
  {
    "wikiId": "Q203325",
    "name": "Praia Vermelha",
    "cat": "beach",
    "lon": -43.16472222,
    "lat": -22.95527778
  },
  {
    "wikiId": "Q205081",
    "name": "El Médano",
    "cat": "beach",
    "lon": -16.537190871,
    "lat": 28.045677395
  },
  {
    "wikiId": "Q227190",
    "name": "Zrće",
    "cat": "beach",
    "lon": 14.91497,
    "lat": 44.53873
  },
  {
    "wikiId": "Q247706",
    "name": "Champagne Beach",
    "cat": "beach",
    "lon": 167.120380555,
    "lat": -15.143791666
  },
  {
    "wikiId": "Q253103",
    "name": "Playa Girón",
    "cat": "beach",
    "lon": -81.03333333,
    "lat": 22.06666667
  },
  {
    "wikiId": "Q280262",
    "name": "Baby Beach",
    "cat": "beach",
    "lon": -69.8796,
    "lat": 12.4138
  },
  {
    "wikiId": "Q284093",
    "name": "Kaputaş Beach",
    "cat": "beach",
    "lon": 29.4492,
    "lat": 36.2292
  },
  {
    "wikiId": "Q304257",
    "name": "Q304257",
    "cat": "beach",
    "lon": -8.8914,
    "lat": 40.218
  },
  {
    "wikiId": "Q336318",
    "name": "Alang Ship Breaking Yard",
    "cat": "beach",
    "lon": 72.1975,
    "lat": 21.41
  },
  {
    "wikiId": "Q384565",
    "name": "Alappuzha Beach",
    "cat": "beach",
    "lon": 76.317698,
    "lat": 9.49299
  },
  {
    "wikiId": "Q426976",
    "name": "El Tuque",
    "cat": "beach",
    "lon": -66.643333333,
    "lat": 17.980833333
  },
  {
    "wikiId": "Q427783",
    "name": "Platja del Morro de Gos",
    "cat": "beach",
    "lon": 0.14685556,
    "lat": 40.091925
  },
  {
    "wikiId": "Q430366",
    "name": "Dail Mòr",
    "cat": "beach",
    "lon": -6.75,
    "lat": 58.3028
  },
  {
    "wikiId": "Q452470",
    "name": "Amager Strandpark",
    "cat": "beach",
    "lon": 12.63921261,
    "lat": 55.65764036
  },
  {
    "wikiId": "Q464257",
    "name": "Omaha Beach",
    "cat": "beach",
    "lon": -0.868611111,
    "lat": 49.368888888
  },
  {
    "wikiId": "Q468540",
    "name": "Ipanema District",
    "cat": "beach",
    "lon": -43.204527777,
    "lat": -22.983819444
  },
  {
    "wikiId": "Q473649",
    "name": "Ammoudi",
    "cat": "beach",
    "lon": 24.42,
    "lat": 35.17083333
  },
  {
    "wikiId": "Q488514",
    "name": "Anawhata",
    "cat": "beach",
    "lon": 174.455,
    "lat": -36.92083333
  },
  {
    "wikiId": "Q491203",
    "name": "Haeundae Beach",
    "cat": "beach",
    "lon": 129.1428746,
    "lat": 35.1586957
  },
  {
    "wikiId": "Q495370",
    "name": "Gwangalli Beach",
    "cat": "beach",
    "lon": 129.12055556,
    "lat": 35.15416667
  },
  {
    "wikiId": "Q519659",
    "name": "Costa del Maresme",
    "cat": "beach",
    "lon": 2.544731,
    "lat": 41.576215
  },
  {
    "wikiId": "Q536240",
    "name": "Siple Coast",
    "cat": "beach",
    "lon": -155,
    "lat": -82
  },
  {
    "wikiId": "Q538419",
    "name": "Cala Sisine",
    "cat": "beach",
    "lon": 9.63448,
    "lat": 40.17963
  },
  {
    "wikiId": "Q539499",
    "name": "Plage des Salines",
    "cat": "beach",
    "lon": -60.879505,
    "lat": 14.40372
  },
  {
    "wikiId": "Q541104",
    "name": "Shirase Coast",
    "cat": "beach",
    "lon": -156,
    "lat": -78.5
  },
  {
    "wikiId": "Q545972",
    "name": "Cofete",
    "cat": "beach",
    "lon": -14.37715556,
    "lat": 28.11062778
  },
  {
    "wikiId": "Q572654",
    "name": "Anthony Quinn Bay",
    "cat": "beach",
    "lon": 28.21055556,
    "lat": 36.3225
  },
  {
    "wikiId": "Q581560",
    "name": "Citara",
    "cat": "beach",
    "lon": 13.86119,
    "lat": 40.71727
  },
  {
    "wikiId": "Q586613",
    "name": "Nordenskjöld Coast",
    "cat": "beach",
    "lon": -60.5,
    "lat": -64.5
  },
  {
    "wikiId": "Q588991",
    "name": "Praia do Matadeiro",
    "cat": "beach",
    "lon": -48.49983,
    "lat": -27.75009
  },
  {
    "wikiId": "Q606880",
    "name": "Canajurê (beach)",
    "cat": "beach",
    "lon": -48.47653,
    "lat": -27.4281
  },
  {
    "wikiId": "Q612184",
    "name": "Praia das Maçãs",
    "cat": "beach",
    "lon": -9.47,
    "lat": 38.825
  },
  {
    "wikiId": "Q618156",
    "name": "Q618156",
    "cat": "beach",
    "lon": 27.159129,
    "lat": 35.602655
  },
  {
    "wikiId": "Q624423",
    "name": "Playa de la Arena",
    "cat": "beach",
    "lon": -16.839696,
    "lat": 28.23061
  },
  {
    "wikiId": "Q628201",
    "name": "Coney Island",
    "cat": "beach",
    "lon": -73.9825,
    "lat": 40.575
  },
  {
    "wikiId": "Q630024",
    "name": "Patong",
    "cat": "beach",
    "lon": 98.30738068,
    "lat": 7.90334098
  },
  {
    "wikiId": "Q640950",
    "name": "Areia Branca beach and hinterland",
    "cat": "beach",
    "lon": 125.61497778,
    "lat": -8.53201667
  },
  {
    "wikiId": "Q641117",
    "name": "Praia de Arembepe",
    "cat": "beach",
    "lon": -38.184166666,
    "lat": -12.778888888
  },
  {
    "wikiId": "Q664877",
    "name": "Railay Beach",
    "cat": "beach",
    "lon": 98.839444,
    "lat": 8.010556
  },
  {
    "wikiId": "Q669175",
    "name": "Aganoa Beach",
    "cat": "beach",
    "lon": -172.285919,
    "lat": -13.767033
  },
  {
    "wikiId": "Q673659",
    "name": "Marina Beach",
    "cat": "beach",
    "lon": 80.28368,
    "lat": 13.05418
  },
  {
    "wikiId": "Q682162",
    "name": "Ruby Beach",
    "cat": "beach",
    "lon": -124.415556,
    "lat": 47.710833
  },
  {
    "wikiId": "Q684879",
    "name": "Baker Beach",
    "cat": "beach",
    "lon": -122.483697,
    "lat": 37.793678
  },
  {
    "wikiId": "Q720267",
    "name": "Mole Beach",
    "cat": "beach",
    "lon": -48.4328,
    "lat": -27.60251
  },
  {
    "wikiId": "Q720486",
    "name": "Leopold and Astrid Coast",
    "cat": "beach",
    "lon": 85,
    "lat": -72
  },
  {
    "wikiId": "Q731049",
    "name": "Q731049",
    "cat": "beach",
    "lon": -48.51932,
    "lat": -27.78206
  },
  {
    "wikiId": "Q738098",
    "name": "Asprovalta",
    "cat": "beach",
    "lon": 23.70555556,
    "lat": 40.72472222
  },
  {
    "wikiId": "Q757273",
    "name": "Utah Beach",
    "cat": "beach",
    "lon": -1.174722222,
    "lat": 49.415833333
  },
  {
    "wikiId": "Q763889",
    "name": "Snæfjallaströnd",
    "cat": "beach",
    "lon": -22.726111111,
    "lat": 66.133611111
  },
  {
    "wikiId": "Q773853",
    "name": "Venice",
    "cat": "beach",
    "lon": -118.459166666,
    "lat": 33.990833333
  },
  {
    "wikiId": "Q794850",
    "name": "Q794850",
    "cat": "beach",
    "lon": 3.33056,
    "lat": -54.40139
  },
  {
    "wikiId": "Q805498",
    "name": "Balos Lagoon",
    "cat": "beach",
    "lon": 23.58853,
    "lat": 35.582404
  },
  {
    "wikiId": "Q806451",
    "name": "Bang Saen",
    "cat": "beach",
    "lon": 100.93333333,
    "lat": 13.26666667
  },
  {
    "wikiId": "Q851188",
    "name": "Glass Beach",
    "cat": "beach",
    "lon": -123.813055555,
    "lat": 39.453611111
  },
  {
    "wikiId": "Q859892",
    "name": "Q859892",
    "cat": "beach",
    "lon": -16.73653106,
    "lat": 13.42065096
  },
  {
    "wikiId": "Q877363",
    "name": "Tanjung Aru Beach",
    "cat": "beach",
    "lon": 116.045601,
    "lat": 5.946994
  },
  {
    "wikiId": "Q880988",
    "name": "Black's Beach",
    "cat": "beach",
    "lon": -117.253,
    "lat": 32.8892
  },
  {
    "wikiId": "Q891545",
    "name": "Bolonia, Spain",
    "cat": "beach",
    "lon": -5.76696396,
    "lat": 36.08758655
  },
  {
    "wikiId": "Q895056",
    "name": "Boulders Beach",
    "cat": "beach",
    "lon": 18.451,
    "lat": -34.197
  },
  {
    "wikiId": "Q911885",
    "name": "Taba Heights",
    "cat": "beach",
    "lon": 34.798611111,
    "lat": 29.386388888
  },
  {
    "wikiId": "Q922921",
    "name": "Maho Beach",
    "cat": "beach",
    "lon": -63.12028,
    "lat": 18.03917
  },
  {
    "wikiId": "Q928344",
    "name": "Princess Martha Coast",
    "cat": "beach",
    "lon": -7.5,
    "lat": -72
  },
  {
    "wikiId": "Q929876",
    "name": "Voramar",
    "cat": "beach",
    "lon": 0.08456,
    "lat": 40.05658
  },
  {
    "wikiId": "Q940969",
    "name": "Sambaqui",
    "cat": "beach",
    "lon": -48.53116,
    "lat": -27.49105
  },
  {
    "wikiId": "Q949218",
    "name": "Anse Lazio",
    "cat": "beach",
    "lon": 55.701667,
    "lat": -4.293611
  },
  {
    "wikiId": "Q955895",
    "name": "Praia dos Naufragados",
    "cat": "beach",
    "lon": -48.563,
    "lat": -27.83391
  },
  {
    "wikiId": "Q972800",
    "name": "Pennell Coast",
    "cat": "beach",
    "lon": 167,
    "lat": -71
  },
  {
    "wikiId": "Q974189",
    "name": "Cala Vinyes",
    "cat": "beach",
    "lon": 2.53416667,
    "lat": 39.495
  },
  {
    "wikiId": "Q992279",
    "name": "Q992279",
    "cat": "beach",
    "lon": -16.76016281,
    "lat": 13.39353185
  },
  {
    "wikiId": "Q996212",
    "name": "Kujūkuri Beach",
    "cat": "beach",
    "lon": 140.428333333,
    "lat": 35.496944444
  },
  {
    "wikiId": "Q996836",
    "name": "Phalasarna",
    "cat": "beach",
    "lon": 23.569843,
    "lat": 35.511364
  },
  {
    "wikiId": "Q998997",
    "name": "Mónsul Beach",
    "cat": "beach",
    "lon": -2.152394,
    "lat": 36.731229
  },
  {
    "wikiId": "Q1001590",
    "name": "Neoi Poroi",
    "cat": "beach",
    "lon": 22.65930183,
    "lat": 39.97501533
  },
  {
    "wikiId": "Q1018677",
    "name": "Rabac",
    "cat": "beach",
    "lon": 14.161666666,
    "lat": 45.078055555
  },
  {
    "wikiId": "Q1021024",
    "name": "Bürgerablage",
    "cat": "beach",
    "lon": 13.2114,
    "lat": 52.585
  },
  {
    "wikiId": "Q1021670",
    "name": "Laganas",
    "cat": "beach",
    "lon": 20.82694444,
    "lat": 37.70583333
  },
  {
    "wikiId": "Q1026131",
    "name": "Cala Agulla",
    "cat": "beach",
    "lon": 3.45277778,
    "lat": 39.72277778
  },
  {
    "wikiId": "Q1026136",
    "name": "Q1026136",
    "cat": "beach",
    "lon": 1.21805556,
    "lat": 38.89472222
  },
  {
    "wikiId": "Q1026140",
    "name": "Cala Fornells",
    "cat": "beach",
    "lon": 2.4377,
    "lat": 39.5319
  },
  {
    "wikiId": "Q1026141",
    "name": "Cala Ginepro",
    "cat": "beach",
    "lon": 9.793625,
    "lat": 40.447992
  },
  {
    "wikiId": "Q1026150",
    "name": "Arenal de Son Servera",
    "cat": "beach",
    "lon": 3.38583333,
    "lat": 39.60194444
  },
  {
    "wikiId": "Q1026151",
    "name": "Platja de Cala Millor",
    "cat": "beach",
    "lon": 3.38472222,
    "lat": 39.5975
  },
  {
    "wikiId": "Q1026154",
    "name": "Cala Mitjana",
    "cat": "beach",
    "lon": 3.97267,
    "lat": 39.9344
  },
  {
    "wikiId": "Q1026167",
    "name": "Cala Vadella",
    "cat": "beach",
    "lon": 1.22388889,
    "lat": 38.91305556
  },
  {
    "wikiId": "Q1051951",
    "name": "Platamon",
    "cat": "beach",
    "lon": 22.62666667,
    "lat": 39.99111111
  },
  {
    "wikiId": "Q1053014",
    "name": "Barceloneta Beach",
    "cat": "beach",
    "lon": 2.19241667,
    "lat": 41.37841944
  },
  {
    "wikiId": "Q1121290",
    "name": "Lido di Pomposa",
    "cat": "beach",
    "lon": 12.237777777,
    "lat": 44.715555555
  },
  {
    "wikiId": "Q1209035",
    "name": "Diani Beach",
    "cat": "beach",
    "lon": 39.575,
    "lat": -4.32222222
  },
  {
    "wikiId": "Q1241471",
    "name": "Platja del Postiguet",
    "cat": "beach",
    "lon": -0.47588,
    "lat": 38.34658
  },
  {
    "wikiId": "Q1247802",
    "name": "Komos Beach",
    "cat": "beach",
    "lon": 24.76013889,
    "lat": 35.01444444
  },
  {
    "wikiId": "Q1259677",
    "name": "Myrtos Beach",
    "cat": "beach",
    "lon": 20.53611111,
    "lat": 38.34361111
  },
  {
    "wikiId": "Q1261616",
    "name": "Drimiskiano Ammoudi",
    "cat": "beach",
    "lon": 24.47861111,
    "lat": 35.15305556
  },
  {
    "wikiId": "Q1262826",
    "name": "Zlatni Rat",
    "cat": "beach",
    "lon": 16.633888888,
    "lat": 43.255833333
  },
  {
    "wikiId": "Q1320876",
    "name": "Da Nhay Beach",
    "cat": "beach",
    "lon": 106.583,
    "lat": 17.467
  },
  {
    "wikiId": "Q1321816",
    "name": "Encuentro Beach, Dominican Republic",
    "cat": "beach",
    "lon": -70.4513526,
    "lat": 19.78309969
  },
  {
    "wikiId": "Q1323705",
    "name": "Kololi Beach",
    "cat": "beach",
    "lon": -16.7219896,
    "lat": 13.44101462
  },
  {
    "wikiId": "Q1339253",
    "name": "Laem Sing",
    "cat": "beach",
    "lon": 102.07,
    "lat": 12.477777777
  },
  {
    "wikiId": "Q1356405",
    "name": "Platja de l'Estanyet",
    "cat": "beach",
    "lon": 0.52322,
    "lat": 40.54003
  },
  {
    "wikiId": "Q1366404",
    "name": "Es Ribell",
    "cat": "beach",
    "lon": 3.40694444,
    "lat": 39.63722222
  },
  {
    "wikiId": "Q1367981",
    "name": "Salar del Hombre Muerto",
    "cat": "beach",
    "lon": -67.07,
    "lat": -25.35
  },
  {
    "wikiId": "Q1418746",
    "name": "Q1418746",
    "cat": "beach",
    "lon": -16.78958895,
    "lat": 13.26330764
  },
  {
    "wikiId": "Q1438516",
    "name": "Na Ferradura",
    "cat": "beach",
    "lon": 3.30277778,
    "lat": 39.75
  },
  {
    "wikiId": "Q1453927",
    "name": "Ninety Mile Beach",
    "cat": "beach",
    "lon": 147.288,
    "lat": -38.3022
  },
  {
    "wikiId": "Q1454473",
    "name": "Praia da Vinha da Areia",
    "cat": "beach",
    "lon": -25.425475,
    "lat": 37.71684722
  },
  {
    "wikiId": "Q1466460",
    "name": "Zagore Beach",
    "cat": "beach",
    "lon": -60.3231,
    "lat": -62.7128
  },
  {
    "wikiId": "Q1472325",
    "name": "Ftelia",
    "cat": "beach",
    "lon": 25.375,
    "lat": 37.46111111
  },
  {
    "wikiId": "Q1502258",
    "name": "Geniusstrand",
    "cat": "beach",
    "lon": 8.13348889,
    "lat": 53.58123611
  },
  {
    "wikiId": "Q1545614",
    "name": "Strandbad Wannsee",
    "cat": "beach",
    "lon": 13.1789,
    "lat": 52.4386
  },
  {
    "wikiId": "Q1552804",
    "name": "Guarajuba",
    "cat": "beach",
    "lon": -38.070885,
    "lat": -12.655623
  },
  {
    "wikiId": "Q1566212",
    "name": "Platja des Coll Baix",
    "cat": "beach",
    "lon": 3.18722222,
    "lat": 39.86236111
  },
  {
    "wikiId": "Q1566473",
    "name": "Praia da Areia Branca",
    "cat": "beach",
    "lon": -9.33614731,
    "lat": 39.26681603
  },
  {
    "wikiId": "Q1576051",
    "name": "Princess Astrid Coast",
    "cat": "beach",
    "lon": 12,
    "lat": -71
  },
  {
    "wikiId": "Q1578672",
    "name": "Prince Olav Coast",
    "cat": "beach",
    "lon": 41,
    "lat": -69
  },
  {
    "wikiId": "Q1599044",
    "name": "Na Patana",
    "cat": "beach",
    "lon": 3.175,
    "lat": 39.7575
  },
  {
    "wikiId": "Q1605260",
    "name": "Lars Christensen Coast",
    "cat": "beach",
    "lon": 69,
    "lat": -69
  },
  {
    "wikiId": "Q1616274",
    "name": "Hetlinger Schanze",
    "cat": "beach",
    "lon": 9.60167,
    "lat": 53.6056
  },
  {
    "wikiId": "Q1626861",
    "name": "Praia da Marinha",
    "cat": "beach",
    "lon": -8.41202,
    "lat": 37.0897
  },
  {
    "wikiId": "Q1626998",
    "name": "Playa Baracoa",
    "cat": "beach",
    "lon": -82.565,
    "lat": 23.04916667
  },
  {
    "wikiId": "Q1663286",
    "name": "Ingrid Christensen Coast",
    "cat": "beach",
    "lon": 77,
    "lat": -69.5
  },
  {
    "wikiId": "Q1670751",
    "name": "Maresias",
    "cat": "beach",
    "lon": -45.5616,
    "lat": -23.7873
  },
  {
    "wikiId": "Q1703689",
    "name": "Kollam Beach",
    "cat": "beach",
    "lon": 76.58927,
    "lat": 8.87527
  },
  {
    "wikiId": "Q1708764",
    "name": "La Tejita",
    "cat": "beach",
    "lon": -16.556657,
    "lat": 28.0316396
  },
  {
    "wikiId": "Q1728528",
    "name": "Q1728528",
    "cat": "beach",
    "lon": -7.50017222,
    "lat": 37.16895278
  },
  {
    "wikiId": "Q1752037",
    "name": "Praia da Rocha",
    "cat": "beach",
    "lon": -8.53333333,
    "lat": 37.11666667
  },
  {
    "wikiId": "Q1789991",
    "name": "Sanur Beach",
    "cat": "beach",
    "lon": 115.266666666,
    "lat": -8.683333333
  },
  {
    "wikiId": "Q1800122",
    "name": "Laem Sing",
    "cat": "beach",
    "lon": 98.279528,
    "lat": 7.968315
  },
  {
    "wikiId": "Q1800335",
    "name": "Pendine Sands",
    "cat": "beach",
    "lon": -4.4975,
    "lat": 51.7325
  },
  {
    "wikiId": "Q1813105",
    "name": "Q1813105",
    "cat": "beach",
    "lon": 106.63917,
    "lat": 17.47069
  },
  {
    "wikiId": "Q1815153",
    "name": "Torre Mileto",
    "cat": "beach",
    "lon": 15.56805,
    "lat": 41.91857
  },
  {
    "wikiId": "Q1818509",
    "name": "Q1818509",
    "cat": "beach",
    "lon": -69.16111,
    "lat": 12.37944
  },
  {
    "wikiId": "Q1824253",
    "name": "Lieper Bucht",
    "cat": "beach",
    "lon": 13.1959,
    "lat": 52.4704
  },
  {
    "wikiId": "Q1832006",
    "name": "Els Muntanyans",
    "cat": "beach",
    "lon": 1.43111111,
    "lat": 41.15166667
  },
  {
    "wikiId": "Q1850763",
    "name": "Cala d’Hort",
    "cat": "beach",
    "lon": 1.224288888,
    "lat": 38.890263888
  },
  {
    "wikiId": "Q1860815",
    "name": "Salar de Coipasa",
    "cat": "beach",
    "lon": -68.15,
    "lat": -19.433333333
  },
  {
    "wikiId": "Q1869771",
    "name": "Praia de Lopes Mendes",
    "cat": "beach",
    "lon": -44.12993,
    "lat": -23.16964
  },
  {
    "wikiId": "Q1872519",
    "name": "Lovina Beach",
    "cat": "beach",
    "lon": 115.025661111,
    "lat": -8.162502777
  },
  {
    "wikiId": "Q1882784",
    "name": "Lara",
    "cat": "beach",
    "lon": 30.812927,
    "lat": 36.849211
  },
  {
    "wikiId": "Q1884833",
    "name": "Santa Barbara Beach, Curaçao",
    "cat": "beach",
    "lon": -68.83333,
    "lat": 12.05833
  },
  {
    "wikiId": "Q1902951",
    "name": "Lido degli Scacchi",
    "cat": "beach",
    "lon": 12.231111111,
    "lat": 44.698055555
  },
  {
    "wikiId": "Q1915052",
    "name": "Daniela",
    "cat": "beach",
    "lon": -48.53468,
    "lat": -27.44766
  },
  {
    "wikiId": "Q1929363",
    "name": "Playa del Inglés",
    "cat": "beach",
    "lon": -15.58056,
    "lat": 27.75
  },
  {
    "wikiId": "Q1933285",
    "name": "Blue Bay, Curaçao",
    "cat": "beach",
    "lon": -68.98472,
    "lat": 12.13444
  },
  {
    "wikiId": "Q1945126",
    "name": "Q1945126",
    "cat": "beach",
    "lon": -48.47889,
    "lat": -27.6814
  },
  {
    "wikiId": "Q1955539",
    "name": "Baya Beach",
    "cat": "beach",
    "lon": -68.86139,
    "lat": 12.07056
  },
  {
    "wikiId": "Q1960947",
    "name": "Nhat Le Beach",
    "cat": "beach",
    "lon": 106.583,
    "lat": 17.467
  },
  {
    "wikiId": "Q1964753",
    "name": "Nantasket Beach",
    "cat": "beach",
    "lon": -70.874444444,
    "lat": 42.291666666
  },
  {
    "wikiId": "Q1966128",
    "name": "Playa Jeremi",
    "cat": "beach",
    "lon": -69.15028,
    "lat": 12.32889
  },
  {
    "wikiId": "Q2000517",
    "name": "Playa Blanca",
    "cat": "beach",
    "lon": -13.828483,
    "lat": 28.863806
  },
  {
    "wikiId": "Q2001977",
    "name": "Strand Horst",
    "cat": "beach",
    "lon": 5.5593,
    "lat": 52.31035
  },
  {
    "wikiId": "Q2029690",
    "name": "Oreti Beach",
    "cat": "beach",
    "lon": 168.23009,
    "lat": -46.44842
  },
  {
    "wikiId": "Q2032871",
    "name": "Ondarreta Beach",
    "cat": "beach",
    "lon": -2.00187,
    "lat": 43.3167
  },
  {
    "wikiId": "Q2037477",
    "name": "Plage du Prado",
    "cat": "beach",
    "lon": 5.371388888,
    "lat": 43.262777777
  },
  {
    "wikiId": "Q2038960",
    "name": "Praia da Tapera",
    "cat": "beach",
    "lon": -48.56694,
    "lat": -27.78722
  },
  {
    "wikiId": "Q2041018",
    "name": "Hietaniemi beach",
    "cat": "beach",
    "lon": 24.905373826,
    "lat": 60.17341976
  },
  {
    "wikiId": "Q2048357",
    "name": "Palolem Beach",
    "cat": "beach",
    "lon": 74.02277778,
    "lat": 15.00888889
  },
  {
    "wikiId": "Q2048674",
    "name": "Daaibooi",
    "cat": "beach",
    "lon": -69.08444,
    "lat": 12.21222
  },
  {
    "wikiId": "Q2048884",
    "name": "Playa Kalki",
    "cat": "beach",
    "lon": -69.157777777,
    "lat": 12.375555555
  },
  {
    "wikiId": "Q2091560",
    "name": "Mozambique Beach",
    "cat": "beach",
    "lon": -48.4019,
    "lat": -27.501192
  },
  {
    "wikiId": "Q2094487",
    "name": "Chaweng",
    "cat": "beach",
    "lon": 100.059804,
    "lat": 9.523354
  },
  {
    "wikiId": "Q2098644",
    "name": "Beaches of Sóller",
    "cat": "beach",
    "lon": 2.69166667,
    "lat": 39.79055556
  },
  {
    "wikiId": "Q2098646",
    "name": "Sa Marjal",
    "cat": "beach",
    "lon": 3.40388889,
    "lat": 39.63583333
  },
  {
    "wikiId": "Q2098650",
    "name": "Platja de Migjorn",
    "cat": "beach",
    "lon": 1.49166667,
    "lat": 38.675
  },
  {
    "wikiId": "Q2098656",
    "name": "El Caragol",
    "cat": "beach",
    "lon": 3.04277778,
    "lat": 39.27861111
  },
  {
    "wikiId": "Q2098663",
    "name": "Es Rajolí",
    "cat": "beach",
    "lon": 3.41222222,
    "lat": 39.63694444
  },
  {
    "wikiId": "Q2099009",
    "name": "Playa Santa Lucia",
    "cat": "beach",
    "lon": -77.03888889,
    "lat": 21.55083333
  },
  {
    "wikiId": "Q2099014",
    "name": "Playa de Vargas",
    "cat": "beach",
    "lon": -15.39395,
    "lat": 27.89131944
  },
  {
    "wikiId": "Q2100539",
    "name": "Q2100539",
    "cat": "beach",
    "lon": -48.51786,
    "lat": -27.51927
  },
  {
    "wikiId": "Q2104652",
    "name": "Canasvieiras",
    "cat": "beach",
    "lon": -48.45546,
    "lat": -27.42694
  },
  {
    "wikiId": "Q2105232",
    "name": "Q2105232",
    "cat": "beach",
    "lon": -37.88122222,
    "lat": -12.385525
  },
  {
    "wikiId": "Q2107535",
    "name": "Albandeira Beach",
    "cat": "beach",
    "lon": -8.400075,
    "lat": 37.09090833
  },
  {
    "wikiId": "Q2107541",
    "name": "Falesia Beach",
    "cat": "beach",
    "lon": -8.17,
    "lat": 37.08666667
  },
  {
    "wikiId": "Q10352742",
    "name": "Praia de Búzios",
    "cat": "beach",
    "lon": -35.1096,
    "lat": -6.0308
  },
  {
    "wikiId": "Q10352743",
    "name": "Buraquinho Beach",
    "cat": "beach",
    "lon": -38.282777777,
    "lat": -12.883055555
  },
  {
    "wikiId": "Q10352748",
    "name": "Q10352748",
    "cat": "beach",
    "lon": -7.54233,
    "lat": 37.15299
  },
  {
    "wikiId": "Q10352751",
    "name": "Praia de Calhetas",
    "cat": "beach",
    "lon": -45.52391,
    "lat": -23.83152
  },
  {
    "wikiId": "Q10352755",
    "name": "Praia de Camburi",
    "cat": "beach",
    "lon": -45.652833333,
    "lat": -23.777861111
  },
  {
    "wikiId": "Q10352758",
    "name": "Q10352758",
    "cat": "beach",
    "lon": -35.0998,
    "lat": -6.0852
  },
  {
    "wikiId": "Q10352759",
    "name": "Praia de Caponga",
    "cat": "beach",
    "lon": -38.1992885,
    "lat": -4.0413839
  },
  {
    "wikiId": "Q10352764",
    "name": "Praia de Carcavelos",
    "cat": "beach",
    "lon": -9.33416,
    "lat": 38.67838
  },
  {
    "wikiId": "Q10352767",
    "name": "Praia de Carne de Vaca",
    "cat": "beach",
    "lon": -34.8273572,
    "lat": -7.6310759
  },
  {
    "wikiId": "Q10352770",
    "name": "Q10352770",
    "cat": "beach",
    "lon": -8.79369,
    "lat": 41.55435
  },
  {
    "wikiId": "Q10352772",
    "name": "Q10352772",
    "cat": "beach",
    "lon": -35.155649,
    "lat": -5.904927
  },
  {
    "wikiId": "Q10352780",
    "name": "Q10352780",
    "cat": "beach",
    "lon": -43.1570053,
    "lat": -22.9455899
  },
  {
    "wikiId": "Q10352783",
    "name": "Praia do Grumari",
    "cat": "beach",
    "lon": -43.52639,
    "lat": -23.04713
  },
  {
    "wikiId": "Q10352792",
    "name": "Icaraí beach",
    "cat": "beach",
    "lon": -38.6883945,
    "lat": -3.6778535
  },
  {
    "wikiId": "Q10352797",
    "name": "Q10352797",
    "cat": "beach",
    "lon": -38.4953213,
    "lat": -12.8097377
  },
  {
    "wikiId": "Q10352799",
    "name": "Q10352799",
    "cat": "beach",
    "lon": -38.303888888,
    "lat": -12.909722222
  },
  {
    "wikiId": "Q10352801",
    "name": "Itacimirim beach",
    "cat": "beach",
    "lon": -38.0476831,
    "lat": -12.6275919
  },
  {
    "wikiId": "Q10352803",
    "name": "Itapuã Beach",
    "cat": "beach",
    "lon": -38.3626,
    "lat": -12.9535
  },
  {
    "wikiId": "Q10352804",
    "name": "Q10352804",
    "cat": "beach",
    "lon": -40.3021,
    "lat": -20.37033611
  },
  {
    "wikiId": "Q10352805",
    "name": "Praia de Jacarapé",
    "cat": "beach",
    "lon": -34.798861111,
    "lat": -7.19525
  },
  {
    "wikiId": "Q10352806",
    "name": "Q10352806",
    "cat": "beach",
    "lon": -46.391926,
    "lat": -23.9970564
  },
  {
    "wikiId": "Q10352807",
    "name": "Jaguaribe Beach",
    "cat": "beach",
    "lon": -38.3894,
    "lat": -12.9577
  },
  {
    "wikiId": "Q10352808",
    "name": "Jardim de Alah Beach",
    "cat": "beach",
    "lon": -38.44327,
    "lat": -12.99747
  },
  {
    "wikiId": "Q10352809",
    "name": "Q10352809",
    "cat": "beach",
    "lon": -38.231388888,
    "lat": -12.833611111
  },
  {
    "wikiId": "Q10352810",
    "name": "Jericoacoara Beach",
    "cat": "beach",
    "lon": -40.508,
    "lat": -2.794
  },
  {
    "wikiId": "Q10352812",
    "name": "Praia de Labruge",
    "cat": "beach",
    "lon": -8.729166666,
    "lat": 41.276944444
  },
  {
    "wikiId": "Q10352815",
    "name": "Machico beach",
    "cat": "beach",
    "lon": -16.76222222,
    "lat": 32.71861111
  },
  {
    "wikiId": "Q10352818",
    "name": "Praia de Majorlândia",
    "cat": "beach",
    "lon": -37.666666666,
    "lat": -4.55
  },
  {
    "wikiId": "Q10352821",
    "name": "Praia de Manib",
    "cat": "beach",
    "lon": -37.25,
    "lat": -4.8
  },
  {
    "wikiId": "Q10352823",
    "name": "Meaípe",
    "cat": "beach",
    "lon": -40.55,
    "lat": -20.733333
  },
  {
    "wikiId": "Q10352825",
    "name": "Praia do Meireles",
    "cat": "beach",
    "lon": -38.505555555,
    "lat": -3.720833333
  },
  {
    "wikiId": "Q10352827",
    "name": "Melides beach",
    "cat": "beach",
    "lon": -8.79407,
    "lat": 38.12928
  },
  {
    "wikiId": "Q10352829",
    "name": "Q10352829",
    "cat": "beach",
    "lon": -7.44744,
    "lat": 37.17665
  },
  {
    "wikiId": "Q10352833",
    "name": "Q10352833",
    "cat": "beach",
    "lon": -35.18024,
    "lat": -5.801251
  },
  {
    "wikiId": "Q10352834",
    "name": "Praia de Mundaú",
    "cat": "beach",
    "lon": -39.3820811,
    "lat": -3.1813093
  },
  {
    "wikiId": "Q10352837",
    "name": "Q10352837",
    "cat": "beach",
    "lon": -38.50549,
    "lat": -13.01169
  },
  {
    "wikiId": "Q10352838",
    "name": "Q10352838",
    "cat": "beach",
    "lon": -9.33776,
    "lat": 39.2852
  },
  {
    "wikiId": "Q10352840",
    "name": "Q10352840",
    "cat": "beach",
    "lon": -8.78435,
    "lat": 41.43115
  },
  {
    "wikiId": "Q10352842",
    "name": "Paranapuã Beach",
    "cat": "beach",
    "lon": -46.385333333,
    "lat": -23.978305555
  },
  {
    "wikiId": "Q10352843",
    "name": "Q10352843",
    "cat": "beach",
    "lon": -38.619444444,
    "lat": -12.77
  },
  {
    "wikiId": "Q10352845",
    "name": "Praia de Paço de Arcos",
    "cat": "beach",
    "lon": -9.2961,
    "lat": 38.69012
  },
  {
    "wikiId": "Q10352848",
    "name": "Q10352848",
    "cat": "beach",
    "lon": -38.38414,
    "lat": -12.95501
  },
  {
    "wikiId": "Q10352849",
    "name": "Pirangi beach",
    "cat": "beach",
    "lon": -35.12236,
    "lat": -5.983493
  },
  {
    "wikiId": "Q10352851",
    "name": "Praia de Pitangui",
    "cat": "beach",
    "lon": -35.2281248,
    "lat": -5.6229367
  },
  {
    "wikiId": "Q10352852",
    "name": "Q10352852",
    "cat": "beach",
    "lon": -43.65265,
    "lat": -23.00039
  },
  {
    "wikiId": "Q10352853",
    "name": "Q10352853",
    "cat": "beach",
    "lon": -37.5113,
    "lat": -4.6319
  },
  {
    "wikiId": "Q10352858",
    "name": "Q10352858",
    "cat": "beach",
    "lon": -39.73194444,
    "lat": -18.61583333
  },
  {
    "wikiId": "Q10352863",
    "name": "Pratigi Beach",
    "cat": "beach",
    "lon": -38.989899,
    "lat": -13.719483
  },
  {
    "wikiId": "Q10352874",
    "name": "Q10352874",
    "cat": "beach",
    "lon": 6.483333333,
    "lat": 0.266666666
  },
  {
    "wikiId": "Q10352877",
    "name": "Santa Cruz dos Navegantes Beach",
    "cat": "beach",
    "lon": -46.304722222,
    "lat": -23.996194444
  },
  {
    "wikiId": "Q10352880",
    "name": "Q10352880",
    "cat": "beach",
    "lon": -35.202255,
    "lat": -5.729155
  },
  {
    "wikiId": "Q10352882",
    "name": "Praia de Santo Amaro",
    "cat": "beach",
    "lon": -9.31096,
    "lat": 38.685065
  },
  {
    "wikiId": "Q10352886",
    "name": "Praia de Sepetiba",
    "cat": "beach",
    "lon": -43.7059,
    "lat": -22.9751
  },
  {
    "wikiId": "Q10352890",
    "name": "Q10352890",
    "cat": "beach",
    "lon": -8.79254,
    "lat": 41.54764
  },
  {
    "wikiId": "Q10352893",
    "name": "Praia de São Bento",
    "cat": "beach",
    "lon": -43.226944444,
    "lat": -22.820833333
  },
  {
    "wikiId": "Q10352894",
    "name": "Praia de São Conrado",
    "cat": "beach",
    "lon": -43.26111,
    "lat": -23
  },
  {
    "wikiId": "Q10352905",
    "name": "Tabuba Beach",
    "cat": "beach",
    "lon": -38.6985952,
    "lat": -3.650316
  },
  {
    "wikiId": "Q10352908",
    "name": "Praia das Taquaras",
    "cat": "beach",
    "lon": -48.580555555,
    "lat": -27.007777777
  },
  {
    "wikiId": "Q10352911",
    "name": "Tatajuba",
    "cat": "beach",
    "lon": -40.6959,
    "lat": -2.8623
  },
  {
    "wikiId": "Q10352919",
    "name": "Q10352919",
    "cat": "beach",
    "lon": -39.72277778,
    "lat": -19.06916667
  },
  {
    "wikiId": "Q10352929",
    "name": "Q10352929",
    "cat": "beach",
    "lon": -34.8572727,
    "lat": -8.0256762
  },
  {
    "wikiId": "Q10352930",
    "name": "Praia de Águas Belas",
    "cat": "beach",
    "lon": -38.1956417,
    "lat": -4.0489849
  },
  {
    "wikiId": "Q10352932",
    "name": "Praia do Abano",
    "cat": "beach",
    "lon": -9.47305,
    "lat": 38.74284
  },
  {
    "wikiId": "Q10352934",
    "name": "Abricó beach",
    "cat": "beach",
    "lon": -39.74722222,
    "lat": -18.71361111
  },
  {
    "wikiId": "Q10352935",
    "name": "Praia do Amado",
    "cat": "beach",
    "lon": -8.90455,
    "lat": 37.16654
  },
  {
    "wikiId": "Q10352940",
    "name": "Praia do Amor",
    "cat": "beach",
    "lon": -35.0576856,
    "lat": -6.2343566
  },
  {
    "wikiId": "Q10352941",
    "name": "Anil Beach",
    "cat": "beach",
    "lon": -44.309805555,
    "lat": -23.005833333
  },
  {
    "wikiId": "Q10352944",
    "name": "Praia do Areal",
    "cat": "beach",
    "lon": -9.33849,
    "lat": 39.25931
  },
  {
    "wikiId": "Q10352946",
    "name": "Q10352946",
    "cat": "beach",
    "lon": -48.58111111,
    "lat": -27.57805556
  },
  {
    "wikiId": "Q10352953",
    "name": "Praia do Barril",
    "cat": "beach",
    "lon": -7.66888889,
    "lat": 37.0825
  },
  {
    "wikiId": "Q10352959",
    "name": "Q10352959",
    "cat": "beach",
    "lon": -39.74916667,
    "lat": -18.77305556
  },
  {
    "wikiId": "Q10352960",
    "name": "Boqueirão Beach",
    "cat": "beach",
    "lon": -46.325583333,
    "lat": -23.973305555
  },
  {
    "wikiId": "Q10352968",
    "name": "Cabo Branco beach",
    "cat": "beach",
    "lon": -34.8257584,
    "lat": -7.1305483
  },
  {
    "wikiId": "Q10352972",
    "name": "Praia do Camilo",
    "cat": "beach",
    "lon": -8.66845,
    "lat": 37.08741
  },
  {
    "wikiId": "Q10352973",
    "name": "Q10352973",
    "cat": "beach",
    "lon": -9.33656,
    "lat": 39.28099
  },
  {
    "wikiId": "Q10352974",
    "name": "Q10352974",
    "cat": "beach",
    "lon": -40.291,
    "lat": -20.299222222
  },
  {
    "wikiId": "Q10352978",
    "name": "Q10352978",
    "cat": "beach",
    "lon": -39.74555556,
    "lat": -18.88277778
  },
  {
    "wikiId": "Q10352980",
    "name": "Q10352980",
    "cat": "beach",
    "lon": -8.77082,
    "lat": 41.38145
  },
  {
    "wikiId": "Q10352982",
    "name": "Praia do Carvalho",
    "cat": "beach",
    "lon": -8.43223889,
    "lat": 37.08673333
  },
  {
    "wikiId": "Q10352984",
    "name": "Chega Nego Beach",
    "cat": "beach",
    "lon": -38.44955,
    "lat": -13.00164
  },
  {
    "wikiId": "Q10352987",
    "name": "Praia do Corsário",
    "cat": "beach",
    "lon": -38.40893,
    "lat": -12.97033
  },
  {
    "wikiId": "Q10352994",
    "name": "Praia do Diabo",
    "cat": "beach",
    "lon": -43.18948,
    "lat": -22.98839
  },
  {
    "wikiId": "Q10352995",
    "name": "Q10352995",
    "cat": "beach",
    "lon": -39.72888889,
    "lat": -18.59527778
  },
  {
    "wikiId": "Q10352996",
    "name": "Praia do Estaleirinho",
    "cat": "beach",
    "lon": -48.5875,
    "lat": -27.04833
  },
  {
    "wikiId": "Q10352998",
    "name": "Farol da Barra Beach",
    "cat": "beach",
    "lon": -38.5319,
    "lat": -13.01039
  },
  {
    "wikiId": "Q10352999",
    "name": "Praia do Flamengo",
    "cat": "beach",
    "lon": -43.170833333,
    "lat": -22.927777777
  },
  {
    "wikiId": "Q10353000",
    "name": "Q10353000",
    "cat": "beach",
    "lon": -38.315277777,
    "lat": -12.925277777
  },
  {
    "wikiId": "Q10353003",
    "name": "Praia do Fogo",
    "cat": "beach",
    "lon": -25.31044,
    "lat": 37.730712
  },
  {
    "wikiId": "Q10353007",
    "name": "Q10353007",
    "cat": "beach",
    "lon": -35.195217,
    "lat": -5.764937
  },
  {
    "wikiId": "Q10353009",
    "name": "Q10353009",
    "cat": "beach",
    "lon": -46.4031253,
    "lat": -24.0168207
  },
  {
    "wikiId": "Q10353010",
    "name": "Furadouro beach",
    "cat": "beach",
    "lon": -8.678333333,
    "lat": 40.870833333
  },
  {
    "wikiId": "Q10353012",
    "name": "Praia do Futuro",
    "cat": "beach",
    "lon": -38.447544,
    "lat": -3.751891
  },
  {
    "wikiId": "Q10353017",
    "name": "Gonzaguinha beach",
    "cat": "beach",
    "lon": -46.3848138,
    "lat": -23.9701611
  },
  {
    "wikiId": "Q10353019",
    "name": "Góis Beach",
    "cat": "beach",
    "lon": -46.31667,
    "lat": -24
  },
  {
    "wikiId": "Q10353022",
    "name": "Itararé Beach",
    "cat": "beach",
    "lon": -46.36667,
    "lat": -23.98333
  },
  {
    "wikiId": "Q10353026",
    "name": "Laboratory Beach",
    "cat": "beach",
    "lon": -44.444861111,
    "lat": -23.009777777
  },
  {
    "wikiId": "Q10353027",
    "name": "Q10353027",
    "cat": "beach",
    "lon": -7.5675,
    "lat": 37.14333333
  },
  {
    "wikiId": "Q18576054",
    "name": "Q18576054",
    "cat": "beach",
    "lon": -8.394002777,
    "lat": 43.384141666
  },
  {
    "wikiId": "Q18576276",
    "name": "Q18576276",
    "cat": "beach",
    "lon": -8.403763888,
    "lat": 43.375622222
  },
  {
    "wikiId": "Q18590615",
    "name": "Q18590615",
    "cat": "beach",
    "lon": -6.240749,
    "lat": 43.592141
  },
  {
    "wikiId": "Q18621240",
    "name": "Porthbeor Beach",
    "cat": "beach",
    "lon": -4.993463297,
    "lat": 50.149453762
  },
  {
    "wikiId": "Q18626754",
    "name": "Q18626754",
    "cat": "beach",
    "lon": 27.917939,
    "lat": 59.402423
  },
  {
    "wikiId": "Q18648023",
    "name": "Towan Beach",
    "cat": "beach",
    "lon": -4.982868056,
    "lat": 50.158778056
  },
  {
    "wikiId": "Q18649786",
    "name": "Q18649786",
    "cat": "beach",
    "lon": -6.133804,
    "lat": 43.558936
  },
  {
    "wikiId": "Q18649814",
    "name": "Q18649814",
    "cat": "beach",
    "lon": -6.1,
    "lat": 43.566928
  },
  {
    "wikiId": "Q18649820",
    "name": "Q18649820",
    "cat": "beach",
    "lon": -6.165948,
    "lat": 43.567208
  },
  {
    "wikiId": "Q18659766",
    "name": "Kalajoen Hiekkasärkät",
    "cat": "beach",
    "lon": 23.817433,
    "lat": 64.239717
  },
  {
    "wikiId": "Q18660806",
    "name": "Q18660806",
    "cat": "beach",
    "lon": 24.87447929,
    "lat": 60.15535355
  },
  {
    "wikiId": "Q18692241",
    "name": "Kolymbithres",
    "cat": "beach",
    "lon": 25.214475,
    "lat": 37.129972
  },
  {
    "wikiId": "Q18709221",
    "name": "Great Molunan Beach",
    "cat": "beach",
    "lon": -5.015656,
    "lat": 50.145601
  },
  {
    "wikiId": "Q18713987",
    "name": "Q18713987",
    "cat": "beach",
    "lon": -4.818535,
    "lat": 43.43547
  },
  {
    "wikiId": "Q18713988",
    "name": "Q18713988",
    "cat": "beach",
    "lon": -4.98168944,
    "lat": 43.4550544
  },
  {
    "wikiId": "Q18714129",
    "name": "Playa de San Antonio",
    "cat": "beach",
    "lon": -4.904666,
    "lat": 43.451797
  },
  {
    "wikiId": "Q18715411",
    "name": "Q18715411",
    "cat": "beach",
    "lon": -4.81,
    "lat": 43.434379
  },
  {
    "wikiId": "Q18715438",
    "name": "Q18715438",
    "cat": "beach",
    "lon": -4.81,
    "lat": 43.432323
  },
  {
    "wikiId": "Q18719335",
    "name": "Q18719335",
    "cat": "beach",
    "lon": -4.8085,
    "lat": 43.430827
  },
  {
    "wikiId": "Q18719878",
    "name": "Q18719878",
    "cat": "beach",
    "lon": -4.797698333,
    "lat": 43.43178472
  },
  {
    "wikiId": "Q18720045",
    "name": "Q18720045",
    "cat": "beach",
    "lon": -4.815,
    "lat": 43.437371
  },
  {
    "wikiId": "Q18729404",
    "name": "Q18729404",
    "cat": "beach",
    "lon": -4.784074,
    "lat": 43.428333
  },
  {
    "wikiId": "Q18744473",
    "name": "Q18744473",
    "cat": "beach",
    "lon": -4.753904,
    "lat": 43.42238
  },
  {
    "wikiId": "Q18747707",
    "name": "Q18747707",
    "cat": "beach",
    "lon": -6.095223,
    "lat": 43.55823
  },
  {
    "wikiId": "Q18747772",
    "name": "Q18747772",
    "cat": "beach",
    "lon": -6.102304,
    "lat": 43.559994
  },
  {
    "wikiId": "Q18748116",
    "name": "Puertu Chicu Beach",
    "cat": "beach",
    "lon": -4.748,
    "lat": 43.418577
  },
  {
    "wikiId": "Q18748393",
    "name": "Playa de Toró",
    "cat": "beach",
    "lon": -4.744592,
    "lat": 43.415772
  },
  {
    "wikiId": "Q18748931",
    "name": "Beach of Ballota (Llanes)",
    "cat": "beach",
    "lon": -4.714633333,
    "lat": 43.412730555
  },
  {
    "wikiId": "Q18755599",
    "name": "Q18755599",
    "cat": "beach",
    "lon": -4.731073,
    "lat": 43.415772
  },
  {
    "wikiId": "Q18755861",
    "name": "Q18755861",
    "cat": "beach",
    "lon": -4.7,
    "lat": 43.409631
  },
  {
    "wikiId": "Q18759103",
    "name": "Q18759103",
    "cat": "beach",
    "lon": -4.652452,
    "lat": 43.400495
  },
  {
    "wikiId": "Q18759114",
    "name": "Q18759114",
    "cat": "beach",
    "lon": -4.63,
    "lat": 43.398172
  },
  {
    "wikiId": "Q18759399",
    "name": "Q18759399",
    "cat": "beach",
    "lon": -4.619343,
    "lat": 43.396239
  },
  {
    "wikiId": "Q18759497",
    "name": "Q18759497",
    "cat": "beach",
    "lon": -4.579,
    "lat": 43.396005
  },
  {
    "wikiId": "Q18759500",
    "name": "Q18759500",
    "cat": "beach",
    "lon": -4.612048,
    "lat": 43.395865
  },
  {
    "wikiId": "Q18762162",
    "name": "Q18762162",
    "cat": "beach",
    "lon": -5.1494,
    "lat": 43.47737
  },
  {
    "wikiId": "Q18762206",
    "name": "Beach of Santa Marina, Ribeseya",
    "cat": "beach",
    "lon": -5.07,
    "lat": 43.465255
  },
  {
    "wikiId": "Q18763692",
    "name": "Q18763692",
    "cat": "beach",
    "lon": -5.0555,
    "lat": 43.463822
  },
  {
    "wikiId": "Q18764184",
    "name": "Q18764184",
    "cat": "beach",
    "lon": -5.039,
    "lat": 43.461143
  },
  {
    "wikiId": "Q18764197",
    "name": "El Portiello",
    "cat": "beach",
    "lon": -5.162,
    "lat": 43.477027
  },
  {
    "wikiId": "Q18764225",
    "name": "Q18764225",
    "cat": "beach",
    "lon": -5.1011,
    "lat": 43.474256
  },
  {
    "wikiId": "Q18764234",
    "name": "Q18764234",
    "cat": "beach",
    "lon": -5.0449,
    "lat": 43.461268
  },
  {
    "wikiId": "Q18810299",
    "name": "Q18810299",
    "cat": "beach",
    "lon": -5.215459,
    "lat": 43.473788
  },
  {
    "wikiId": "Q18812486",
    "name": "Q18812486",
    "cat": "beach",
    "lon": -5.199,
    "lat": 43.475408
  },
  {
    "wikiId": "Q18812509",
    "name": "Q18812509",
    "cat": "beach",
    "lon": -5.19653,
    "lat": 43.47535
  },
  {
    "wikiId": "Q18812527",
    "name": "Arenal de Morís Beach",
    "cat": "beach",
    "lon": -5.176449,
    "lat": 43.474287
  },
  {
    "wikiId": "Q18813985",
    "name": "Q18813985",
    "cat": "beach",
    "lon": 23.478929,
    "lat": 39.20654
  },
  {
    "wikiId": "Q18818552",
    "name": "Q18818552",
    "cat": "beach",
    "lon": -5.268459,
    "lat": 43.515008
  },
  {
    "wikiId": "Q18819335",
    "name": "Q18819335",
    "cat": "beach",
    "lon": -5.382185,
    "lat": 43.521637
  },
  {
    "wikiId": "Q18819344",
    "name": "Q18819344",
    "cat": "beach",
    "lon": -5.36665,
    "lat": 43.532963
  },
  {
    "wikiId": "Q18819633",
    "name": "Q18819633",
    "cat": "beach",
    "lon": -5.3,
    "lat": 43.529338
  },
  {
    "wikiId": "Q18844158",
    "name": "Q18844158",
    "cat": "beach",
    "lon": -4.840593,
    "lat": 43.4446
  },
  {
    "wikiId": "Q18922828",
    "name": "Greenhills Beach",
    "cat": "beach",
    "lon": 151.17,
    "lat": -34.0383
  },
  {
    "wikiId": "Q18924092",
    "name": "Bahínas Beach",
    "cat": "beach",
    "lon": -6.00626,
    "lat": 43.578277
  },
  {
    "wikiId": "Q18932022",
    "name": "Q18932022",
    "cat": "beach",
    "lon": -5.59865,
    "lat": 43.547895
  },
  {
    "wikiId": "Q18932253",
    "name": "Serín and La Cagonera Beach",
    "cat": "beach",
    "lon": -5.611439,
    "lat": 43.550539
  },
  {
    "wikiId": "Q18932971",
    "name": "Q18932971",
    "cat": "beach",
    "lon": -5.64414,
    "lat": 43.543758
  },
  {
    "wikiId": "Q18933461",
    "name": "Peñarrubia Beach",
    "cat": "beach",
    "lon": -5.626287,
    "lat": 43.550477
  },
  {
    "wikiId": "Q18952502",
    "name": "Xiglú, Sorraos and Barro beach",
    "cat": "beach",
    "lon": -4.825702,
    "lat": 43.435844
  },
  {
    "wikiId": "Q18986819",
    "name": "Barranco das Belharucas Beach",
    "cat": "beach",
    "lon": 8.17841,
    "lat": 37.08964
  },
  {
    "wikiId": "Q19013277",
    "name": "Q19013277",
    "cat": "beach",
    "lon": -5.763123,
    "lat": 43.589639
  },
  {
    "wikiId": "Q19013616",
    "name": "La Palmera Beach",
    "cat": "beach",
    "lon": -5.761127,
    "lat": 43.587525
  },
  {
    "wikiId": "Q19025531",
    "name": "Huelgues Beach",
    "cat": "beach",
    "lon": -5.75177,
    "lat": 43.58246
  },
  {
    "wikiId": "Q19277759",
    "name": "Daimari Beach",
    "cat": "beach",
    "lon": -69.938847,
    "lat": 12.531088
  },
  {
    "wikiId": "Q19280235",
    "name": "Q19280235",
    "cat": "beach",
    "lon": -5.744669,
    "lat": 43.580919
  },
  {
    "wikiId": "Q19285467",
    "name": "Q19285467",
    "cat": "beach",
    "lon": -5.744669,
    "lat": 43.580919
  },
  {
    "wikiId": "Q19314215",
    "name": "Q19314215",
    "cat": "beach",
    "lon": -5.738361,
    "lat": 43.575681
  },
  {
    "wikiId": "Q19314649",
    "name": "Q19314649",
    "cat": "beach",
    "lon": -5.770011,
    "lat": 43.598761
  },
  {
    "wikiId": "Q19324462",
    "name": "Q19324462",
    "cat": "beach",
    "lon": -5.767608,
    "lat": 43.595159
  },
  {
    "wikiId": "Q19333618",
    "name": "Q19333618",
    "cat": "beach",
    "lon": -5.721753,
    "lat": 43.569385
  },
  {
    "wikiId": "Q19338481",
    "name": "Playa de Munielles",
    "cat": "beach",
    "lon": -6.012139,
    "lat": 43.579551
  },
  {
    "wikiId": "Q19339035",
    "name": "Playa de Aguilera",
    "cat": "beach",
    "lon": -5.886054,
    "lat": 43.622905
  },
  {
    "wikiId": "Q19340221",
    "name": "Q19340221",
    "cat": "beach",
    "lon": -5.969009,
    "lat": 43.580049
  },
  {
    "wikiId": "Q19345998",
    "name": "Beach of San Balandrán",
    "cat": "beach",
    "lon": -5.939226,
    "lat": 43.5944845
  },
  {
    "wikiId": "Q19346352",
    "name": "Q19346352",
    "cat": "beach",
    "lon": -5.93,
    "lat": 43.593944
  },
  {
    "wikiId": "Q19346388",
    "name": "Q19346388",
    "cat": "beach",
    "lon": -5.91794,
    "lat": 43.589499
  },
  {
    "wikiId": "Q19346716",
    "name": "Q19346716",
    "cat": "beach",
    "lon": -5.972786,
    "lat": 43.579769
  },
  {
    "wikiId": "Q19346792",
    "name": "Q19346792",
    "cat": "beach",
    "lon": -5.977678,
    "lat": 43.578401
  },
  {
    "wikiId": "Q19347012",
    "name": "Q19347012",
    "cat": "beach",
    "lon": -6.033726,
    "lat": 43.583624
  },
  {
    "wikiId": "Q19347127",
    "name": "Q19347127",
    "cat": "beach",
    "lon": -6.02,
    "lat": 43.585147
  },
  {
    "wikiId": "Q19347185",
    "name": "Beach of El Cordial / El Reguero",
    "cat": "beach",
    "lon": -6.017675,
    "lat": 43.582598
  },
  {
    "wikiId": "Q19360681",
    "name": "Q19360681",
    "cat": "beach",
    "lon": -5.88,
    "lat": 43.623495
  },
  {
    "wikiId": "Q19360708",
    "name": "Playa de Verdicio",
    "cat": "beach",
    "lon": -5.876741,
    "lat": 43.626322
  },
  {
    "wikiId": "Q19367932",
    "name": "Q19367932",
    "cat": "beach",
    "lon": 4.27486,
    "lat": 39.958
  },
  {
    "wikiId": "Q19367941",
    "name": "Caló d'en Pellicer",
    "cat": "beach",
    "lon": 2.47312,
    "lat": 39.5119
  },
  {
    "wikiId": "Q19368034",
    "name": "Cala de l'Illa Roja",
    "cat": "beach",
    "lon": 3.21064,
    "lat": 41.97702
  },
  {
    "wikiId": "Q19368109",
    "name": "Q19368109",
    "cat": "beach",
    "lon": 4.21682,
    "lat": 40.0008
  },
  {
    "wikiId": "Q19368156",
    "name": "El Gurugú",
    "cat": "beach",
    "lon": 0.0302778,
    "lat": 39.9994
  },
  {
    "wikiId": "Q19368201",
    "name": "Q19368201",
    "cat": "beach",
    "lon": -0.202044,
    "lat": 39.6808
  },
  {
    "wikiId": "Q19368233",
    "name": "Q19368233",
    "cat": "beach",
    "lon": 4.25795,
    "lat": 39.9831
  },
  {
    "wikiId": "Q19381929",
    "name": "Mostranda",
    "cat": "beach",
    "lon": 10.393333611,
    "lat": 59.078611388
  },
  {
    "wikiId": "Q19391643",
    "name": "Sønstegård",
    "cat": "beach",
    "lon": 10.44559956,
    "lat": 59.06529999
  },
  {
    "wikiId": "Q19458682",
    "name": "Cox's Bazar Beach",
    "cat": "beach",
    "lon": 91.96,
    "lat": 21.43
  },
  {
    "wikiId": "Q19517547",
    "name": "Q19517547",
    "cat": "beach",
    "lon": -0.798986,
    "lat": 37.805486
  },
  {
    "wikiId": "Q10332506",
    "name": "Ilha do Mar Casado",
    "cat": "beach",
    "lon": -46.18333,
    "lat": -23.96667
  },
  {
    "wikiId": "Q10332993",
    "name": "Mucuripe",
    "cat": "beach",
    "lon": -38.4811478,
    "lat": -3.7220125
  },
  {
    "wikiId": "Q10337780",
    "name": "Q10337780",
    "cat": "beach",
    "lon": -48.97055556,
    "lat": -28.66305556
  },
  {
    "wikiId": "Q10350097",
    "name": "Pitangueiras",
    "cat": "beach",
    "lon": -46.259305555,
    "lat": -23.998805555
  },
  {
    "wikiId": "Q10351226",
    "name": "Ponta da Fruta",
    "cat": "beach",
    "lon": -40.36667,
    "lat": -20.51667
  },
  {
    "wikiId": "Q10352381",
    "name": "Atlântica Beach",
    "cat": "beach",
    "lon": -8.862438,
    "lat": 38.452353
  },
  {
    "wikiId": "Q10352383",
    "name": "Q10352383",
    "cat": "beach",
    "lon": -46.44668,
    "lat": -24.0193081
  },
  {
    "wikiId": "Q10352384",
    "name": "Praia Azeda",
    "cat": "beach",
    "lon": -41.88149,
    "lat": -22.74205
  },
  {
    "wikiId": "Q10352396",
    "name": "Praia Brava",
    "cat": "beach",
    "lon": -48.413,
    "lat": -27.399
  },
  {
    "wikiId": "Q10352416",
    "name": "Praia Fluvial de Fróia",
    "cat": "beach",
    "lon": -7.83777778,
    "lat": 39.78888889
  },
  {
    "wikiId": "Q10352428",
    "name": "Praia Formosa",
    "cat": "beach",
    "lon": -16.95275,
    "lat": 32.6405
  },
  {
    "wikiId": "Q10352439",
    "name": "Praia Grande do Rodízio",
    "cat": "beach",
    "lon": -9.4786,
    "lat": 38.8145
  },
  {
    "wikiId": "Q10352444",
    "name": "Q10352444",
    "cat": "beach",
    "lon": 6.63477,
    "lat": 0.40677
  },
  {
    "wikiId": "Q10352446",
    "name": "Praia da Guilhermina",
    "cat": "beach",
    "lon": -46.430163,
    "lat": -24.0154131
  },
  {
    "wikiId": "Q10352447",
    "name": "Praia Inhame",
    "cat": "beach",
    "lon": 6.5197,
    "lat": 0.0248
  },
  {
    "wikiId": "Q10352481",
    "name": "Pernambuco Beach",
    "cat": "beach",
    "lon": -46.185222222,
    "lat": -23.96525
  },
  {
    "wikiId": "Q10352483",
    "name": "Praia Pesqueira",
    "cat": "beach",
    "lon": 6.6226,
    "lat": 0.0981
  },
  {
    "wikiId": "Q10352508",
    "name": "Q10352508",
    "cat": "beach",
    "lon": 6.516666666,
    "lat": 0.083333333
  },
  {
    "wikiId": "Q10352522",
    "name": "Praia Verde",
    "cat": "beach",
    "lon": -7.48,
    "lat": 37.173611111
  },
  {
    "wikiId": "Q10352526",
    "name": "Q10352526",
    "cat": "beach",
    "lon": 6.516666666,
    "lat": 0.066666666
  },
  {
    "wikiId": "Q10352531",
    "name": "Q10352531",
    "cat": "beach",
    "lon": -8.78154,
    "lat": 38.17778
  },
  {
    "wikiId": "Q10352533",
    "name": "Q10352533",
    "cat": "beach",
    "lon": -39.74722222,
    "lat": -18.86888889
  },
  {
    "wikiId": "Q10352535",
    "name": "Apulia beach",
    "cat": "beach",
    "lon": -8.77810556,
    "lat": 41.48355556
  },
  {
    "wikiId": "Q10352544",
    "name": "Praia da Balaia",
    "cat": "beach",
    "lon": -8.21069,
    "lat": 37.0881
  },
  {
    "wikiId": "Q10352554",
    "name": "Praia da Barra",
    "cat": "beach",
    "lon": -8.74888889,
    "lat": 40.64222222
  },
  {
    "wikiId": "Q10352555",
    "name": "Barra da Tijuca Beach",
    "cat": "beach",
    "lon": -43.34288,
    "lat": -23.0105
  },
  {
    "wikiId": "Q10352557",
    "name": "Barra de Gramame",
    "cat": "beach",
    "lon": -34.805027777,
    "lat": -7.230805555
  },
  {
    "wikiId": "Q10352562",
    "name": "Q10352562",
    "cat": "beach",
    "lon": -8.77956,
    "lat": 41.44443
  },
  {
    "wikiId": "Q10352568",
    "name": "Bordeira's beach",
    "cat": "beach",
    "lon": -8.900277777,
    "lat": 37.200277777
  },
  {
    "wikiId": "Q10352569",
    "name": "Praia da Bugia",
    "cat": "beach",
    "lon": -39.72833333,
    "lat": -18.59944444
  },
  {
    "wikiId": "Q10352574",
    "name": "Calheta beach",
    "cat": "beach",
    "lon": -17.17444444,
    "lat": 32.71888889
  },
  {
    "wikiId": "Q10352581",
    "name": "Praia da Consolação",
    "cat": "beach",
    "lon": -9.35985,
    "lat": 39.32717
  },
  {
    "wikiId": "Q10352585",
    "name": "Q10352585",
    "cat": "beach",
    "lon": -39.64638889,
    "lat": -18.25944444
  },
  {
    "wikiId": "Q10352589",
    "name": "Enseada Beach",
    "cat": "beach",
    "lon": -46.22725,
    "lat": -23.986722222
  },
  {
    "wikiId": "Q10352590",
    "name": "Praia da Dona Ana",
    "cat": "beach",
    "lon": -8.6689,
    "lat": 37.09209
  },
  {
    "wikiId": "Q10352593",
    "name": "Praia da Ferradura",
    "cat": "beach",
    "lon": -41.88675,
    "lat": -22.77096
  },
  {
    "wikiId": "Q10352594",
    "name": "Praia da Ferradurinha",
    "cat": "beach",
    "lon": -41.89982,
    "lat": -22.78137
  },
  {
    "wikiId": "Q10352598",
    "name": "Figueirinha Beach",
    "cat": "beach",
    "lon": -8.944583333,
    "lat": 38.484277777
  },
  {
    "wikiId": "Q10352601",
    "name": "Q10352601",
    "cat": "beach",
    "lon": -9.41664,
    "lat": 38.94265
  },
  {
    "wikiId": "Q10352602",
    "name": "Praia da Galé",
    "cat": "beach",
    "lon": -8.31611111,
    "lat": 37.08055556
  },
  {
    "wikiId": "Q10352605",
    "name": "Praia da Gamboa",
    "cat": "beach",
    "lon": -48.620833333,
    "lat": -27.945555555
  },
  {
    "wikiId": "Q10352606",
    "name": "Q10352606",
    "cat": "beach",
    "lon": -39.74305556,
    "lat": -18.93527778
  },
  {
    "wikiId": "Q10352609",
    "name": "Praia da Guanabara",
    "cat": "beach",
    "lon": -43.168611111,
    "lat": -22.7925
  },
  {
    "wikiId": "Q10352611",
    "name": "Praia da Guarita",
    "cat": "beach",
    "lon": -49.73107222,
    "lat": -29.35143056
  },
  {
    "wikiId": "Q10352613",
    "name": "Tavira island beach",
    "cat": "beach",
    "lon": -7.62361111,
    "lat": 37.10833333
  },
  {
    "wikiId": "Q10352614",
    "name": "Q10352614",
    "cat": "beach",
    "lon": -8.878888888,
    "lat": 37.046666666
  },
  {
    "wikiId": "Q10352615",
    "name": "Praia da Joatinga",
    "cat": "beach",
    "lon": -43.29083333,
    "lat": -23.015
  },
  {
    "wikiId": "Q10352616",
    "name": "Lagoa de Albufeira Beach",
    "cat": "beach",
    "lon": -9.182527777,
    "lat": 38.507416666
  },
  {
    "wikiId": "Q10352618",
    "name": "Laje beach",
    "cat": "beach",
    "lon": -17.11388889,
    "lat": 32.82666667
  },
  {
    "wikiId": "Q10352622",
    "name": "Q10352622",
    "cat": "beach",
    "lon": -60.101764,
    "lat": -3.064444
  },
  {
    "wikiId": "Q10352623",
    "name": "Madalena do Mar beach",
    "cat": "beach",
    "lon": -17.14027778,
    "lat": 32.70166667
  },
  {
    "wikiId": "Q10352624",
    "name": "Praia da Macumba",
    "cat": "beach",
    "lon": -43.48824,
    "lat": -23.0329
  },
  {
    "wikiId": "Q10352627",
    "name": "Q10352627",
    "cat": "beach",
    "lon": -7.51864,
    "lat": 37.16292
  },
  {
    "wikiId": "Q10352632",
    "name": "Nazaré beach",
    "cat": "beach",
    "lon": -9.07548,
    "lat": 39.60158
  },
  {
    "wikiId": "Q10352642",
    "name": "Praia da Pedreira",
    "cat": "beach",
    "lon": -51.044444444,
    "lat": -30.361111111
  },
  {
    "wikiId": "Q10352643",
    "name": "Praia da Penha",
    "cat": "beach",
    "lon": -34.795666666,
    "lat": -7.164722222
  },
  {
    "wikiId": "Q10352647",
    "name": "Q10352647",
    "cat": "beach",
    "lon": -39.073658,
    "lat": -16.5115357
  },
  {
    "wikiId": "Q10352648",
    "name": "Pituba Beach",
    "cat": "beach",
    "lon": -38.4643,
    "lat": -13.0107
  },
  {
    "wikiId": "Q10352650",
    "name": "Praia de Ponta Negra",
    "cat": "beach",
    "lon": -60.101705,
    "lat": -3.063849
  },
  {
    "wikiId": "Q10352653",
    "name": "Q10352653",
    "cat": "beach",
    "lon": -38.6432567,
    "lat": -12.8140257
  },
  {
    "wikiId": "Q10352657",
    "name": "Ponta do Sol beach",
    "cat": "beach",
    "lon": -17.10472222,
    "lat": 32.67916667
  },
  {
    "wikiId": "Q10352660",
    "name": "Ribeira beach",
    "cat": "beach",
    "lon": -38.49745,
    "lat": -12.91116
  },
  {
    "wikiId": "Q10352661",
    "name": "Ribeira Brava beach",
    "cat": "beach",
    "lon": -17.06666667,
    "lat": 32.67111111
  },
  {
    "wikiId": "Q10352662",
    "name": "Q10352662",
    "cat": "beach",
    "lon": 7.4,
    "lat": 1.68333
  },
  {
    "wikiId": "Q10352668",
    "name": "Praia da Senhora da Rocha",
    "cat": "beach",
    "lon": -8.388333333,
    "lat": 37.096111111
  },
  {
    "wikiId": "Q10352672",
    "name": "Praia da Tartaruga",
    "cat": "beach",
    "lon": -41.9016,
    "lat": -22.7575
  },
  {
    "wikiId": "Q10352673",
    "name": "praia da Taíba",
    "cat": "beach",
    "lon": -39.9950971,
    "lat": -2.8479397
  },
  {
    "wikiId": "Q10352674",
    "name": "Praia da Terra Estreita",
    "cat": "beach",
    "lon": -7.64084,
    "lat": 37.09791
  },
  {
    "wikiId": "Q10352676",
    "name": "Q10352676",
    "cat": "beach",
    "lon": -46.4613456,
    "lat": -24.023805
  },
  {
    "wikiId": "Q10352677",
    "name": "Praia da Urca",
    "cat": "beach",
    "lon": -43.163888888,
    "lat": -22.947222222
  },
  {
    "wikiId": "Q10352678",
    "name": "Praia da Ursa",
    "cat": "beach",
    "lon": -9.492404,
    "lat": 38.790152
  },
  {
    "wikiId": "Q10352680",
    "name": "Q10352680",
    "cat": "beach",
    "lon": -38.6343149,
    "lat": -12.8093923
  },
  {
    "wikiId": "Q10352683",
    "name": "Q10352683",
    "cat": "beach",
    "lon": 7.43333,
    "lat": 1.68333
  },
  {
    "wikiId": "Q10352701",
    "name": "Praia das Palmeiras",
    "cat": "beach",
    "lon": -42.01888889,
    "lat": -22.87888889
  },
  {
    "wikiId": "Q10352708",
    "name": "Praia de Acaú",
    "cat": "beach",
    "lon": -34.8258387,
    "lat": -7.544539
  },
  {
    "wikiId": "Q10352709",
    "name": "Praia das Quatro Águas",
    "cat": "beach",
    "lon": -7.627638888,
    "lat": 37.106138888
  },
  {
    "wikiId": "Q10352712",
    "name": "Q10352712",
    "cat": "beach",
    "lon": -38.312222222,
    "lat": -12.921111111
  },
  {
    "wikiId": "Q10352714",
    "name": "Praia de Almofala",
    "cat": "beach",
    "lon": -39.8613426,
    "lat": -2.9278049
  },
  {
    "wikiId": "Q10352715",
    "name": "Q10352715",
    "cat": "beach",
    "lon": -38.477777777,
    "lat": -13.014444444
  },
  {
    "wikiId": "Q10352721",
    "name": "Praia de Areia Preta",
    "cat": "beach",
    "lon": -35.187492,
    "lat": -5.790299
  },
  {
    "wikiId": "Q10352722",
    "name": "Q10352722",
    "cat": "beach",
    "lon": -38.436388888,
    "lat": -12.99
  },
  {
    "wikiId": "Q10352739",
    "name": "Praia da Boa Viagem",
    "cat": "beach",
    "lon": -38.5202207,
    "lat": -12.9351063
  },
  {
    "wikiId": "Q10352741",
    "name": "Botafogo Beach",
    "cat": "beach",
    "lon": -43.1809,
    "lat": -22.94437
  },
  {
    "wikiId": "Q4696142",
    "name": "Ahmedpur Mandvi Beach",
    "cat": "beach",
    "lon": 71.024313,
    "lat": 20.739943
  },
  {
    "wikiId": "Q4701731",
    "name": "Aksa Beach",
    "cat": "beach",
    "lon": 72.79496667,
    "lat": 19.177275
  },
  {
    "wikiId": "Q4703851",
    "name": "Al Gal",
    "cat": "beach",
    "lon": 34.73819,
    "lat": 32.017246
  },
  {
    "wikiId": "Q4709295",
    "name": "Albany Beach",
    "cat": "beach",
    "lon": -122.316,
    "lat": 37.889
  },
  {
    "wikiId": "Q4709424",
    "name": "Albarquel Beach",
    "cat": "beach",
    "lon": -8.915,
    "lat": 38.51111111
  },
  {
    "wikiId": "Q4727699",
    "name": "Alki Beach Park",
    "cat": "beach",
    "lon": -122.406729,
    "lat": 47.580989
  },
  {
    "wikiId": "Q4734035",
    "name": "Almyrida, Chania",
    "cat": "beach",
    "lon": 24.20075556,
    "lat": 35.44908056
  },
  {
    "wikiId": "Q4736931",
    "name": "Altona Beach",
    "cat": "beach",
    "lon": 144.821,
    "lat": -37.8722
  },
  {
    "wikiId": "Q4741005",
    "name": "Amban Beach",
    "cat": "beach",
    "lon": 134.079388888,
    "lat": -0.815388888
  },
  {
    "wikiId": "Q4763044",
    "name": "Angels Beach",
    "cat": "beach",
    "lon": 153.602,
    "lat": -28.8533
  },
  {
    "wikiId": "Q4765234",
    "name": "Anini Beach",
    "cat": "beach",
    "lon": -159.464,
    "lat": 22.2272
  },
  {
    "wikiId": "Q4768051",
    "name": "Anne's Beach",
    "cat": "beach",
    "lon": -80.716,
    "lat": 24.8635
  },
  {
    "wikiId": "Q4770550",
    "name": "Anse Chastanet",
    "cat": "beach",
    "lon": -61.0778,
    "lat": 13.8649
  },
  {
    "wikiId": "Q4770555",
    "name": "Anse Mamin",
    "cat": "beach",
    "lon": -61.07952,
    "lat": 13.87063
  },
  {
    "wikiId": "Q4796227",
    "name": "Arroyo Burro Beach",
    "cat": "beach",
    "lon": -119.744,
    "lat": 34.403
  },
  {
    "wikiId": "Q4805836",
    "name": "Playa Tramaguera",
    "cat": "beach",
    "lon": -5.34,
    "lat": 35.876666666
  },
  {
    "wikiId": "Q4805864",
    "name": "Playa Benítez",
    "cat": "beach",
    "lon": -5.33777778,
    "lat": 35.89666667
  },
  {
    "wikiId": "Q4806535",
    "name": "Playa San Amaro",
    "cat": "beach",
    "lon": -5.2999,
    "lat": 35.8959
  },
  {
    "wikiId": "Q4806571",
    "name": "Playa El Desnarigado",
    "cat": "beach",
    "lon": -5.2827,
    "lat": 35.8949
  },
  {
    "wikiId": "Q4806593",
    "name": "Playa El Tarajal",
    "cat": "beach",
    "lon": -5.34345278,
    "lat": 35.87178611
  },
  {
    "wikiId": "Q4818115",
    "name": "Attaquin Beach",
    "cat": "beach",
    "lon": -70.4799,
    "lat": 41.668
  },
  {
    "wikiId": "Q4849111",
    "name": "Barker Beach",
    "cat": "beach",
    "lon": -122.42388889,
    "lat": 37.82638889
  },
  {
    "wikiId": "Q4856854",
    "name": "Banna Strand",
    "cat": "beach",
    "lon": -9.8368,
    "lat": 52.3582
  },
  {
    "wikiId": "Q4857914",
    "name": "Bar Beach",
    "cat": "beach",
    "lon": -73.65444444,
    "lat": 40.82861111
  },
  {
    "wikiId": "Q4858166",
    "name": "Barafundle Bay",
    "cat": "beach",
    "lon": -4.90425,
    "lat": 51.6182
  },
  {
    "wikiId": "Q4860467",
    "name": "Barequeçaba",
    "cat": "beach",
    "lon": -45.43544,
    "lat": -23.82764
  },
  {
    "wikiId": "Q4861154",
    "name": "Barley Beach",
    "cat": "beach",
    "lon": -124.42205,
    "lat": 42.45678
  },
  {
    "wikiId": "Q4863140",
    "name": "Barra Seca",
    "cat": "beach",
    "lon": -39.7208,
    "lat": -19.0944
  },
  {
    "wikiId": "Q4869003",
    "name": "Bathers Beach",
    "cat": "beach",
    "lon": 115.741388888,
    "lat": -32.057777777
  },
  {
    "wikiId": "Q4873309",
    "name": "Batu Ferringhi",
    "cat": "beach",
    "lon": 100.25,
    "lat": 5.466666666
  },
  {
    "wikiId": "Q4873312",
    "name": "Batu Hitam",
    "cat": "beach",
    "lon": 103.368444444,
    "lat": 3.868444444
  },
  {
    "wikiId": "Q4874093",
    "name": "Bay Shore Beach",
    "cat": "beach",
    "lon": -76.2858,
    "lat": 37.0547
  },
  {
    "wikiId": "Q4875262",
    "name": "Baía do Refugo",
    "cat": "beach",
    "lon": -27.118,
    "lat": 38.645
  },
  {
    "wikiId": "Q4885971",
    "name": "Cala Pada",
    "cat": "beach",
    "lon": 1.57333333,
    "lat": 38.98722222
  },
  {
    "wikiId": "Q4886017",
    "name": "Platja des Niu Blau",
    "cat": "beach",
    "lon": 1.5525,
    "lat": 38.9925
  },
  {
    "wikiId": "Q4886156",
    "name": "Platja S'Estanyol",
    "cat": "beach",
    "lon": 1.486667,
    "lat": 38.925278
  },
  {
    "wikiId": "Q4886872",
    "name": "Cala de Sant Vicent",
    "cat": "beach",
    "lon": 1.59,
    "lat": 39.075833333
  },
  {
    "wikiId": "Q4887949",
    "name": "Platja de Ponent",
    "cat": "beach",
    "lon": -0.1487,
    "lat": 38.5361
  },
  {
    "wikiId": "Q4890409",
    "name": "Sa Caleta",
    "cat": "beach",
    "lon": 1.33472222,
    "lat": 38.86888889
  },
  {
    "wikiId": "Q4906586",
    "name": "Playa de Levante",
    "cat": "beach",
    "lon": -5.33137,
    "lat": 36.18991
  },
  {
    "wikiId": "Q4906648",
    "name": "Playa de Santa Bárbara",
    "cat": "beach",
    "lon": -5.33704,
    "lat": 36.16754
  },
  {
    "wikiId": "Q4907172",
    "name": "Playa de Poniente",
    "cat": "beach",
    "lon": -5.35736111,
    "lat": 36.16202778
  },
  {
    "wikiId": "Q4907193",
    "name": "La Alcaidesa beach",
    "cat": "beach",
    "lon": -5.314472222,
    "lat": 36.233055555
  },
  {
    "wikiId": "Q4907201",
    "name": "Playa de Torrenueva",
    "cat": "beach",
    "lon": -5.32579,
    "lat": 36.20647
  },
  {
    "wikiId": "Q4907216",
    "name": "Playa de La Hacienda",
    "cat": "beach",
    "lon": -5.313625,
    "lat": 36.23230278
  },
  {
    "wikiId": "Q4923269",
    "name": "Blackpool Sands, Dartmouth",
    "cat": "beach",
    "lon": -3.60944,
    "lat": 50.3194
  },
  {
    "wikiId": "Q4928425",
    "name": "Blosseville Coast",
    "cat": "beach",
    "lon": -26.41666667,
    "lat": 68.75
  },
  {
    "wikiId": "Q4930307",
    "name": "Bluefields Beach",
    "cat": "beach",
    "lon": -78.030502777,
    "lat": 18.171419444
  },
  {
    "wikiId": "Q4931493",
    "name": "Boat Harbour",
    "cat": "beach",
    "lon": 151.201,
    "lat": -34.0378
  },
  {
    "wikiId": "Q4936081",
    "name": "Boca Chica State Park",
    "cat": "beach",
    "lon": -97.1517,
    "lat": 25.9969
  },
  {
    "wikiId": "Q4938521",
    "name": "Boiçucanga",
    "cat": "beach",
    "lon": -45.62444444,
    "lat": -23.78305556
  },
  {
    "wikiId": "Q4938959",
    "name": "Bolata",
    "cat": "beach",
    "lon": 28.47083333,
    "lat": 43.38194444
  },
  {
    "wikiId": "Q4949535",
    "name": "Boulder Beach",
    "cat": "beach",
    "lon": 170.613,
    "lat": -45.8971
  },
  {
    "wikiId": "Q4952417",
    "name": "Jones Beach",
    "cat": "beach",
    "lon": 150.855,
    "lat": -34.64
  },
  {
    "wikiId": "Q4968669",
    "name": "Playa de Getares",
    "cat": "beach",
    "lon": -5.4425,
    "lat": 36.095
  },
  {
    "wikiId": "Q4971888",
    "name": "Broad Haven South",
    "cat": "beach",
    "lon": -4.9209,
    "lat": 51.6085
  },
  {
    "wikiId": "Q4974072",
    "name": "Bronte Beach",
    "cat": "beach",
    "lon": 151.268,
    "lat": -33.9036
  },