[
  {
    "wikiId": "Q7334429",
    "name": "Topock Gorge",
    "cat": "canyon",
    "lon": -114.448525,
    "lat": 34.665263888
  },
  {
    "wikiId": "Q7354306",
    "name": "Rock Canyon",
    "cat": "canyon",
    "lon": -111.604,
    "lat": 40.2683
  },
  {
    "wikiId": "Q7363158",
    "name": "Romero Canyon",
    "cat": "canyon",
    "lon": -110.888,
    "lat": 32.4323
  },
  {
    "wikiId": "Q7374226",
    "name": "Royal Gorge",
    "cat": "canyon",
    "lon": -105.268888888,
    "lat": 38.431111111
  },
  {
    "wikiId": "Q7376620",
    "name": "Rucker Canyon",
    "cat": "canyon",
    "lon": -109.43,
    "lat": 31.7529
  },
  {
    "wikiId": "Q7396196",
    "name": "Sabino Canyon",
    "cat": "canyon",
    "lon": -110.817,
    "lat": 32.3167
  },
  {
    "wikiId": "Q7413546",
    "name": "San Clemente Canyon",
    "cat": "canyon",
    "lon": -117.205,
    "lat": 32.845277777
  },
  {
    "wikiId": "Q7414194",
    "name": "San Francisquito Canyon",
    "cat": "canyon",
    "lon": -118.575,
    "lat": 34.4269
  },
  {
    "wikiId": "Q7419153",
    "name": "Santa Ana Canyon",
    "cat": "canyon",
    "lon": -117.673,
    "lat": 33.8717
  },
  {
    "wikiId": "Q7447009",
    "name": "Seitz Canyon",
    "cat": "canyon",
    "lon": -115.486,
    "lat": 40.66
  },
  {
    "wikiId": "Q7457313",
    "name": "Seven Ladders Canyon",
    "cat": "canyon",
    "lon": 25.64333333,
    "lat": 45.5675
  },
  {
    "wikiId": "Q7514124",
    "name": "Silas Canyon",
    "cat": "canyon",
    "lon": -108.963,
    "lat": 42.634
  },
  {
    "wikiId": "Q7547071",
    "name": "Snake River Canyon",
    "cat": "canyon",
    "lon": -114.414,
    "lat": 42.5981
  },
  {
    "wikiId": "Q7547072",
    "name": "Snake River Canyon",
    "cat": "canyon",
    "lon": -111.001111111,
    "lat": 43.174444444
  },
  {
    "wikiId": "Q7548698",
    "name": "Snowshoe Canyon",
    "cat": "canyon",
    "lon": -110.737,
    "lat": 43.8708
  },
  {
    "wikiId": "Q7557525",
    "name": "Soledad Canyon",
    "cat": "canyon",
    "lon": -118.541,
    "lat": 34.4242
  },
  {
    "wikiId": "Q7571849",
    "name": "Sowbelly Canyon",
    "cat": "canyon",
    "lon": -103.823,
    "lat": 42.7581
  },
  {
    "wikiId": "Q7574379",
    "name": "Spearfish Canyon",
    "cat": "canyon",
    "lon": -103.85,
    "lat": 44.4775
  },
  {
    "wikiId": "Q7659572",
    "name": "Sycamore Canyon",
    "cat": "canyon",
    "lon": -112.072,
    "lat": 35.8639
  },
  {
    "wikiId": "Q7698097",
    "name": "Temescal Canyon, Los Angeles County",
    "cat": "canyon",
    "lon": -118.535277777,
    "lat": 34.035833333
  },
  {
    "wikiId": "Q7699521",
    "name": "Tenaya Canyon",
    "cat": "canyon",
    "lon": -119.555,
    "lat": 37.7421
  },
  {
    "wikiId": "Q7707546",
    "name": "Texas Canyon",
    "cat": "canyon",
    "lon": -110.086,
    "lat": 32.0525
  },
  {
    "wikiId": "Q7801823",
    "name": "Tijeras Canyon",
    "cat": "canyon",
    "lon": -106.387,
    "lat": 35.0808
  },
  {
    "wikiId": "Q7846362",
    "name": "Trotters Gorge",
    "cat": "canyon",
    "lon": 170.781,
    "lat": -45.403
  },
  {
    "wikiId": "Q7911567",
    "name": "Valhalla Canyon",
    "cat": "canyon",
    "lon": -110.802,
    "lat": 43.7642
  },
  {
    "wikiId": "Q7933985",
    "name": "Virgin River Gorge",
    "cat": "canyon",
    "lon": -113.859,
    "lat": 36.9209
  },
  {
    "wikiId": "Q7943971",
    "name": "Vyros Gorge",
    "cat": "canyon",
    "lon": 22.2966,
    "lat": 36.9255
  },
  {
    "wikiId": "Q7958991",
    "name": "Waddington Canyon",
    "cat": "canyon",
    "lon": -124.936,
    "lat": 51.2375
  },
  {
    "wikiId": "Q7960119",
    "name": "Waimea Canyon State Park",
    "cat": "canyon",
    "lon": -159.665277777,
    "lat": 22.056111111
  },
  {
    "wikiId": "Q7973973",
    "name": "Waterfalls Canyon",
    "cat": "canyon",
    "lon": -109.841,
    "lat": 43.7769
  },
  {
    "wikiId": "Q7978743",
    "name": "Weber Canyon",
    "cat": "canyon",
    "lon": -111.904,
    "lat": 41.1358
  },
  {
    "wikiId": "Q7984983",
    "name": "West Doubtful Canyon",
    "cat": "canyon",
    "lon": -109.107,
    "lat": 32.2886
  },
  {
    "wikiId": "Q7994514",
    "name": "White Canyon",
    "cat": "canyon",
    "lon": -110.43,
    "lat": 37.8089
  },
  {
    "wikiId": "Q8000996",
    "name": "Wildcat Canyon",
    "cat": "canyon",
    "lon": -122.275,
    "lat": 37.9163
  },
  {
    "wikiId": "Q8022364",
    "name": "Willow Springs Canyon",
    "cat": "canyon",
    "lon": -118.355,
    "lat": 34.7094
  },
  {
    "wikiId": "Q8023942",
    "name": "Wind River Canyon",
    "cat": "canyon",
    "lon": -108.18,
    "lat": 43.5203
  },
  {
    "wikiId": "Q8024258",
    "name": "Windjana Gorge",
    "cat": "canyon",
    "lon": 124.958,
    "lat": -17.4089
  },
  {
    "wikiId": "Q8030539",
    "name": "Wolverine Canyon",
    "cat": "canyon",
    "lon": -111.26,
    "lat": 37.7583
  },
  {
    "wikiId": "Q8038910",
    "name": "Wu Gorge",
    "cat": "canyon",
    "lon": 110.083,
    "lat": 31.025
  },
  {
    "wikiId": "Q8051747",
    "name": "Yellow House Canyon",
    "cat": "canyon",
    "lon": -101.53719,
    "lat": 33.45532
  },
  {
    "wikiId": "Q8062663",
    "name": "Yōrō Gorge",
    "cat": "canyon",
    "lon": 140.16,
    "lat": 35.2575
  },
  {
    "wikiId": "Q8072495",
    "name": "Zion Canyon",
    "cat": "canyon",
    "lon": -113.012,
    "lat": 37.165
  },
  {
    "wikiId": "Q8470224",
    "name": "Pas de Terradets",
    "cat": "canyon",
    "lon": 0.888283,
    "lat": 42.040803
  },
  {
    "wikiId": "Q9178756",
    "name": "Kraków Gate",
    "cat": "canyon",
    "lon": 19.8289,
    "lat": 50.1959
  },
  {
    "wikiId": "Q9336171",
    "name": "Shōsenkyō",
    "cat": "canyon",
    "lon": 138.566389,
    "lat": 35.745
  },
  {
    "wikiId": "Q10263006",
    "name": "Guartelá Canyon",
    "cat": "canyon",
    "lon": -50.26944444,
    "lat": -24.54944444
  },
  {
    "wikiId": "Q10671849",
    "name": "Slåttdalsskrevan",
    "cat": "canyon",
    "lon": 18.50108,
    "lat": 63.10802
  },
  {
    "wikiId": "Q10856424",
    "name": "Dakigaeri Ravine",
    "cat": "canyon",
    "lon": 140.666666666,
    "lat": 39.611111111
  },
  {
    "wikiId": "Q10887680",
    "name": "Hozu Gorge",
    "cat": "canyon",
    "lon": 135.643333,
    "lat": 35.024583
  },
  {
    "wikiId": "Q11179607",
    "name": "Kurobe Gorge",
    "cat": "canyon",
    "lon": 137.683333333,
    "lat": 36.644444444
  },
  {
    "wikiId": "Q11352519",
    "name": "Ichiukyo",
    "cat": "canyon",
    "lon": 134.062694,
    "lat": 33.93875
  },
  {
    "wikiId": "Q11356265",
    "name": "Sanbaseki Gorge",
    "cat": "canyon",
    "lon": 139.029722,
    "lat": 36.128333
  },
  {
    "wikiId": "Q11373325",
    "name": "Q11373325",
    "cat": "canyon",
    "lon": 133.525055555,
    "lat": 34.927583333
  },
  {
    "wikiId": "Q11377660",
    "name": "Tsukechi Gorge",
    "cat": "canyon",
    "lon": 137.442166666,
    "lat": 35.698444444
  },
  {
    "wikiId": "Q11416636",
    "name": "Agatsuma Gorge",
    "cat": "canyon",
    "lon": 138.7212628,
    "lat": 36.5623182
  },
  {
    "wikiId": "Q11418681",
    "name": "Tōsenkyō",
    "cat": "canyon",
    "lon": 130.543,
    "lat": 31.2203
  },
  {
    "wikiId": "Q11435955",
    "name": "Ōsugidani",
    "cat": "canyon",
    "lon": 136.148611111,
    "lat": 34.210277777
  },
  {
    "wikiId": "Q11443338",
    "name": "Tenryū-kyō",
    "cat": "canyon",
    "lon": 137.818,
    "lat": 35.440305555
  },
  {
    "wikiId": "Q11445981",
    "name": "Okutoro",
    "cat": "canyon",
    "lon": 135.9455,
    "lat": 33.938361
  },
  {
    "wikiId": "Q11457580",
    "name": "Nezame-no-toko",
    "cat": "canyon",
    "lon": 137.69945,
    "lat": 35.77264722
  },
  {
    "wikiId": "Q11457662",
    "name": "Sumata-kyō",
    "cat": "canyon",
    "lon": 138.105753,
    "lat": 35.178792
  },
  {
    "wikiId": "Q11471062",
    "name": "Yamano Kyo",
    "cat": "canyon",
    "lon": 133.367553,
    "lat": 34.698124
  },
  {
    "wikiId": "Q11506372",
    "name": "Japan Canyon",
    "cat": "canyon",
    "lon": 139.967222222,
    "lat": 40.554166666
  },
  {
    "wikiId": "Q11561258",
    "name": "Kiyotsu Gorge",
    "cat": "canyon",
    "lon": 138.751638888,
    "lat": 36.96775
  },
  {
    "wikiId": "Q11566280",
    "name": "Dorokyō",
    "cat": "canyon",
    "lon": 135.886277777,
    "lat": 33.907194444
  },
  {
    "wikiId": "Q11566281",
    "name": "Doro-Hatchō",
    "cat": "canyon",
    "lon": 135.87944444,
    "lat": 33.90722222
  },
  {
    "wikiId": "Q11566594",
    "name": "Setoaikyō",
    "cat": "canyon",
    "lon": 139.52166667,
    "lat": 36.87694444
  },
  {
    "wikiId": "Q11589515",
    "name": "Kamuikotan",
    "cat": "canyon",
    "lon": 142.2025,
    "lat": 43.731833
  },
  {
    "wikiId": "Q11597754",
    "name": "Q11597754",
    "cat": "canyon",
    "lon": 132.737008,
    "lat": 35.296267
  },
  {
    "wikiId": "Q11598262",
    "name": "Ritsuunkyō",
    "cat": "canyon",
    "lon": 134.840469444,
    "lat": 35.285894444
  },
  {
    "wikiId": "Q11650227",
    "name": "Chōshikei",
    "cat": "canyon",
    "lon": 134.244443888,
    "lat": 34.513888888
  },
  {
    "wikiId": "Q11653371",
    "name": "Nagatoro Valley",
    "cat": "canyon",
    "lon": 139.116997,
    "lat": 36.091783
  },
  {
    "wikiId": "Q11667254",
    "name": "Kōrankei",
    "cat": "canyon",
    "lon": 137.313369444,
    "lat": 35.131841666
  },
  {
    "wikiId": "Q11668622",
    "name": "Konosekyo",
    "cat": "canyon",
    "lon": 134.078962,
    "lat": 33.788591
  },
  {
    "wikiId": "Q11679305",
    "name": "Ryūōkyō",
    "cat": "canyon",
    "lon": 139.71541,
    "lat": 36.86175
  },
  {
    "wikiId": "Q11699394",
    "name": "Devil's Throat",
    "cat": "canyon",
    "lon": -54.4361,
    "lat": -25.6957
  },
  {
    "wikiId": "Q11879006",
    "name": "Veľký Kyseľ",
    "cat": "canyon",
    "lon": 20.3988131,
    "lat": 48.9308586
  },
  {
    "wikiId": "Q11921074",
    "name": "Q11921074",
    "cat": "canyon",
    "lon": -0.490528,
    "lat": 38.962556
  },
  {
    "wikiId": "Q11922575",
    "name": "Forat de Bóixols",
    "cat": "canyon",
    "lon": 1.16297222,
    "lat": 42.16591667
  },
  {
    "wikiId": "Q11922582",
    "name": "Forat de l'Infern",
    "cat": "canyon",
    "lon": 1.10738889,
    "lat": 42.20116667
  },
  {
    "wikiId": "Q11924944",
    "name": "Vodopády Bílé Opavy",
    "cat": "canyon",
    "lon": 17.2583,
    "lat": 50.078
  },
  {
    "wikiId": "Q11940381",
    "name": "Pas de l'Ase",
    "cat": "canyon",
    "lon": 0.61304444,
    "lat": 41.15730556
  },
  {
    "wikiId": "Q11981075",
    "name": "Kjøsterud canyon",
    "cat": "canyon",
    "lon": 10.116305555,
    "lat": 59.768638888
  },
  {
    "wikiId": "Q5436539",
    "name": "Farwell Canyon",
    "cat": "canyon",
    "lon": -122.567,
    "lat": 51.8333
  },
  {
    "wikiId": "Q5472506",
    "name": "Fortaleza Canyon",
    "cat": "canyon",
    "lon": -49.956486024,
    "lat": -29.062697377
  },
  {
    "wikiId": "Q5475823",
    "name": "Fourmile Canyon",
    "cat": "canyon",
    "lon": -105.21,
    "lat": 38.64
  },
  {
    "wikiId": "Q5491526",
    "name": "Franklin Gorge",
    "cat": "canyon",
    "lon": -79.321,
    "lat": 38.6631
  },
  {
    "wikiId": "Q5501686",
    "name": "French Bar Canyon",
    "cat": "canyon",
    "lon": -122.15,
    "lat": 51.2167
  },
  {
    "wikiId": "Q5523641",
    "name": "Garnet Canyon",
    "cat": "canyon",
    "lon": -110.762,
    "lat": 43.7172
  },
  {
    "wikiId": "Q5530122",
    "name": "Geikie Gorge",
    "cat": "canyon",
    "lon": 125.721,
    "lat": -18.0733
  },
  {
    "wikiId": "Q5564889",
    "name": "Giscome Canyon",
    "cat": "canyon",
    "lon": -122.367,
    "lat": 54.25
  },
  {
    "wikiId": "Q5569458",
    "name": "Glenwood Canyon",
    "cat": "canyon",
    "lon": -107.223,
    "lat": 39.575
  },
  {
    "wikiId": "Q5575571",
    "name": "Goblins Gate",
    "cat": "canyon",
    "lon": -123.575,
    "lat": 47.9561
  },
  {
    "wikiId": "Q5578604",
    "name": "Gold Canyon",
    "cat": "canyon",
    "lon": -120.825,
    "lat": 39.4347
  },
  {
    "wikiId": "Q5579438",
    "name": "Golden Gate Canyon",
    "cat": "canyon",
    "lon": -110.723,
    "lat": 44.9367
  },
  {
    "wikiId": "Q5586097",
    "name": "Gore Canyon",
    "cat": "canyon",
    "lon": -106.507777777,
    "lat": 39.990555555
  },
  {
    "wikiId": "Q5594372",
    "name": "Grand Canyon of the Fraser",
    "cat": "canyon",
    "lon": -121.65,
    "lat": 53.9333
  },
  {
    "wikiId": "Q5594375",
    "name": "Grand Canyon of the Stikine",
    "cat": "canyon",
    "lon": -130.75,
    "lat": 58.0833
  },
  {
    "wikiId": "Q5594376",
    "name": "Grand Canyon of the Tuolumne",
    "cat": "canyon",
    "lon": -119.601,
    "lat": 37.9263
  },
  {
    "wikiId": "Q5595837",
    "name": "Granite Canyon",
    "cat": "canyon",
    "lon": -110.817,
    "lat": 43.6181
  },
  {
    "wikiId": "Q5597036",
    "name": "Grapevine Canyon",
    "cat": "canyon",
    "lon": -114.686,
    "lat": 35.2271
  },
  {
    "wikiId": "Q5598931",
    "name": "Great Canyon",
    "cat": "canyon",
    "lon": -124.817,
    "lat": 51.3333
  },
  {
    "wikiId": "Q5638855",
    "name": "Hagwilget Canyon",
    "cat": "canyon",
    "lon": -127.617,
    "lat": 55.25
  },
  {
    "wikiId": "Q5658186",
    "name": "Harkers Canyon",
    "cat": "canyon",
    "lon": -112.213,
    "lat": 40.4947
  },
  {
    "wikiId": "Q5658187",
    "name": "Harkers Canyon",
    "cat": "canyon",
    "lon": -112.089,
    "lat": 40.6652
  },
  {
    "wikiId": "Q5682143",
    "name": "Hatton Canyon",
    "cat": "canyon",
    "lon": -121.906,
    "lat": 36.5525
  },
  {
    "wikiId": "Q5700941",
    "name": "Chah Kooh Canyon",
    "cat": "canyon",
    "lon": 55.5369,
    "lat": 26.6859
  },
  {
    "wikiId": "Q5710850",
    "name": "Bahram Chobin Canyon",
    "cat": "canyon",
    "lon": 47.451944444,
    "lat": 33.083888888
  },
  {
    "wikiId": "Q5759652",
    "name": "Saturban Canyon",
    "cat": "canyon",
    "lon": -72.876348214,
    "lat": 7.264357943
  },
  {
    "wikiId": "Q5759653",
    "name": "Cañón de las Buitreras",
    "cat": "canyon",
    "lon": -5.371569285,
    "lat": 36.556374204
  },
  {
    "wikiId": "Q5759656",
    "name": "Q5759656",
    "cat": "canyon",
    "lon": -1.587744632,
    "lat": 38.238724834
  },
  {
    "wikiId": "Q5759658",
    "name": "Atuel Canyon",
    "cat": "canyon",
    "lon": -68.58333333,
    "lat": -34.88333333
  },
  {
    "wikiId": "Q5759660",
    "name": "Cañón del Usumacinta",
    "cat": "canyon",
    "lon": -91.51666667,
    "lat": 17.45
  },
  {
    "wikiId": "Q5769166",
    "name": "Kali Gandaki Gorge",
    "cat": "canyon",
    "lon": 83.6453,
    "lat": 28.7068
  },
  {
    "wikiId": "Q5804143",
    "name": "Q5804143",
    "cat": "canyon",
    "lon": -3.1,
    "lat": 42.64
  },
  {
    "wikiId": "Q5864535",
    "name": "Foz de Burgui",
    "cat": "canyon",
    "lon": -1.01687053,
    "lat": 42.704875382
  },
  {
    "wikiId": "Q5900801",
    "name": "Hoces del Esva",
    "cat": "canyon",
    "lon": -6.490225,
    "lat": 43.440587
  },
  {
    "wikiId": "Q5900811",
    "name": "Q5900811",
    "cat": "canyon",
    "lon": -1.45055556,
    "lat": 39.70277778
  },
  {
    "wikiId": "Q5905385",
    "name": "Horse Canyon",
    "cat": "canyon",
    "lon": -111.266,
    "lat": 37.7189
  },
  {
    "wikiId": "Q6014101",
    "name": "Yazılı Canyon Nature Park",
    "cat": "canyon",
    "lon": 30.876111111,
    "lat": 37.453055555
  },
  {
    "wikiId": "Q6027918",
    "name": "Ballıkayalar Nature Park",
    "cat": "canyon",
    "lon": 29.52002065,
    "lat": 40.839166905
  },
  {
    "wikiId": "Q6094317",
    "name": "Quebrada del Toro",
    "cat": "canyon",
    "lon": -65.7675096,
    "lat": -24.7499985
  },
  {
    "wikiId": "Q6122938",
    "name": "Jaguariaíva River Canyon",
    "cat": "canyon",
    "lon": -49.65177,
    "lat": -24.161764
  },
  {
    "wikiId": "Q6363624",
    "name": "Kankakei",
    "cat": "canyon",
    "lon": 134.30083333,
    "lat": 34.51555556
  },
  {
    "wikiId": "Q6379690",
    "name": "Kawarau Gorge",
    "cat": "canyon",
    "lon": 169.09,
    "lat": -45.02
  },
  {
    "wikiId": "Q6394145",
    "name": "Kern River Canyon",
    "cat": "canyon",
    "lon": -118.668,
    "lat": 35.6958
  },
  {
    "wikiId": "Q6412873",
    "name": "Kings Canyon",
    "cat": "canyon",
    "lon": -113.56,
    "lat": 39.0861
  },
  {
    "wikiId": "Q6421357",
    "name": "Klootch Canyon",
    "cat": "canyon",
    "lon": -123.55,
    "lat": 54.9167
  },
  {
    "wikiId": "Q6421358",
    "name": "Klootchman Canyon",
    "cat": "canyon",
    "lon": -131.733,
    "lat": 57.5333
  },
  {
    "wikiId": "Q6432586",
    "name": "Korouoma",
    "cat": "canyon",
    "lon": 27.525,
    "lat": 66.15277778
  },
  {
    "wikiId": "Q6436628",
    "name": "Tsegi Canyon",
    "cat": "canyon",
    "lon": -110.509167,
    "lat": 36.686389
  },
  {
    "wikiId": "Q6447818",
    "name": "Kusbölehelvetet",
    "cat": "canyon",
    "lon": 14.120833333,
    "lat": 62.989166666
  },
  {
    "wikiId": "Q6502182",
    "name": "Lava Canyon",
    "cat": "canyon",
    "lon": -123.9,
    "lat": 51.8833
  },
  {
    "wikiId": "Q6513187",
    "name": "Lee Canyon",
    "cat": "canyon",
    "lon": -115.5675,
    "lat": 36.4
  },
  {
    "wikiId": "Q6519550",
    "name": "Leigh Canyon",
    "cat": "canyon",
    "lon": -110.754,
    "lat": 43.8147
  },
  {
    "wikiId": "Q6637643",
    "name": "Red Canyon",
    "cat": "canyon",
    "lon": 34.876666666,
    "lat": 29.681666666
  },
  {
    "wikiId": "Q6649430",
    "name": "Little Canyon",
    "cat": "canyon",
    "lon": -122.269,
    "lat": 52.8875
  },
  {
    "wikiId": "Q6649435",
    "name": "Little Canyon",
    "cat": "canyon",
    "lon": -128.55,
    "lat": 54.5167
  },
  {
    "wikiId": "Q6649646",
    "name": "Little Cottonwood Canyon",
    "cat": "canyon",
    "lon": -111.707,
    "lat": 40.571
  },
  {
    "wikiId": "Q6649749",
    "name": "Death Hollow",
    "cat": "canyon",
    "lon": -111.25905,
    "lat": 37.73721
  },
  {
    "wikiId": "Q6666942",
    "name": "Logan Canyon",
    "cat": "canyon",
    "lon": -111.643,
    "lat": 41.7809
  },
  {
    "wikiId": "Q6693904",
    "name": "Lower Williamson Gorge",
    "cat": "canyon",
    "lon": -121.821,
    "lat": 42.69
  },
  {
    "wikiId": "Q6696411",
    "name": "Luccombe Chine",
    "cat": "canyon",
    "lon": -1.1775,
    "lat": 50.610277777
  },
  {
    "wikiId": "Q6705185",
    "name": "Lusk Creek Canyon",
    "cat": "canyon",
    "lon": -88.54,
    "lat": 37.5189
  },
  {
    "wikiId": "Q6727142",
    "name": "Madera Canyon",
    "cat": "canyon",
    "lon": -110.9417552,
    "lat": 31.7406428
  },
  {
    "wikiId": "Q6743519",
    "name": "Maligne Canyon",
    "cat": "canyon",
    "lon": -118.011,
    "lat": 52.9203
  },
  {
    "wikiId": "Q6753845",
    "name": "Maple Canyon",
    "cat": "canyon",
    "lon": -111.656,
    "lat": 39.5575
  },
  {
    "wikiId": "Q6755165",
    "name": "Marble Canyon",
    "cat": "canyon",
    "lon": -121.683,
    "lat": 50.8333
  },
  {
    "wikiId": "Q6755166",
    "name": "Marble Canyon",
    "cat": "canyon",
    "lon": -116.13545,
    "lat": 51.18329
  },
  {
    "wikiId": "Q6762785",
    "name": "Marie Canyon",
    "cat": "canyon",
    "lon": -123.9,
    "lat": 48.7833
  },
  {
    "wikiId": "Q6781743",
    "name": "Marysvale Canyon",
    "cat": "canyon",
    "lon": -112.267,
    "lat": 38.5167
  },
  {
    "wikiId": "Q6786935",
    "name": "Mather Gorge",
    "cat": "canyon",
    "lon": -77.236666666,
    "lat": 38.978611111
  },
  {
    "wikiId": "Q6797165",
    "name": "Mayfield Canyon",
    "cat": "canyon",
    "lon": -118.637,
    "lat": 37.4467
  },
  {
    "wikiId": "Q6858268",
    "name": "Mill Creek Canyon",
    "cat": "canyon",
    "lon": -111.785,
    "lat": 40.6892
  },
  {
    "wikiId": "Q7019740",
    "name": "Beersheba–Gaza Canyon",
    "cat": "canyon",
    "lon": 34.789077,
    "lat": 31.260728
  },
  {
    "wikiId": "Q7037008",
    "name": "Niles Canyon",
    "cat": "canyon",
    "lon": -121.965,
    "lat": 37.5806
  },
  {
    "wikiId": "Q7059441",
    "name": "Northgate Canyon",
    "cat": "canyon",
    "lon": -106.346,
    "lat": 40.9997
  },
  {
    "wikiId": "Q7079908",
    "name": "Ogden Canyon",
    "cat": "canyon",
    "lon": -111.875,
    "lat": 41.2542
  },
  {
    "wikiId": "Q7095969",
    "name": "Open Canyon",
    "cat": "canyon",
    "lon": -110.805,
    "lat": 43.6283
  },
  {
    "wikiId": "Q7108014",
    "name": "Osum Canyon",
    "cat": "canyon",
    "lon": 20.255,
    "lat": 40.47
  },
  {
    "wikiId": "Q7114741",
    "name": "Owens River Gorge",
    "cat": "canyon",
    "lon": -118.617,
    "lat": 37.5745
  },
  {
    "wikiId": "Q7124989",
    "name": "Paintbrush Canyon",
    "cat": "canyon",
    "lon": -110.753,
    "lat": 43.8119
  },
  {
    "wikiId": "Q7127579",
    "name": "Palisade Canyon",
    "cat": "canyon",
    "lon": -116.3200805,
    "lat": 40.5807496
  },
  {
    "wikiId": "Q7163036",
    "name": "Penitente Canyon",
    "cat": "canyon",
    "lon": -104.692,
    "lat": 37.0175
  },
  {
    "wikiId": "Q7166893",
    "name": "Peralta Canyon",
    "cat": "canyon",
    "lon": -111.36,
    "lat": 33.3803
  },
  {
    "wikiId": "Q7191154",
    "name": "Picture Canyon",
    "cat": "canyon",
    "lon": -102.748,
    "lat": 37.0097
  },
  {
    "wikiId": "Q7194572",
    "name": "Pima Canyon",
    "cat": "canyon",
    "lon": -110.92,
    "lat": 32.21
  },
  {
    "wikiId": "Q7202480",
    "name": "Platte Canyon",
    "cat": "canyon",
    "lon": -105.106,
    "lat": 39.485
  },
  {
    "wikiId": "Q7235464",
    "name": "Poudre Canyon",
    "cat": "canyon",
    "lon": -105.623,
    "lat": 40.698
  },
  {
    "wikiId": "Q7252773",
    "name": "Provo Canyon",
    "cat": "canyon",
    "lon": -111.626,
    "lat": 40.3292
  },
  {
    "wikiId": "Q7284045",
    "name": "Railroad Canyon",
    "cat": "canyon",
    "lon": -117.302,
    "lat": 33.6642
  },
  {
    "wikiId": "Q7290015",
    "name": "Rampart Canyon",
    "cat": "canyon",
    "lon": -151,
    "lat": 65.35
  },
  {
    "wikiId": "Q7295987",
    "name": "Rattlesnake Canyon",
    "cat": "canyon",
    "lon": -108.862,
    "lat": 39.165
  },
  {
    "wikiId": "Q7333501",
    "name": "Right Fork Canyon",
    "cat": "canyon",
    "lon": -115.437,
    "lat": 40.635
  },
  {
    "wikiId": "Q3207236",
    "name": "La Chapelle, Réunion",
    "cat": "canyon",
    "lon": 55.4547,
    "lat": -21.1333
  },
  {
    "wikiId": "Q3267717",
    "name": "Qutang Gorge",
    "cat": "canyon",
    "lon": 109.56166667,
    "lat": 31.04305556
  },
  {
    "wikiId": "Q3294299",
    "name": "Markarfljótsgljúfur",
    "cat": "canyon",
    "lon": -19.410782,
    "lat": 63.75092
  },
  {
    "wikiId": "Q3409476",
    "name": "Wadi Shab",
    "cat": "canyon",
    "lon": 59.245138,
    "lat": 22.839037
  },
  {
    "wikiId": "Q3432933",
    "name": "Grejsdalen",
    "cat": "canyon",
    "lon": 9.533333,
    "lat": 55.733333
  },
  {
    "wikiId": "Q3507732",
    "name": "Dolné diery",
    "cat": "canyon",
    "lon": 19.072866666,
    "lat": 49.24545
  },
  {
    "wikiId": "Q3511708",
    "name": "Sōunkyō",
    "cat": "canyon",
    "lon": 142.95,
    "lat": 43.7284
  },
  {
    "wikiId": "Q3514158",
    "name": "Takamaka, Réunion",
    "cat": "canyon",
    "lon": 55.6303,
    "lat": -21.0912
  },
  {
    "wikiId": "Q3540816",
    "name": "Q3540816",
    "cat": "canyon",
    "lon": 55.4943,
    "lat": -21.0597
  },
  {
    "wikiId": "Q3540827",
    "name": "Trou de Bozouls",
    "cat": "canyon",
    "lon": 2.71806,
    "lat": 44.4717
  },
  {
    "wikiId": "Q3557483",
    "name": "Orino Gorge",
    "cat": "canyon",
    "lon": 25.93416667,
    "lat": 35.04444444
  },
  {
    "wikiId": "Q3557538",
    "name": "Milona Gorge",
    "cat": "canyon",
    "lon": 25.8499,
    "lat": 35.03554722
  },
  {
    "wikiId": "Q3558586",
    "name": "Sarakina Gorge",
    "cat": "canyon",
    "lon": 25.5717,
    "lat": 35.0525
  },
  {
    "wikiId": "Q3569443",
    "name": "Dells of the Wisconsin River",
    "cat": "canyon",
    "lon": -89.7885,
    "lat": 43.6428
  },
  {
    "wikiId": "Q3592561",
    "name": "Étroit du Siaix",
    "cat": "canyon",
    "lon": 6.57853,
    "lat": 45.5229
  },
  {
    "wikiId": "Q3661056",
    "name": "Ouimet Canyon",
    "cat": "canyon",
    "lon": -88.669444444,
    "lat": 48.788888888
  },
  {
    "wikiId": "Q3676132",
    "name": "Chavez Ravine",
    "cat": "canyon",
    "lon": -118.239,
    "lat": 34.075
  },
  {
    "wikiId": "Q3693775",
    "name": "Q3693775",
    "cat": "canyon",
    "lon": 10.033,
    "lat": 45.6924
  },
  {
    "wikiId": "Q3706288",
    "name": "Devil's Gate",
    "cat": "canyon",
    "lon": -107.211,
    "lat": 42.4487
  },
  {
    "wikiId": "Q3748453",
    "name": "Forre del Titerno",
    "cat": "canyon",
    "lon": 14.53823056,
    "lat": 41.3008
  },
  {
    "wikiId": "Q3748454",
    "name": "Forre laviche del Simeto",
    "cat": "canyon",
    "lon": 14.7825,
    "lat": 37.7425
  },
  {
    "wikiId": "Q3772860",
    "name": "Rastenbach Gorge",
    "cat": "canyon",
    "lon": 11.2422352,
    "lat": 46.3809418
  },
  {
    "wikiId": "Q3773082",
    "name": "Gole del Sosio",
    "cat": "canyon",
    "lon": 13.311723,
    "lat": 37.642624
  },
  {
    "wikiId": "Q3773089",
    "name": "Gole di Celano",
    "cat": "canyon",
    "lon": 13.567829,
    "lat": 42.085703
  },
  {
    "wikiId": "Q3827259",
    "name": "Kritsa Gorge",
    "cat": "canyon",
    "lon": 25.5532,
    "lat": 35.196
  },
  {
    "wikiId": "Q3848004",
    "name": "Great Canyon of Crimea",
    "cat": "canyon",
    "lon": 34.00462,
    "lat": 44.52476
  },
  {
    "wikiId": "Q3886164",
    "name": "Orrido di Bellano",
    "cat": "canyon",
    "lon": 9.30508,
    "lat": 46.04249
  },
  {
    "wikiId": "Q3915751",
    "name": "Mamers Valles",
    "cat": "canyon",
    "lon": null,
    "lat": null
  },
  {
    "wikiId": "Q4060134",
    "name": "Aktove canyon",
    "cat": "canyon",
    "lon": 31.45,
    "lat": 47.71333333
  },
  {
    "wikiId": "Q4068870",
    "name": "Argun River ravine",
    "cat": "canyon",
    "lon": 45.17638889,
    "lat": 42.67083333
  },
  {
    "wikiId": "Q4083202",
    "name": "Q4083202",
    "cat": "canyon",
    "lon": 33.8275,
    "lat": 44.64638889
  },
  {
    "wikiId": "Q4163282",
    "name": "Dniester Canyon",
    "cat": "canyon",
    "lon": 25.5995,
    "lat": 48.7661
  },
  {
    "wikiId": "Q4250531",
    "name": "Avon Gorge",
    "cat": "canyon",
    "lon": -2.6279,
    "lat": 51.4549
  },
  {
    "wikiId": "Q4312445",
    "name": "Ninemile Canyon",
    "cat": "canyon",
    "lon": -110.5,
    "lat": 39.7764
  },
  {
    "wikiId": "Q4479719",
    "name": "Mesona Gorge",
    "cat": "canyon",
    "lon": 25.8736,
    "lat": 35.1092
  },
  {
    "wikiId": "Q4500201",
    "name": "Horseshoe Canyon",
    "cat": "canyon",
    "lon": -110.042222222,
    "lat": 38.570833333
  },
  {
    "wikiId": "Q4514133",
    "name": "Chernorechenskij canyon",
    "cat": "canyon",
    "lon": 33.75,
    "lat": 44.51667
  },
  {
    "wikiId": "Q4577565",
    "name": "Mågålaupet",
    "cat": "canyon",
    "lon": 9.58722222,
    "lat": 62.5
  },
  {
    "wikiId": "Q4691624",
    "name": "Agawa Canyon",
    "cat": "canyon",
    "lon": -84.489444444,
    "lat": 47.455555555
  },
  {
    "wikiId": "Q4701841",
    "name": "Aksu Canyon",
    "cat": "canyon",
    "lon": 70.2422,
    "lat": 42.3225
  },
  {
    "wikiId": "Q4726995",
    "name": "Aliso Canyon",
    "cat": "canyon",
    "lon": -117.753,
    "lat": 33.5106
  },
  {
    "wikiId": "Q4732957",
    "name": "Allmannajuvet",
    "cat": "canyon",
    "lon": 6.4668,
    "lat": 59.6536
  },
  {
    "wikiId": "Q4743835",
    "name": "American Fork Canyon",
    "cat": "canyon",
    "lon": -111.733,
    "lat": 40.4333
  },
  {
    "wikiId": "Q4779376",
    "name": "Apertados Canyon",
    "cat": "canyon",
    "lon": -36.4881,
    "lat": -6.3355
  },
  {
    "wikiId": "Q4786032",
    "name": "Talari Gorges",
    "cat": "canyon",
    "lon": -10.966666666,
    "lat": 13.783333333
  },
  {
    "wikiId": "Q4794480",
    "name": "Pongo de Mainique",
    "cat": "canyon",
    "lon": -72.8219,
    "lat": -12.2377
  },
  {
    "wikiId": "Q4796257",
    "name": "Arroyo Seco",
    "cat": "canyon",
    "lon": -118.22591,
    "lat": 34.0789
  },
  {
    "wikiId": "Q4822704",
    "name": "Ausable Chasm, New York",
    "cat": "canyon",
    "lon": -73.461111111,
    "lat": 44.529166666
  },
  {
    "wikiId": "Q4827476",
    "name": "Avalanche Canyon",
    "cat": "canyon",
    "lon": -110.765,
    "lat": 43.7069
  },
  {
    "wikiId": "Q4880462",
    "name": "Beggerlay Canyon",
    "cat": "canyon",
    "lon": -129.633,
    "lat": 57.9333
  },
  {
    "wikiId": "Q4905420",
    "name": "Big Canyon",
    "cat": "canyon",
    "lon": -122.384,
    "lat": 53.0003
  },
  {
    "wikiId": "Q4905475",
    "name": "Big Cottonwood Canyon",
    "cat": "canyon",
    "lon": -111.689,
    "lat": 40.641
  },
  {
    "wikiId": "Q4905497",
    "name": "Big Creek Canyon",
    "cat": "canyon",
    "lon": -122.683,
    "lat": 51.85
  },
  {
    "wikiId": "Q4921903",
    "name": "Black Star Canyon",
    "cat": "canyon",
    "lon": -117.679,
    "lat": 33.7661
  },
  {
    "wikiId": "Q4923535",
    "name": "Blackwater Canyon",
    "cat": "canyon",
    "lon": -79.5474,
    "lat": 39.0963
  },
  {
    "wikiId": "Q4924948",
    "name": "Blanco Canyon",
    "cat": "canyon",
    "lon": -101.125,
    "lat": 33.5871
  },
  {
    "wikiId": "Q4927311",
    "name": "Blodgett Canyon",
    "cat": "canyon",
    "lon": -114.3,
    "lat": 46.274
  },
  {
    "wikiId": "Q4940886",
    "name": "Bommer Canyon",
    "cat": "canyon",
    "lon": -117.808,
    "lat": 33.6296
  },
  {
    "wikiId": "Q4943714",
    "name": "Boonton Gorge",
    "cat": "canyon",
    "lon": -74.4185,
    "lat": 40.9075
  },
  {
    "wikiId": "Q4951488",
    "name": "Box Canyon, Colorado",
    "cat": "canyon",
    "lon": -107.679,
    "lat": 38.0183
  },
  {
    "wikiId": "Q4951505",
    "name": "Box Elder Canyon",
    "cat": "canyon",
    "lon": -111.994,
    "lat": 41.4994
  },
  {
    "wikiId": "Q5004065",
    "name": "Byers Canyon",
    "cat": "canyon",
    "lon": -106.133055555,
    "lat": 40.069444444
  },
  {
    "wikiId": "Q5045706",
    "name": "Carpenter Canyon",
    "cat": "canyon",
    "lon": -115.791,
    "lat": 36.1806
  },
  {
    "wikiId": "Q5048104",
    "name": "Cascade Canyon",
    "cat": "canyon",
    "lon": -110.73,
    "lat": 43.7636
  },
  {
    "wikiId": "Q5051461",
    "name": "Cataract Canyon",
    "cat": "canyon",
    "lon": -110.294,
    "lat": 37.8775
  },
  {
    "wikiId": "Q5054900",
    "name": "Cave Dale",
    "cat": "canyon",
    "lon": -1.7777,
    "lat": 53.3386
  },
  {
    "wikiId": "Q5055606",
    "name": "Cañón del Pato",
    "cat": "canyon",
    "lon": -78.05,
    "lat": -8.66666667
  },
  {
    "wikiId": "Q5056625",
    "name": "Cedar Creek Canyon",
    "cat": "canyon",
    "lon": -85.0833,
    "lat": 41.2333
  },
  {
    "wikiId": "Q5065725",
    "name": "Ceunant Cynfal National Nature Reserve",
    "cat": "canyon",
    "lon": -3.944,
    "lat": 52.949
  },
  {
    "wikiId": "Q5088908",
    "name": "Cheat Canyon",
    "cat": "canyon",
    "lon": -79.901198,
    "lat": 39.74263
  },
  {
    "wikiId": "Q5101204",
    "name": "Chino Canyon",
    "cat": "canyon",
    "lon": -116.571,
    "lat": 33.8644
  },
  {
    "wikiId": "Q5142569",
    "name": "Coldwater Canyon",
    "cat": "canyon",
    "lon": -118.405,
    "lat": 34.1075
  },
  {
    "wikiId": "Q5149228",
    "name": "Coloured Canyon",
    "cat": "canyon",
    "lon": 34.598269444,
    "lat": 29.14255
  },
  {
    "wikiId": "Q5149441",
    "name": "Colter Canyon",
    "cat": "canyon",
    "lon": -110.702,
    "lat": 43.9447
  },
  {
    "wikiId": "Q5175793",
    "name": "Cottonwood Canyon",
    "cat": "canyon",
    "lon": -128.20355,
    "lat": 55.08301
  },
  {
    "wikiId": "Q5175794",
    "name": "Cottonwood Canyon",
    "cat": "canyon",
    "lon": -122.65,
    "lat": 53.1333
  },
  {
    "wikiId": "Q5175795",
    "name": "Cottonwood Canyon",
    "cat": "canyon",
    "lon": -111.871,
    "lat": 37.3436
  },
  {
    "wikiId": "Q5176014",
    "name": "Cougar Canyon",
    "cat": "canyon",
    "lon": -119.317,
    "lat": 50.15
  },
  {
    "wikiId": "Q5216163",
    "name": "Dangi Canyon",
    "cat": "canyon",
    "lon": 72.608,
    "lat": 40.367
  },
  {
    "wikiId": "Q5244247",
    "name": "De Beque Canyon",
    "cat": "canyon",
    "lon": -108.314444444,
    "lat": 39.148888888
  },
  {
    "wikiId": "Q5245690",
    "name": "Deadman Canyon",
    "cat": "canyon",
    "lon": -118.58,
    "lat": 36.705
  },
  {
    "wikiId": "Q5247093",
    "name": "Death Canyon",
    "cat": "canyon",
    "lon": -110.807,
    "lat": 43.6531
  },
  {
    "wikiId": "Q5264101",
    "name": "Deserters Canyon",
    "cat": "canyon",
    "lon": -124.95,
    "lat": 56.9333
  },
  {
    "wikiId": "Q5264864",
    "name": "Desolation Canyon",
    "cat": "canyon",
    "lon": -110.011,
    "lat": 39.4167
  },
  {
    "wikiId": "Q5267080",
    "name": "Devil's Canyon",
    "cat": "canyon",
    "lon": -98.3417,
    "lat": 35.3633
  },
  {
    "wikiId": "Q5277740",
    "name": "Dimond Gorge",
    "cat": "canyon",
    "lon": 126.026,
    "lat": -17.6506
  },
  {
    "wikiId": "Q5289557",
    "name": "Dolores River Canyon",
    "cat": "canyon",
    "lon": -108.834,
    "lat": 37.9958
  },
  {
    "wikiId": "Q5300191",
    "name": "Doubtful Canyon",
    "cat": "canyon",
    "lon": -109.087,
    "lat": 32.3514
  },
  {
    "wikiId": "Q5331341",
    "name": "Eaton Canyon",
    "cat": "canyon",
    "lon": -118.088,
    "lat": 34.205
  },
  {
    "wikiId": "Q5331342",
    "name": "Eaton Canyon, Quebec",
    "cat": "canyon",
    "lon": -68.2042,
    "lat": 55.5564
  },
  {
    "wikiId": "Q5351174",
    "name": "El Dorado Canyon",
    "cat": "canyon",
    "lon": -114.708055555,
    "lat": 35.707777777
  },
  {
    "wikiId": "Q5434281",
    "name": "Fantasy Canyon",
    "cat": "canyon",
    "lon": -109.395,
    "lat": 40.0556
  },
  {
    "wikiId": "Q12006580",
    "name": "Tokagjelet",
    "cat": "canyon",
    "lon": 6.0425,
    "lat": 60.36944444
  },
  {
    "wikiId": "Q12035143",
    "name": "Malý Kyseľ",
    "cat": "canyon",
    "lon": 20.3950367,
    "lat": 48.9356797
  },
  {
    "wikiId": "Q12260081",
    "name": "Q12260081",
    "cat": "canyon",
    "lon": -1.32665,
    "lat": 42.876441
  },
  {
    "wikiId": "Q12265341",
    "name": "Oskia",
    "cat": "canyon",
    "lon": -1.82537198,
    "lat": 42.88484797
  },
  {
    "wikiId": "Q12277501",
    "name": "Grdelička klisura",
    "cat": "canyon",
    "lon": 22.130787,
    "lat": 42.844984
  },
  {
    "wikiId": "Q12308771",
    "name": "Q12308771",
    "cat": "canyon",
    "lon": 11.9165,
    "lat": 55.2738
  },
  {
    "wikiId": "Q12363991",
    "name": "Hinni Valley",
    "cat": "canyon",
    "lon": 26.880831,
    "lat": 57.764867
  },
  {
    "wikiId": "Q12479620",
    "name": "Cukang Taneuh",
    "cat": "canyon",
    "lon": 108.456408333,
    "lat": -7.735247222
  },
  {
    "wikiId": "Q12634190",
    "name": "Kamačnik Canyon",
    "cat": "canyon",
    "lon": 15.063,
    "lat": 45.3568
  },
  {
    "wikiId": "Q12763046",
    "name": "Q12763046",
    "cat": "canyon",
    "lon": 18.349566666,
    "lat": 49.025866666
  },
  {
    "wikiId": "Q12812366",
    "name": "Ulubey Canyon Nature Park",
    "cat": "canyon",
    "lon": 29.29972222,
    "lat": 38.38444444
  },
  {
    "wikiId": "Q12877089",
    "name": "Enipeas",
    "cat": "canyon",
    "lon": 22.54916667,
    "lat": 40.15472222
  },
  {
    "wikiId": "Q12885724",
    "name": "Q12885724",
    "cat": "canyon",
    "lon": 23.98974444,
    "lat": 35.24619444
  },
  {
    "wikiId": "Q12906050",
    "name": "Demir Kapija Canyon",
    "cat": "canyon",
    "lon": 22.261388888,
    "lat": 41.405277777
  },
  {
    "wikiId": "Q12910385",
    "name": "Skočivir Canyon",
    "cat": "canyon",
    "lon": 21.671,
    "lat": 41.075
  },
  {
    "wikiId": "Q14601817",
    "name": "Q14601817",
    "cat": "canyon",
    "lon": 20.4084,
    "lat": 48.939017
  },
  {
    "wikiId": "Q14680349",
    "name": "Fresnal Canyon",
    "cat": "canyon",
    "lon": -111.64,
    "lat": 31.8273
  },
  {
    "wikiId": "Q14681829",
    "name": "Devil Canyon",
    "cat": "canyon",
    "lon": -117.338,
    "lat": 34.1969
  },
  {
    "wikiId": "Q14683055",
    "name": "Last Chance Canyon",
    "cat": "canyon",
    "lon": -117.908,
    "lat": 35.3683
  },
  {
    "wikiId": "Q14684065",
    "name": "Switzer Canyon",
    "cat": "canyon",
    "lon": -117.13,
    "lat": 32.7331
  },
  {
    "wikiId": "Q14684091",
    "name": "Temescal Canyon",
    "cat": "canyon",
    "lon": -117.524722222,
    "lat": 33.864166666
  },
  {
    "wikiId": "Q14711036",
    "name": "McKittrick Canyon",
    "cat": "canyon",
    "lon": -104.755,
    "lat": 31.9792
  },
  {
    "wikiId": "Q14711553",
    "name": "Harker Canyon (Tooele County, Utah)",
    "cat": "canyon",
    "lon": -112.47218,
    "lat": 39.99078
  },
  {
    "wikiId": "Q14711846",
    "name": "Grandstaff Canyon",
    "cat": "canyon",
    "lon": -109.53111111,
    "lat": 38.60722222
  },
  {
    "wikiId": "Q14711898",
    "name": "Westwater Canyon",
    "cat": "canyon",
    "lon": -109.228,
    "lat": 38.9722
  },
  {
    "wikiId": "Q14714803",
    "name": "Moran Canyon (Wyoming)",
    "cat": "canyon",
    "lon": -110.755,
    "lat": 43.8614
  },
  {
    "wikiId": "Q14714860",
    "name": "Webb Canyon",
    "cat": "canyon",
    "lon": -110.724,
    "lat": 43.9861
  },
  {
    "wikiId": "Q14759900",
    "name": "Greenland's Grand Canyon",
    "cat": "canyon",
    "lon": -46,
    "lat": 79
  },
  {
    "wikiId": "Q14912683",
    "name": "Red Canyon",
    "cat": "canyon",
    "lon": -112.31916667,
    "lat": 37.74611111
  },
  {
    "wikiId": "Q15061872",
    "name": "Vikos Gorge",
    "cat": "canyon",
    "lon": 20.72833333,
    "lat": 39.96944444
  },
  {
    "wikiId": "Q15637533",
    "name": "Canyon of Algendar",
    "cat": "canyon",
    "lon": 3.965638888,
    "lat": 39.967305555
  },
  {
    "wikiId": "Q16356882",
    "name": "Shkallë e Tujanit",
    "cat": "canyon",
    "lon": 19.9,
    "lat": 41.395
  },
  {
    "wikiId": "Q16370353",
    "name": "Q16370353",
    "cat": "canyon",
    "lon": 44.972222222,
    "lat": 39.777777777
  },
  {
    "wikiId": "Q16508156",
    "name": "Gorges de la Balme",
    "cat": "canyon",
    "lon": 5.726,
    "lat": 45.709
  },
  {
    "wikiId": "Q16508196",
    "name": "Grands Goulets",
    "cat": "canyon",
    "lon": 5.41667,
    "lat": 45.0056
  },
  {
    "wikiId": "Q16536381",
    "name": "Limarò Canyon",
    "cat": "canyon",
    "lon": 10.8974,
    "lat": 46.04880556
  },
  {
    "wikiId": "Q16670774",
    "name": "Lenskiye Shchyoki",
    "cat": "canyon",
    "lon": 110.8958333,
    "lat": 58.71055556
  },
  {
    "wikiId": "Q16890627",
    "name": "Cooke's Canyon",
    "cat": "canyon",
    "lon": -107.6,
    "lat": 32.4189
  },
  {
    "wikiId": "Q16891492",
    "name": "Fryingpan Canyon",
    "cat": "canyon",
    "lon": -107.68,
    "lat": 32.4542
  },
  {
    "wikiId": "Q16893306",
    "name": "Keyhole Sink",
    "cat": "canyon",
    "lon": -112.01444,
    "lat": 35.27
  },
  {
    "wikiId": "Q16894975",
    "name": "Mee Canyon",
    "cat": "canyon",
    "lon": -108.954,
    "lat": 39.1586
  },
  {
    "wikiId": "Q16898688",
    "name": "Poolburn Gorge",
    "cat": "canyon",
    "lon": 169.735,
    "lat": -45.053
  },
  {
    "wikiId": "Q16911213",
    "name": "Little Santa Anita Canyon",
    "cat": "canyon",
    "lon": -118.044166666,
    "lat": 34.170277777
  },
  {
    "wikiId": "Q16992599",
    "name": "Englemann Canyon",
    "cat": "canyon",
    "lon": -104.962,
    "lat": 38.8483
  },
  {
    "wikiId": "Q17014631",
    "name": "Murchison River Gorge",
    "cat": "canyon",
    "lon": 114.455,
    "lat": -27.5872
  },
  {
    "wikiId": "Q17092218",
    "name": "Tahquitz Canyon",
    "cat": "canyon",
    "lon": -116.3083333,
    "lat": 33.50138889
  },
  {
    "wikiId": "Q17107335",
    "name": "Keystone Canyon",
    "cat": "canyon",
    "lon": -145.9137482,
    "lat": 61.0589924
  },
  {
    "wikiId": "Q17107678",
    "name": "South Cheyenne Canon",
    "cat": "canyon",
    "lon": -104.866,
    "lat": 38.7897
  },
  {
    "wikiId": "Q17108149",
    "name": "Recapture Canyon",
    "cat": "canyon",
    "lon": -109.425,
    "lat": 37.58333333
  },
  {
    "wikiId": "Q17498971",
    "name": "Renjhihguan",
    "cat": "canyon",
    "lon": 121.1103661,
    "lat": 24.007939
  },
  {
    "wikiId": "Q17599216",
    "name": "Congost de Tresponts",
    "cat": "canyon",
    "lon": 1.345678,
    "lat": 42.242047
  },
  {
    "wikiId": "Q17605756",
    "name": "Gorges de Carançà",
    "cat": "canyon",
    "lon": 2.221628,
    "lat": 42.519792
  },
  {
    "wikiId": "Q17637767",
    "name": "Orridi di Uriezzo",
    "cat": "canyon",
    "lon": 8.32975,
    "lat": 46.2544
  },
  {
    "wikiId": "Q17803269",
    "name": "Cañón de la Horadada",
    "cat": "canyon",
    "lon": -4.27265,
    "lat": 42.7516
  },
  {
    "wikiId": "Q18149962",
    "name": "Doolan Canyon",
    "cat": "canyon",
    "lon": -121.824,
    "lat": 37.7049
  },
  {
    "wikiId": "Q18154398",
    "name": "Left Hand Canyon",
    "cat": "canyon",
    "lon": -105.30666,
    "lat": 40.11054
  },
  {
    "wikiId": "Q18154852",
    "name": "Lyell Canyon",
    "cat": "canyon",
    "lon": -119.302,
    "lat": 37.8641
  },
  {
    "wikiId": "Q18610901",
    "name": "Q18610901",
    "cat": "canyon",
    "lon": -68.538888888,
    "lat": 48.261111111
  },
  {
    "wikiId": "Q18749102",
    "name": "Molino Canyon",
    "cat": "canyon",
    "lon": -110.7,
    "lat": 32.3268
  },
  {
    "wikiId": "Q18785496",
    "name": "Q18785496",
    "cat": "canyon",
    "lon": -62.6833,
    "lat": 49.5722
  },
  {
    "wikiId": "Q19382779",
    "name": "Canyon of Thurignin",
    "cat": "canyon",
    "lon": 5.6705,
    "lat": 45.8929
  },
  {
    "wikiId": "Q19600542",
    "name": "Bloody Canyon",
    "cat": "canyon",
    "lon": -119.157,
    "lat": 37.879
  },
  {
    "wikiId": "Q19600555",
    "name": "Bohler Canyon",
    "cat": "canyon",
    "lon": -119.148,
    "lat": 37.893
  },
  {
    "wikiId": "Q19605621",
    "name": "Masca Gorge",
    "cat": "canyon",
    "lon": -16.851,
    "lat": 28.295
  },
  {
    "wikiId": "Q19873727",
    "name": "Bonita Canyon",
    "cat": "canyon",
    "lon": -109.356,
    "lat": 32.0083
  },
  {
    "wikiId": "Q19875770",
    "name": "Turnbull Canyon",
    "cat": "canyon",
    "lon": -118.014,
    "lat": 33.9931
  },
  {
    "wikiId": "Q19875942",
    "name": "Carlin Canyon",
    "cat": "canyon",
    "lon": -115.981,
    "lat": 40.7342
  },
  {
    "wikiId": "Q19876903",
    "name": "Maverick Canyon",
    "cat": "canyon",
    "lon": -114.605,
    "lat": 41.0665
  },
  {
    "wikiId": "Q19951279",
    "name": "Saut de la Saule",
    "cat": "canyon",
    "lon": 2.5125,
    "lat": 45.3828
  },
  {
    "wikiId": "Q20020161",
    "name": "Big Thompson Canyon",
    "cat": "canyon",
    "lon": -105.467464,
    "lat": 40.387531
  },
  {
    "wikiId": "Q20048630",
    "name": "Q20048630",
    "cat": "canyon",
    "lon": 24.718055555,
    "lat": 35.245833333
  },
  {
    "wikiId": "Q20108289",
    "name": "Q20108289",
    "cat": "canyon",
    "lon": 23.877687,
    "lat": 35.253979
  },
  {
    "wikiId": "Q20181815",
    "name": "Arzler Pitzeklamm",
    "cat": "canyon",
    "lon": 10.77583333,
    "lat": 47.21083333
  },
  {
    "wikiId": "Q20311979",
    "name": "Bad Rock Canyon",
    "cat": "canyon",
    "lon": -114.108,
    "lat": 48.3857
  },
  {
    "wikiId": "Q20401294",
    "name": "Fleurs Jaunes",
    "cat": "canyon",
    "lon": 55.4478,
    "lat": -21.1308
  },
  {
    "wikiId": "Q20430862",
    "name": "Butești Gorge",
    "cat": "canyon",
    "lon": 27.336125,
    "lat": 47.796741666
  },
  {
    "wikiId": "Q20476539",
    "name": "Q20476539",
    "cat": "canyon",
    "lon": 32.3132124,
    "lat": 36.5277577
  },
  {
    "wikiId": "Q19742",
    "name": "Yarlung Tsangpo Grand Canyon",
    "cat": "canyon",
    "lon": 94.98985,
    "lat": 29.76974
  },
  {
    "wikiId": "Q28061",
    "name": "Quebrada de Humahuaca",
    "cat": "canyon",
    "lon": -65.348861111,
    "lat": -23.199861111
  },
  {
    "wikiId": "Q118841",
    "name": "Grand Canyon",
    "cat": "canyon",
    "lon": -112.095278,
    "lat": 36.0975
  },
  {
    "wikiId": "Q252506",
    "name": "Ásbyrgi",
    "cat": "canyon",
    "lon": -16.503333333,
    "lat": 66.014444444
  },
  {
    "wikiId": "Q388641",
    "name": "Eldgjá",
    "cat": "canyon",
    "lon": -18.609166666,
    "lat": 63.966666666
  },
  {
    "wikiId": "Q451010",
    "name": "Porta Westfalica",
    "cat": "canyon",
    "lon": 8.91961,
    "lat": 52.244
  },
  {
    "wikiId": "Q462539",
    "name": "Laurel Canyon",
    "cat": "canyon",
    "lon": -118.375277777,
    "lat": 34.117222222
  },
  {
    "wikiId": "Q469014",
    "name": "Glen Canyon",
    "cat": "canyon",
    "lon": -110.878333333,
    "lat": 37.254166666
  },
  {
    "wikiId": "Q490320",
    "name": "Itaimbezinho",
    "cat": "canyon",
    "lon": -50.09166667,
    "lat": -29.175
  },
  {
    "wikiId": "Q518332",
    "name": "Skeleton Canyon",
    "cat": "canyon",
    "lon": -109.036,
    "lat": 31.59
  },
  {
    "wikiId": "Q593481",
    "name": "Trou de Fer",
    "cat": "canyon",
    "lon": 55.556944444,
    "lat": -21.040277777
  },
  {
    "wikiId": "Q609933",
    "name": "Canyon Sainte-Anne",
    "cat": "canyon",
    "lon": -70.8791,
    "lat": 47.0701
  },
  {
    "wikiId": "Q627095",
    "name": "Pankisi Gorge",
    "cat": "canyon",
    "lon": 45.266666666,
    "lat": 42.116666666
  },
  {
    "wikiId": "Q647958",
    "name": "Ironbridge Gorge",
    "cat": "canyon",
    "lon": -2.472777777,
    "lat": 52.626388888
  },
  {
    "wikiId": "Q650289",
    "name": "Gordale Scar",
    "cat": "canyon",
    "lon": -2.130833333,
    "lat": 54.071944444
  },
  {
    "wikiId": "Q662837",
    "name": "Taubenloch",
    "cat": "canyon",
    "lon": 7.26472,
    "lat": 47.1578
  },
  {
    "wikiId": "Q666865",
    "name": "Viamala",
    "cat": "canyon",
    "lon": 9.449208,
    "lat": 46.661543
  },
  {
    "wikiId": "Q667894",
    "name": "Robbers Roost",
    "cat": "canyon",
    "lon": -110.535555555,
    "lat": 38.320555555
  },
  {
    "wikiId": "Q673287",
    "name": "Three Gorges",
    "cat": "canyon",
    "lon": 109.561388888,
    "lat": 31.042777777
  },
  {
    "wikiId": "Q723393",
    "name": "Oak Creek Canyon",
    "cat": "canyon",
    "lon": -111.727,
    "lat": 34.9125
  },
  {
    "wikiId": "Q723581",
    "name": "Black Canyon of the Colorado",
    "cat": "canyon",
    "lon": -114.711666666,
    "lat": 35.805555555
  },
  {
    "wikiId": "Q734528",
    "name": "Marble Canyon",
    "cat": "canyon",
    "lon": -111.590152777,
    "lat": 36.863622222
  },
  {
    "wikiId": "Q751691",
    "name": "Hells Canyon",
    "cat": "canyon",
    "lon": -116.638,
    "lat": 45.3714
  },
  {
    "wikiId": "Q786366",
    "name": "Prielom Hornádu",
    "cat": "canyon",
    "lon": 20.422683333,
    "lat": 48.953833333
  },
  {
    "wikiId": "Q812982",
    "name": "Bear Canyon",
    "cat": "canyon",
    "lon": -110.787,
    "lat": 32.3158
  },
  {
    "wikiId": "Q854055",
    "name": "Bicaz Canyon",
    "cat": "canyon",
    "lon": 25.818938888,
    "lat": 46.811980555
  },
  {
    "wikiId": "Q886892",
    "name": "Blyde River Canyon",
    "cat": "canyon",
    "lon": 30.8075,
    "lat": -24.563889
  },
  {
    "wikiId": "Q888473",
    "name": "Bluejohn Canyon",
    "cat": "canyon",
    "lon": -110.278,
    "lat": 38.3783
  },
  {
    "wikiId": "Q901124",
    "name": "Dadès Gorges",
    "cat": "canyon",
    "lon": -5.9,
    "lat": 31.583333333
  },
  {
    "wikiId": "Q956845",
    "name": "Fjaðrárgljúfur",
    "cat": "canyon",
    "lon": -18.171944,
    "lat": 63.77125
  },
  {
    "wikiId": "Q971616",
    "name": "Arbaiun Canyon",
    "cat": "canyon",
    "lon": -1.186343457,
    "lat": 42.674337056
  },
  {
    "wikiId": "Q981020",
    "name": "Laguna Canyon",
    "cat": "canyon",
    "lon": -117.76554,
    "lat": 33.56514
  },
  {
    "wikiId": "Q1026653",
    "name": "Calf Creek Canyon",
    "cat": "canyon",
    "lon": -111.4,
    "lat": 37.78333333
  },
  {
    "wikiId": "Q1033992",
    "name": "Canyon Diablo",
    "cat": "canyon",
    "lon": -110.989,
    "lat": 35.2961
  },
  {
    "wikiId": "Q1058142",
    "name": "Ha Gorge",
    "cat": "canyon",
    "lon": 25.835,
    "lat": 35.085
  },
  {
    "wikiId": "Q1107685",
    "name": "Colca Canyon",
    "cat": "canyon",
    "lon": -71.87917,
    "lat": -15.59722
  },
  {
    "wikiId": "Q1112581",
    "name": "Columbia River Gorge",
    "cat": "canyon",
    "lon": -121.791666666,
    "lat": 45.704722222
  },
  {
    "wikiId": "Q1128366",
    "name": "Samariá Gorge",
    "cat": "canyon",
    "lon": 23.961388888,
    "lat": 35.271111111
  },
  {
    "wikiId": "Q1140882",
    "name": "Cromwell Gorge",
    "cat": "canyon",
    "lon": 169.283333333,
    "lat": -45.1
  },
  {
    "wikiId": "Q1165879",
    "name": "Darial Gorge",
    "cat": "canyon",
    "lon": 44.6225,
    "lat": 42.744722222
  },
  {
    "wikiId": "Q1235610",
    "name": "Valley of Geysers",
    "cat": "canyon",
    "lon": 160.139444,
    "lat": 54.430556
  },
  {
    "wikiId": "Q1246593",
    "name": "Red Canyon",
    "cat": "canyon",
    "lon": -108.658,
    "lat": 42.6721
  },
  {
    "wikiId": "Q1338868",
    "name": "Gorges du Gardon",
    "cat": "canyon",
    "lon": 4.5167,
    "lat": 43.9
  },
  {
    "wikiId": "Q1369399",
    "name": "Palo Duro Canyon",
    "cat": "canyon",
    "lon": -101.667,
    "lat": 34.95
  },
  {
    "wikiId": "Q1415745",
    "name": "Imbros Gorge",
    "cat": "canyon",
    "lon": 24.168056,
    "lat": 35.246667
  },
  {
    "wikiId": "Q1460797",
    "name": "Tiger Leaping Gorge",
    "cat": "canyon",
    "lon": 100.132480555,
    "lat": 27.235936111
  },
  {
    "wikiId": "Q1510307",
    "name": "Jutulhogget",
    "cat": "canyon",
    "lon": 10.90388889,
    "lat": 61.99861111
  },
  {
    "wikiId": "Q1542533",
    "name": "Grand Canyon of the Yellowstone",
    "cat": "canyon",
    "lon": -110.496666666,
    "lat": 44.716666666
  },
  {
    "wikiId": "Q1546580",
    "name": "Kitselas Canyon",
    "cat": "canyon",
    "lon": -128.433,
    "lat": 54.6
  },
  {
    "wikiId": "Q1560811",
    "name": "Schinschlucht",
    "cat": "canyon",
    "lon": 9.52137,
    "lat": 46.6842
  },
  {
    "wikiId": "Q1620411",
    "name": "Hirschensprung",
    "cat": "canyon",
    "lon": 9.54772,
    "lat": 47.3038
  },
  {
    "wikiId": "Q1647697",
    "name": "Wolfschlucht",
    "cat": "canyon",
    "lon": 9.036,
    "lat": 49.4229
  },
  {
    "wikiId": "Q1742132",
    "name": "Kings Canyon",
    "cat": "canyon",
    "lon": 131.563,
    "lat": -24.258
  },
  {
    "wikiId": "Q1747631",
    "name": "Skippers Canyon",
    "cat": "canyon",
    "lon": 168.626,
    "lat": -44.8789
  },
  {
    "wikiId": "Q1779480",
    "name": "Jutulhogget",
    "cat": "canyon",
    "lon": 9.77666667,
    "lat": 61.87583333
  },
  {
    "wikiId": "Q1785442",
    "name": "Kotsifos Gorge",
    "cat": "canyon",
    "lon": 24.40083333,
    "lat": 35.22083333
  },
  {
    "wikiId": "Q1895173",
    "name": "Margaretenschlucht",
    "cat": "canyon",
    "lon": 9.08667,
    "lat": 49.3889
  },
  {
    "wikiId": "Q2047083",
    "name": "Boom Gorge",
    "cat": "canyon",
    "lon": 75.8,
    "lat": 42.58333333
  },
  {
    "wikiId": "Q2047764",
    "name": "Wasserlochklamm, Palfau",
    "cat": "canyon",
    "lon": 14.87903,
    "lat": 47.70475
  },
  {
    "wikiId": "Q2051933",
    "name": "Gorges de la Jonte",
    "cat": "canyon",
    "lon": 3.238333333,
    "lat": 44.191666666
  },
  {
    "wikiId": "Q2090725",
    "name": "Köprülü Canyon",
    "cat": "canyon",
    "lon": 31.140747,
    "lat": 37.295906
  },
  {
    "wikiId": "Q2118373",
    "name": "Siq",
    "cat": "canyon",
    "lon": 35.456491,
    "lat": 30.323006
  },
  {
    "wikiId": "Q2131255",
    "name": "Agia Eirini Gorge",
    "cat": "canyon",
    "lon": 23.8346,
    "lat": 35.2995
  },
  {
    "wikiId": "Q2168527",
    "name": "Tajo de Ronda",
    "cat": "canyon",
    "lon": -5.16448,
    "lat": 36.74037
  },
  {
    "wikiId": "Q2231598",
    "name": "Charyn Canyon",
    "cat": "canyon",
    "lon": 79.090555555,
    "lat": 43.361944444
  },
  {
    "wikiId": "Q2278990",
    "name": "Matka Canyon",
    "cat": "canyon",
    "lon": 21.3,
    "lat": 41.94
  },
  {
    "wikiId": "Q2339821",
    "name": "Sarvá canyon",
    "cat": "canyon",
    "lon": 19.45666667,
    "lat": 68.17222222
  },
  {
    "wikiId": "Q2395989",
    "name": "Borjomi Gorge",
    "cat": "canyon",
    "lon": 43.41,
    "lat": 41.848055555
  },
  {
    "wikiId": "Q2574575",
    "name": "Tara River Canyon",
    "cat": "canyon",
    "lon": 19.0777,
    "lat": 43.209
  },
  {
    "wikiId": "Q2722748",
    "name": "Marble Rocks",
    "cat": "canyon",
    "lon": 79.7965,
    "lat": 23.1312
  },
  {
    "wikiId": "Q2908933",
    "name": "Gorges du Pont du Diable",
    "cat": "canyon",
    "lon": 6.61582,
    "lat": 46.3069
  },
  {
    "wikiId": "Q2936921",
    "name": "Fraser Canyon",
    "cat": "canyon",
    "lon": -121.417,
    "lat": 49.6333
  },
  {
    "wikiId": "Q2936922",
    "name": "Foz de Lumbier",
    "cat": "canyon",
    "lon": -1.300954312,
    "lat": 42.630374923
  },
  {
    "wikiId": "Q2936924",
    "name": "Chicamocha Canyon",
    "cat": "canyon",
    "lon": -73.01,
    "lat": 6.816
  },
  {
    "wikiId": "Q2936925",
    "name": "Q2936925",
    "cat": "canyon",
    "lon": 0.0825,
    "lat": 42.54083333
  },
  {
    "wikiId": "Q2936928",
    "name": "Cotuahusi canion",
    "cat": "canyon",
    "lon": -73.03,
    "lat": -15.27
  },
  {
    "wikiId": "Q2943523",
    "name": "Q2943523",
    "cat": "canyon",
    "lon": -72.830045,
    "lat": -13.424075
  },
  {
    "wikiId": "Q3043170",
    "name": "Défilé d'Entre-Roches",
    "cat": "canyon",
    "lon": 6.488285,
    "lat": 47.015434
  },
  {
    "wikiId": "Q3110965",
    "name": "Manival",
    "cat": "canyon",
    "lon": 5.83,
    "lat": 45.295
  },
  {
    "wikiId": "Q3110976",
    "name": "Holtzarte gorges",
    "cat": "canyon",
    "lon": -0.9262,
    "lat": 43.001861111
  },
  {
    "wikiId": "Q3110984",
    "name": "Gorges de Kakouetta",
    "cat": "canyon",
    "lon": -0.854702,
    "lat": 42.9841
  },
  {
    "wikiId": "Q3110986",
    "name": "Regalon gorge",
    "cat": "canyon",
    "lon": 5.15724,
    "lat": 43.76563
  },
  {
    "wikiId": "Q3110992",
    "name": "Selja Gorges",
    "cat": "canyon",
    "lon": 8.344889362,
    "lat": 34.361698708
  },
  {
    "wikiId": "Q3110993",
    "name": "Gorges de l'Areuse",
    "cat": "canyon",
    "lon": 6.82869,
    "lat": 46.95949
  },
  {
    "wikiId": "Q3110995",
    "name": "Q3110995",
    "cat": "canyon",
    "lon": 6.479,
    "lat": 45.764
  },
  {
    "wikiId": "Q3111000",
    "name": "Q3111000",
    "cat": "canyon",
    "lon": 3.55707,
    "lat": 43.708
  },
  {
    "wikiId": "Q3111012",
    "name": "Gorges du Fier",
    "cat": "canyon",
    "lon": 6.03736,
    "lat": 45.896
  },
  {
    "wikiId": "Q3111013",
    "name": "Gorges du Guiers Vif",
    "cat": "canyon",
    "lon": 5.81177,
    "lat": 45.4259
  },
  {
    "wikiId": "Q3111015",
    "name": "Gorges du Guiers Mort",
    "cat": "canyon",
    "lon": 5.7595,
    "lat": 45.3519
  },
  {
    "wikiId": "Q3111018",
    "name": "Niagara Gorge",
    "cat": "canyon",
    "lon": -79.070555555,
    "lat": 43.120833333
  },
  {
    "wikiId": "Q3111026",
    "name": "Todgha Gorge",
    "cat": "canyon",
    "lon": -5.5934,
    "lat": 31.5883
  },
  {
    "wikiId": "Q3137553",
    "name": "Sautso",
    "cat": "canyon",
    "lon": 23.72419,
    "lat": 69.75771
  },
  {
    "wikiId": "Q27803187",
    "name": "Cañón La Minita",
    "cat": "canyon",
    "lon": -101.644444444,
    "lat": 29.061666666
  },
  {
    "wikiId": "Q27803188",
    "name": "Cañón La Fragua",
    "cat": "canyon",
    "lon": -101.432777777,
    "lat": 29.000277777
  },
  {
    "wikiId": "Q27803200",
    "name": "Cañón Abatos",
    "cat": "canyon",
    "lon": -100.83553,
    "lat": 29.21237
  },
  {
    "wikiId": "Q27803206",
    "name": "Cañón Grande",
    "cat": "canyon",
    "lon": -100.702222222,
    "lat": 29.094722222
  },
  {
    "wikiId": "Q27803210",
    "name": "Cañón El Oso",
    "cat": "canyon",
    "lon": -101.807777777,
    "lat": 28.853333333
  },
  {
    "wikiId": "Q27803211",
    "name": "Cañón El Indio",
    "cat": "canyon",
    "lon": -101.801111111,
    "lat": 28.759722222
  },
  {
    "wikiId": "Q27803213",
    "name": "Cañón Los Locos",
    "cat": "canyon",
    "lon": -101.986388888,
    "lat": 28.774166666
  },
  {
    "wikiId": "Q27803215",
    "name": "Cañón Seco",
    "cat": "canyon",
    "lon": -101.8275,
    "lat": 28.755277777
  },
  {
    "wikiId": "Q27803216",
    "name": "Cañón Bonito",
    "cat": "canyon",
    "lon": -101.786666666,
    "lat": 28.7625
  },
  {
    "wikiId": "Q27803217",
    "name": "Cañón La Parrita",
    "cat": "canyon",
    "lon": -101.741944444,
    "lat": 28.7725
  },
  {
    "wikiId": "Q27803218",
    "name": "Cañón La Víbora",
    "cat": "canyon",
    "lon": -101.684166666,
    "lat": 28.769722222
  },
  {
    "wikiId": "Q27803219",
    "name": "Cañón El Morado",
    "cat": "canyon",
    "lon": -101.788611111,
    "lat": 28.781666666
  },
  {
    "wikiId": "Q27803221",
    "name": "Cañón El Socorro",
    "cat": "canyon",
    "lon": -101.893888888,
    "lat": 28.787222222
  },
  {
    "wikiId": "Q27803225",
    "name": "Cañón La Cabra",
    "cat": "canyon",
    "lon": -101.784444444,
    "lat": 28.793611111
  },
  {
    "wikiId": "Q27803226",
    "name": "Cañón El Granizo",
    "cat": "canyon",
    "lon": -101.713333333,
    "lat": 28.806111111
  },
  {
    "wikiId": "Q27803227",
    "name": "Cañón El Melón",
    "cat": "canyon",
    "lon": -101.801666666,
    "lat": 28.803611111
  },
  {
    "wikiId": "Q27803230",
    "name": "Cañón Seco",
    "cat": "canyon",
    "lon": -101.872222222,
    "lat": 28.802777777
  },
  {
    "wikiId": "Q27803233",
    "name": "Cañón Los Pinos",
    "cat": "canyon",
    "lon": -101.874722222,
    "lat": 28.823888888
  },
  {
    "wikiId": "Q27803234",
    "name": "Cañón El Cerezo",
    "cat": "canyon",
    "lon": -101.755,
    "lat": 28.837777777
  },
  {
    "wikiId": "Q27803235",
    "name": "Cañón La Arrepentida",
    "cat": "canyon",
    "lon": -101.786944444,
    "lat": 28.841111111
  },
  {
    "wikiId": "Q27803236",
    "name": "Cañón Conchita",
    "cat": "canyon",
    "lon": -101.776944444,
    "lat": 28.840833333
  },
  {
    "wikiId": "Q27803237",
    "name": "Cañón Los Compadres",
    "cat": "canyon",
    "lon": -101.791944444,
    "lat": 28.880833333
  },
  {
    "wikiId": "Q27803240",
    "name": "Cañón Las Águilas",
    "cat": "canyon",
    "lon": -101.746388888,
    "lat": 28.886388888
  },
  {
    "wikiId": "Q27803241",
    "name": "Cañón El Castillo",
    "cat": "canyon",
    "lon": -101.8675,
    "lat": 28.913333333
  },
  {
    "wikiId": "Q27803242",
    "name": "Cañón Solitario",
    "cat": "canyon",
    "lon": -101.955833333,
    "lat": 28.912222222
  },
  {
    "wikiId": "Q27803243",
    "name": "Cañón Treviño",
    "cat": "canyon",
    "lon": -101.944166666,
    "lat": 28.895
  },
  {
    "wikiId": "Q27803244",
    "name": "Cañón Rafael",
    "cat": "canyon",
    "lon": -101.937777777,
    "lat": 28.923888888
  },
  {
    "wikiId": "Q27803245",
    "name": "Cañón La Remuda",
    "cat": "canyon",
    "lon": -101.847222222,
    "lat": 28.886666666
  },
  {
    "wikiId": "Q27803247",
    "name": "Cañón Las Palomas",
    "cat": "canyon",
    "lon": -101.706388888,
    "lat": 28.888055555
  },
  {
    "wikiId": "Q27803248",
    "name": "Cañón Los Potros",
    "cat": "canyon",
    "lon": -101.7475,
    "lat": 28.936666666
  },
  {
    "wikiId": "Q27803249",
    "name": "Cañón El Zotol",
    "cat": "canyon",
    "lon": -101.865833333,
    "lat": 28.9325
  },
  {
    "wikiId": "Q27803250",
    "name": "Cañón Los Picos de Davis",
    "cat": "canyon",
    "lon": -101.999722222,
    "lat": 28.961111111
  },
  {
    "wikiId": "Q27803251",
    "name": "Cañón La Madera",
    "cat": "canyon",
    "lon": -101.777777777,
    "lat": 28.956944444
  },
  {
    "wikiId": "Q27803252",
    "name": "Cañón Grande",
    "cat": "canyon",
    "lon": -101.681111111,
    "lat": 28.968333333
  },
  {
    "wikiId": "Q27803253",
    "name": "Cañón San Jorge",
    "cat": "canyon",
    "lon": -101.852222222,
    "lat": 28.965277777
  },
  {
    "wikiId": "Q27803254",
    "name": "Cañón El León",
    "cat": "canyon",
    "lon": -101.384722222,
    "lat": 28.966944444
  },
  {
    "wikiId": "Q27803256",
    "name": "Cañón Oso Blanco",
    "cat": "canyon",
    "lon": -101.615277777,
    "lat": 28.879722222
  },
  {
    "wikiId": "Q27803257",
    "name": "Cañón Bernabe",
    "cat": "canyon",
    "lon": -101.340833333,
    "lat": 28.83
  },
  {
    "wikiId": "Q27803259",
    "name": "Cañón El Becerro",
    "cat": "canyon",
    "lon": -101.455833333,
    "lat": 28.948611111
  },
  {
    "wikiId": "Q27803260",
    "name": "Cañón Enmascarado",
    "cat": "canyon",
    "lon": -101.593888888,
    "lat": 28.988333333
  },
  {
    "wikiId": "Q27803261",
    "name": "Cañón El Socabón",
    "cat": "canyon",
    "lon": -101.476111111,
    "lat": 28.998888888
  },
  {
    "wikiId": "Q27803262",
    "name": "Cañón Agua Grande",
    "cat": "canyon",
    "lon": -101.423333333,
    "lat": 28.998611111
  },
  {
    "wikiId": "Q27803263",
    "name": "Cañón Las Carreras",
    "cat": "canyon",
    "lon": -101.547777777,
    "lat": 28.795
  },
  {
    "wikiId": "Q27803264",
    "name": "Cañón El Guano",
    "cat": "canyon",
    "lon": -101.341666666,
    "lat": 28.761388888
  },
  {
    "wikiId": "Q27803266",
    "name": "Cañón El Panal",
    "cat": "canyon",
    "lon": -101.515833333,
    "lat": 28.763055555
  },
  {
    "wikiId": "Q27803268",
    "name": "Cañón La Cascada",
    "cat": "canyon",
    "lon": -101.627222222,
    "lat": 28.785
  },
  {
    "wikiId": "Q27803269",
    "name": "Cañón El Novillo",
    "cat": "canyon",
    "lon": -101.536944444,
    "lat": 28.774444444
  },
  {
    "wikiId": "Q27803270",
    "name": "Cañón La Rosita",
    "cat": "canyon",
    "lon": -101.417222222,
    "lat": 28.79
  },
  {
    "wikiId": "Q27803271",
    "name": "Cañón Los Tejones",
    "cat": "canyon",
    "lon": -101.404722222,
    "lat": 28.781111111
  },
  {
    "wikiId": "Q27803275",
    "name": "Cañón Las Calabazas",
    "cat": "canyon",
    "lon": -101.441388888,
    "lat": 28.751666666
  },
  {
    "wikiId": "Q27803276",
    "name": "Cañón El Burro",
    "cat": "canyon",
    "lon": -101.490555555,
    "lat": 28.826666666
  },
  {
    "wikiId": "Q27803277",
    "name": "Cañón La Palangana",
    "cat": "canyon",
    "lon": -101.493333333,
    "lat": 28.802222222
  },
  {
    "wikiId": "Q27803278",
    "name": "Cañón La Angostura",
    "cat": "canyon",
    "lon": -101.632222222,
    "lat": 28.814444444
  },
  {
    "wikiId": "Q27803279",
    "name": "Cañón Cedrozo",
    "cat": "canyon",
    "lon": -101.639166666,
    "lat": 28.816944444
  },
  {
    "wikiId": "Q27803280",
    "name": "Cañón La Máquina",
    "cat": "canyon",
    "lon": -101.647222222,
    "lat": 28.824444444
  },
  {
    "wikiId": "Q27803281",
    "name": "Cañón Las Vacas",
    "cat": "canyon",
    "lon": -101.570277777,
    "lat": 28.814444444
  },
  {
    "wikiId": "Q27803282",
    "name": "Cañón El Sauz",
    "cat": "canyon",
    "lon": -101.436666666,
    "lat": 28.841388888
  },
  {
    "wikiId": "Q27803283",
    "name": "Cañón El Loco",
    "cat": "canyon",
    "lon": -101.426111111,
    "lat": 28.845
  },
  {
    "wikiId": "Q27803284",
    "name": "Cañón Las Tiendas",
    "cat": "canyon",
    "lon": -101.391388888,
    "lat": 28.842777777
  },
  {
    "wikiId": "Q27803285",
    "name": "Cañón Neaves",
    "cat": "canyon",
    "lon": -101.363055555,
    "lat": 28.843611111
  },
  {
    "wikiId": "Q27803286",
    "name": "Cañón El Reseco",
    "cat": "canyon",
    "lon": -101.590833333,
    "lat": 28.846111111
  },
  {
    "wikiId": "Q27803289",
    "name": "Cañón Nuevo",
    "cat": "canyon",
    "lon": -101.400555555,
    "lat": 28.865833333
  },
  {
    "wikiId": "Q27803290",
    "name": "Cañón El Viejito",
    "cat": "canyon",
    "lon": -101.4725,
    "lat": 28.883055555
  },
  {
    "wikiId": "Q27803291",
    "name": "Cañón de Guasa",
    "cat": "canyon",
    "lon": -101.533611111,
    "lat": 28.881666666
  },
  {
    "wikiId": "Q27803293",
    "name": "Cañón Las Estrellas",
    "cat": "canyon",
    "lon": -101.578888888,
    "lat": 28.907222222
  },
  {
    "wikiId": "Q27803294",
    "name": "Cañón Las Goteras",
    "cat": "canyon",
    "lon": -101.432777777,
    "lat": 28.903333333
  },
  {
    "wikiId": "Q27803295",
    "name": "Cañón El Embrujado",
    "cat": "canyon",
    "lon": -101.532777777,
    "lat": 28.9275
  },
  {
    "wikiId": "Q27803297",
    "name": "Cañón Chico",
    "cat": "canyon",
    "lon": -101.628333333,
    "lat": 28.926111111
  },
  {
    "wikiId": "Q27803299",
    "name": "Cañón El Orégano",
    "cat": "canyon",
    "lon": -101.446944444,
    "lat": 28.926111111
  },
  {
    "wikiId": "Q27803300",
    "name": "Cañón Los Pinos",
    "cat": "canyon",
    "lon": -101.570833333,
    "lat": 28.943611111
  },
  {
    "wikiId": "Q27803301",
    "name": "Cañón San José",
    "cat": "canyon",
    "lon": -101.653333333,
    "lat": 28.976666666
  },
  {
    "wikiId": "Q27803304",
    "name": "Cañón El Chupadero",
    "cat": "canyon",
    "lon": -101.934166666,
    "lat": 28.965833333
  },
  {
    "wikiId": "Q27803305",
    "name": "Cañón El Porvenir",
    "cat": "canyon",
    "lon": -101.886111111,
    "lat": 28.979722222
  },
  {
    "wikiId": "Q27803307",
    "name": "Cañón El Gavilán",
    "cat": "canyon",
    "lon": -101.931944444,
    "lat": 28.995833333
  },
  {
    "wikiId": "Q27803308",
    "name": "Cañón El Veladero",
    "cat": "canyon",
    "lon": -101.952222222,
    "lat": 28.955277777
  },
  {
    "wikiId": "Q27803309",
    "name": "Cañón Las Palmas",
    "cat": "canyon",
    "lon": -101.526666666,
    "lat": 28.993611111
  },
  {
    "wikiId": "Q27803310",
    "name": "Cañón El Becerro",
    "cat": "canyon",
    "lon": -101.353611111,
    "lat": 28.986111111
  },
  {
    "wikiId": "Q27803311",
    "name": "Cañón El Pancho",
    "cat": "canyon",
    "lon": -101.378055555,
    "lat": 28.976111111
  },
  {
    "wikiId": "Q27803312",
    "name": "Cañón Nogalillos",
    "cat": "canyon",
    "lon": -101.399166666,
    "lat": 28.976944444
  },
  {
    "wikiId": "Q27803313",
    "name": "Cañón Las Antonias",
    "cat": "canyon",
    "lon": -101.462777777,
    "lat": 28.988055555
  },
  {
    "wikiId": "Q27803314",
    "name": "Cañón La Esmeralda",
    "cat": "canyon",
    "lon": -101.554722222,
    "lat": 28.980277777
  },
  {
    "wikiId": "Q27803320",
    "name": "Cañón El Pájaro",
    "cat": "canyon",
    "lon": -101.273888888,
    "lat": 28.8025
  },
  {
    "wikiId": "Q27803325",
    "name": "Cañón El Galán",
    "cat": "canyon",
    "lon": -101.315,
    "lat": 28.868611111
  },
  {
    "wikiId": "Q27803329",
    "name": "Rinconada Las Palomas",
    "cat": "canyon",
    "lon": -97.858333333,
    "lat": 22.645833333
  },
  {
    "wikiId": "Q27803330",
    "name": "Rinconada Los Venados",
    "cat": "canyon",
    "lon": -97.85768,
    "lat": 22.6163
  },
  {
    "wikiId": "Q27803331",
    "name": "Cañón La Pasta de San Juan",
    "cat": "canyon",
    "lon": -101.549444444,
    "lat": 28.512222222
  },
  {
    "wikiId": "Q27803332",
    "name": "Cañón El Negro",
    "cat": "canyon",
    "lon": -101.600277777,
    "lat": 28.528333333
  },
  {
    "wikiId": "Q27803333",
    "name": "Cañón La Lipana",
    "cat": "canyon",
    "lon": -101.543611111,
    "lat": 28.536111111
  },
  {
    "wikiId": "Q27803335",
    "name": "Cañón La Madera",
    "cat": "canyon",
    "lon": -101.5925,
    "lat": 28.535833333
  },
  {
    "wikiId": "Q27803337",
    "name": "Cañón Loma Cortada",
    "cat": "canyon",
    "lon": -101.615,
    "lat": 28.549444444
  },
  {
    "wikiId": "Q27803338",
    "name": "Cañón El Ojito",
    "cat": "canyon",
    "lon": -101.570555555,
    "lat": 28.559166666
  },
  {
    "wikiId": "Q27803339",
    "name": "Cañón San Juan",
    "cat": "canyon",
    "lon": -101.418888888,
    "lat": 28.577777777
  },
  {
    "wikiId": "Q27803341",
    "name": "Cañón Cinco Mangas",
    "cat": "canyon",
    "lon": -101.564444444,
    "lat": 28.608611111
  },
  {
    "wikiId": "Q27803342",
    "name": "Cañón Marilú",
    "cat": "canyon",
    "lon": -101.631111111,
    "lat": 28.620277777
  },
  {
    "wikiId": "Q27803344",
    "name": "Cañón El Indio",
    "cat": "canyon",
    "lon": -101.646388888,
    "lat": 28.6175
  },
  {
    "wikiId": "Q27803345",
    "name": "Cañón El Roble",
    "cat": "canyon",
    "lon": -101.663611111,
    "lat": 28.621111111
  },
  {
    "wikiId": "Q27803346",
    "name": "Cañón Prieto",
    "cat": "canyon",
    "lon": -101.352777777,
    "lat": 28.608333333
  },
  {
    "wikiId": "Q27803347",
    "name": "Cañón La Madera",
    "cat": "canyon",
    "lon": -101.621944444,
    "lat": 28.627777777
  },
  {
    "wikiId": "Q27803349",
    "name": "Cañón El Sauz",
    "cat": "canyon",
    "lon": -101.580555555,
    "lat": 28.635555555
  },
  {
    "wikiId": "Q27803350",
    "name": "Cañón El Roble",
    "cat": "canyon",
    "lon": -101.583888888,
    "lat": 28.648333333
  },
  {
    "wikiId": "Q27803351",
    "name": "Cañón El Perro",
    "cat": "canyon",
    "lon": -101.473333333,
    "lat": 28.660555555
  },
  {
    "wikiId": "Q27803352",
    "name": "Cañón La Huérfana",
    "cat": "canyon",
    "lon": -101.455277777,
    "lat": 28.660555555
  },
  {
    "wikiId": "Q27803353",
    "name": "Cañón Santo Niño",
    "cat": "canyon",
    "lon": -101.486666666,
    "lat": 28.666944444
  },
  {
    "wikiId": "Q27803358",
    "name": "Cañón Duro",
    "cat": "canyon",
    "lon": -101.564722222,
    "lat": 28.675555555
  },
  {
    "wikiId": "Q27803359",
    "name": "Cañón La Guillota",
    "cat": "canyon",
    "lon": -101.505,
    "lat": 28.682222222
  },
  {
    "wikiId": "Q27803360",
    "name": "Cañón Los Venados",
    "cat": "canyon",
    "lon": -101.571944444,
    "lat": 28.686944444
  },
  {
    "wikiId": "Q27803361",
    "name": "Cañón Achicadero",
    "cat": "canyon",
    "lon": -101.477777777,
    "lat": 28.694166666
  },
  {
    "wikiId": "Q27803362",
    "name": "Cañón La Tinaja Azul",
    "cat": "canyon",
    "lon": -101.361111111,
    "lat": 28.694444444
  },
  {
    "wikiId": "Q27803363",
    "name": "Cañón El Fierro",
    "cat": "canyon",
    "lon": -101.473055555,
    "lat": 28.704722222
  },
  {
    "wikiId": "Q27803364",
    "name": "Cañón Calcetín",
    "cat": "canyon",
    "lon": -101.520555555,
    "lat": 28.700833333
  },
  {
    "wikiId": "Q27803365",
    "name": "Cañón Carneros",
    "cat": "canyon",
    "lon": -101.564166666,
    "lat": 28.702777777
  },
  {
    "wikiId": "Q27803368",
    "name": "Cañón Las Parras",
    "cat": "canyon",
    "lon": -101.575277777,
    "lat": 28.710555555
  },
  {
    "wikiId": "Q27803369",
    "name": "Cañón Las Tres Marías",
    "cat": "canyon",
    "lon": -101.568611111,
    "lat": 28.728055555
  },
  {
    "wikiId": "Q27803382",
    "name": "Cañón San Dabe",
    "cat": "canyon",
    "lon": -101.436111111,
    "lat": 28.706944444
  },
  {
    "wikiId": "Q27803383",
    "name": "Cañón Taraíces",
    "cat": "canyon",
    "lon": -101.585555555,
    "lat": 28.748333333
  },
  {
    "wikiId": "Q27803444",
    "name": "Cañón Campo Los Burros",
    "cat": "canyon",
    "lon": -109.814444444,
    "lat": 30.844722222
  },
  {
    "wikiId": "Q27803445",
    "name": "Cañón El Tordillo",
    "cat": "canyon",
    "lon": -109.823055555,
    "lat": 30.852222222
  },
  {
    "wikiId": "Q27803446",
    "name": "Cañón Hondo",
    "cat": "canyon",
    "lon": -109.897777777,
    "lat": 30.8475
  },
  {
    "wikiId": "Q27803447",
    "name": "Cañón La Unión",
    "cat": "canyon",
    "lon": -109.829166666,
    "lat": 30.858055555
  },
  {
    "wikiId": "Q27803449",
    "name": "Cañón Los Osos",
    "cat": "canyon",
    "lon": -109.838333333,
    "lat": 30.866111111
  },
  {
    "wikiId": "Q27803578",
    "name": "Cañón Las Vacas",
    "cat": "canyon",
    "lon": -102.811111111,
    "lat": 28.248055555
  },
  {
    "wikiId": "Q27803579",
    "name": "Cañón Piedra Blanca",
    "cat": "canyon",
    "lon": -102.093611111,
    "lat": 28.216111111
  },
  {
    "wikiId": "Q27803580",
    "name": "Cañón Agua Blanca",
    "cat": "canyon",
    "lon": -102.064444444,
    "lat": 28.112222222
  },
  {
    "wikiId": "Q27803581",
    "name": "Cañón Agua Blanca",
    "cat": "canyon",
    "lon": -102.0875,
    "lat": 28.110277777
  },
  {
    "wikiId": "Q27803588",
    "name": "Cañón La Madera",
    "cat": "canyon",
    "lon": -102.316944444,
    "lat": 28.164722222
  },
  {
    "wikiId": "Q27803589",
    "name": "Cañón Los Toros",
    "cat": "canyon",
    "lon": -102.123333333,
    "lat": 28.171388888
  },
  {
    "wikiId": "Q27803590",
    "name": "Cañón San José",
    "cat": "canyon",
    "lon": -102.28,
    "lat": 28.193055555
  },
  {
    "wikiId": "Q27803591",
    "name": "Cañón El Oso",
    "cat": "canyon",
    "lon": -102.306111111,
    "lat": 28.205
  },
  {
    "wikiId": "Q27803592",
    "name": "Cañón El Quemado",
    "cat": "canyon",
    "lon": -102.0875,
    "lat": 28.201944444
  },
  {
    "wikiId": "Q27803628",
    "name": "Cañón Las Mangas",
    "cat": "canyon",
    "lon": -102.022777777,
    "lat": 28.214722222
  },
  {
    "wikiId": "Q27803629",
    "name": "Cañón El Novillo",
    "cat": "canyon",
    "lon": -102.233055555,
    "lat": 28.229166666
  },
  {
    "wikiId": "Q27803630",
    "name": "Cañón El Novillo",
    "cat": "canyon",
    "lon": -102.103611111,
    "lat": 28.243055555
  },
  {
    "wikiId": "Q27803631",
    "name": "Cañón Los Cuates",
    "cat": "canyon",
    "lon": -102.115277777,
    "lat": 28.234166666
  },
  {
    "wikiId": "Q27803632",
    "name": "Cañón Las Blancas",
    "cat": "canyon",
    "lon": -102.225277777,
    "lat": 28.248611111
  },
  {
    "wikiId": "Q27803638",
    "name": "Cañón Martín",
    "cat": "canyon",
    "lon": -101.552222222,
    "lat": 29.750277777
  },
  {
    "wikiId": "Q27803639",
    "name": "Q27803639",
    "cat": "canyon",
    "lon": -101.552222222,
    "lat": 29.785833333
  },
  {
    "wikiId": "Q27803644",
    "name": "Cañón El Oso",
    "cat": "canyon",
    "lon": -101.809722222,
    "lat": 28.706388888
  },
  {
    "wikiId": "Q27803647",
    "name": "Cañón Los Laureles",
    "cat": "canyon",
    "lon": -101.910555555,
    "lat": 28.509166666
  },
  {
    "wikiId": "Q27803649",
    "name": "Cañón El Tecolote",
    "cat": "canyon",
    "lon": -101.778888888,
    "lat": 28.534722222
  },
  {
    "wikiId": "Q27803650",
    "name": "Cañón Los Laureles",
    "cat": "canyon",
    "lon": -101.788055555,
    "lat": 28.54
  },
  {
    "wikiId": "Q27803655",
    "name": "Cañón Los Toros",
    "cat": "canyon",
    "lon": -101.7575,
    "lat": 28.537222222
  },
  {
    "wikiId": "Q27803656",
    "name": "Cañón Las Herminias",
    "cat": "canyon",
    "lon": -101.745833333,
    "lat": 28.563611111
  },
  {
    "wikiId": "Q27803658",
    "name": "Cañón La Tinaja",
    "cat": "canyon",
    "lon": -101.734166666,
    "lat": 28.571944444
  },
  {
    "wikiId": "Q27803660",
    "name": "Cañón Obscuro",
    "cat": "canyon",
    "lon": -101.689722222,
    "lat": 28.586388888
  },
  {
    "wikiId": "Q27803661",
    "name": "Cañón El Cedrito",
    "cat": "canyon",
    "lon": -101.755277777,
    "lat": 28.595277777
  },
  {
    "wikiId": "Q27803663",
    "name": "Cañón Atilano",
    "cat": "canyon",
    "lon": -101.701111111,
    "lat": 28.621666666
  },
  {
    "wikiId": "Q27803664",
    "name": "Cañón La Voladora",
    "cat": "canyon",
    "lon": -101.671944444,
    "lat": 28.625555555
  },
  {
    "wikiId": "Q27803665",
    "name": "Cañón Lagunitas",
    "cat": "canyon",
    "lon": -101.730277777,
    "lat": 28.626111111
  },
  {
    "wikiId": "Q27803666",
    "name": "Cañón El Camarón",
    "cat": "canyon",
    "lon": -101.818333333,
    "lat": 28.581666666
  },
  {
    "wikiId": "Q27803667",
    "name": "Cañón La Madera",
    "cat": "canyon",
    "lon": -101.872777777,
    "lat": 28.5925
  },
  {
    "wikiId": "Q27803668",
    "name": "Cañón Los Toros",
    "cat": "canyon",
    "lon": -101.759166666,
    "lat": 28.638611111
  },
  {
    "wikiId": "Q27803669",
    "name": "Cañón El Orégano",
    "cat": "canyon",
    "lon": -101.745277777,
    "lat": 28.64
  },
  {
    "wikiId": "Q27803722",
    "name": "Cañón San Enrique",
    "cat": "canyon",
    "lon": -102.521944444,
    "lat": 28.415833333
  },
  {
    "wikiId": "Q27803724",
    "name": "Cañón Hilcoat",
    "cat": "canyon",
    "lon": -102.555,
    "lat": 28.460277777
  },
  {
    "wikiId": "Q27803726",
    "name": "Cañón La Trampa",
    "cat": "canyon",
    "lon": -102.039722222,
    "lat": 28.261944444
  },
  {
    "wikiId": "Q27803727",
    "name": "Cañón El Tigre",
    "cat": "canyon",
    "lon": -102.091388888,
    "lat": 28.263333333
  },
  {
    "wikiId": "Q27803728",
    "name": "Cañón El Oso",
    "cat": "canyon",
    "lon": -102.090833333,
    "lat": 28.285277777
  },
  {
    "wikiId": "Q27803729",
    "name": "Cañón Aureliano",
    "cat": "canyon",
    "lon": -102.053611111,
    "lat": 28.316944444
  },
  {
    "wikiId": "Q27803731",
    "name": "Cañón El Pinoso",
    "cat": "canyon",
    "lon": -102.113611111,
    "lat": 28.433333333
  },
  {
    "wikiId": "Q27803732",
    "name": "Cañón Pasta Nueva",
    "cat": "canyon",
    "lon": -102.216944444,
    "lat": 28.299166666
  },
  {
    "wikiId": "Q27803734",
    "name": "Cañón Las Tinajas",
    "cat": "canyon",
    "lon": -102.240833333,
    "lat": 28.4425
  },
  {
    "wikiId": "Q27803735",
    "name": "Cañón El Venado",
    "cat": "canyon",
    "lon": -102.141388888,
    "lat": 28.254444444
  },
  {
    "wikiId": "Q27803736",
    "name": "Cañón La Mota",
    "cat": "canyon",
    "lon": -102.163888888,
    "lat": 28.479722222
  },
  {
    "wikiId": "Q27803737",
    "name": "Cañón San Marcos",
    "cat": "canyon",
    "lon": -102.1675,
    "lat": 28.463055555
  },
  {
    "wikiId": "Q27803738",
    "name": "Cañón El Rincón de María",
    "cat": "canyon",
    "lon": -102.118611111,
    "lat": 28.468611111
  },
  {
    "wikiId": "Q27803739",
    "name": "Cañón El Túnel",
    "cat": "canyon",
    "lon": -102.011944444,
    "lat": 28.263611111
  },
  {
    "wikiId": "Q27803740",
    "name": "Cañón El Charro",
    "cat": "canyon",
    "lon": -102.010833333,
    "lat": 28.297222222
  },
  {
    "wikiId": "Q27803741",
    "name": "Cañón La Bonita",
    "cat": "canyon",
    "lon": -102.009166666,
    "lat": 28.324166666
  },
  {
    "wikiId": "Q27803743",
    "name": "Cañón Agua Dulce",
    "cat": "canyon",
    "lon": -102.003611111,
    "lat": 28.453055555
  },
  {
    "wikiId": "Q27803745",
    "name": "Cañón La Mula",
    "cat": "canyon",
    "lon": -102.5775,
    "lat": 28.497777777
  },
  {
    "wikiId": "Q27803796",
    "name": "Cañón El Peñasco",
    "cat": "canyon",
    "lon": -103.94363,
    "lat": 29.29402
  },
  {
    "wikiId": "Q27803797",
    "name": "Cañón Punta de Agua",
    "cat": "canyon",
    "lon": -103.936944444,
    "lat": 29.112777777
  },
  {
    "wikiId": "Q27803806",
    "name": "Cañón Los Borregos",
    "cat": "canyon",
    "lon": -103.976666666,
    "lat": 29.091388888
  },
  {
    "wikiId": "Q27803814",
    "name": "Cañón Boquilla Azul",
    "cat": "canyon",
    "lon": -103.908055555,
    "lat": 29.254166666
  },
  {
    "wikiId": "Q27803831",
    "name": "Q27803831",
    "cat": "canyon",
    "lon": -104.80741,
    "lat": 28.25727
  },
  {
    "wikiId": "Q27803856",
    "name": "Cañón El Contrabandista",
    "cat": "canyon",
    "lon": -104.916666666,
    "lat": 28.371944444
  },
  {
    "wikiId": "Q27803862",
    "name": "Cañón Fernando",
    "cat": "canyon",
    "lon": -104.970833333,
    "lat": 28.410833333
  },
  {
    "wikiId": "Q27803887",
    "name": "Cañón El Agua",
    "cat": "canyon",
    "lon": -104.304444444,
    "lat": 29.024444444
  },
  {
    "wikiId": "Q27803888",
    "name": "Cañón El Grado",
    "cat": "canyon",
    "lon": -104.285555555,
    "lat": 29.055833333
  },
  {
    "wikiId": "Q27803893",
    "name": "Cañón El Agua",
    "cat": "canyon",
    "lon": -104.043055555,
    "lat": 29.133055555
  },
  {
    "wikiId": "Q27803908",
    "name": "Cañón Largo",
    "cat": "canyon",
    "lon": -104.391111111,
    "lat": 29.117777777
  },
  {
    "wikiId": "Q27803914",
    "name": "Cañón Cortez",
    "cat": "canyon",
    "lon": -102.682222222,
    "lat": 29.216666666
  },
  {
    "wikiId": "Q27804018",
    "name": "Cañón El Güero",
    "cat": "canyon",
    "lon": -102.810555555,
    "lat": 29.304722222
  },
  {
    "wikiId": "Q27804030",
    "name": "Cañón Piedra Rodada",
    "cat": "canyon",
    "lon": -102.831388888,
    "lat": 29.269166666
  },
  {
    "wikiId": "Q27804054",
    "name": "Cañón El Tule",
    "cat": "canyon",
    "lon": -104.134722222,
    "lat": 28.280555555
  },
  {
    "wikiId": "Q27804056",
    "name": "Cañón Campo de Enmedio",
    "cat": "canyon",
    "lon": -104.105833333,
    "lat": 28.281944444
  },
  {
    "wikiId": "Q27804058",
    "name": "Cañón Feo",
    "cat": "canyon",
    "lon": -104.066388888,
    "lat": 28.289166666
  },
  {
    "wikiId": "Q27804075",
    "name": "Cañón El Bote",
    "cat": "canyon",
    "lon": -104.045,
    "lat": 28.315833333
  },
  {
    "wikiId": "Q27804077",
    "name": "Cañón Los Leones",
    "cat": "canyon",
    "lon": -104.101944444,
    "lat": 28.3075
  },
  {
    "wikiId": "Q27804085",
    "name": "Cañón de Enmedio",
    "cat": "canyon",
    "lon": -104.075833333,
    "lat": 28.345
  },
  {
    "wikiId": "Q27804103",
    "name": "Cañón La Sotolosa",
    "cat": "canyon",
    "lon": -104.126666666,
    "lat": 28.326944444
  },
  {
    "wikiId": "Q27804113",
    "name": "Cañón La Leona",
    "cat": "canyon",
    "lon": -104.105,
    "lat": 28.391666666
  },
  {
    "wikiId": "Q27804143",
    "name": "Cañón Zeferino",
    "cat": "canyon",
    "lon": -102.793333333,
    "lat": 29.484444444
  },
  {
    "wikiId": "Q27804145",
    "name": "Cañada Las Palomas",
    "cat": "canyon",
    "lon": -104.558055555,
    "lat": 29.269444444
  },
  {
    "wikiId": "Q27804153",
    "name": "Cañón El Abra",
    "cat": "canyon",
    "lon": -104.552777777,
    "lat": 29.251388888
  },
  {
    "wikiId": "Q27804161",
    "name": "Cañón Hondo",
    "cat": "canyon",
    "lon": -104.626111111,
    "lat": 29.323055555
  },
  {
    "wikiId": "Q27804167",
    "name": "Cañones Cuates",
    "cat": "canyon",
    "lon": -104.603055555,
    "lat": 29.368611111
  },
  {
    "wikiId": "Q27804251",
    "name": "Cañón Nochebuena",
    "cat": "canyon",
    "lon": -103.42,
    "lat": 28.380833333
  },
  {
    "wikiId": "Q27804263",
    "name": "Cañón Grande",
    "cat": "canyon",
    "lon": -104.727222222,
    "lat": 29.467222222
  },
  {
    "wikiId": "Q27804287",
    "name": "Cañón El Talado",
    "cat": "canyon",
    "lon": -103.085555555,
    "lat": 28.430833333
  },
  {
    "wikiId": "Q34147272",
    "name": "Canyon Rio Sass",
    "cat": "canyon",
    "lon": 11.1422773,
    "lat": 46.4438054
  },
  {
    "wikiId": "Q35009027",
    "name": "Bear Gulch",
    "cat": "canyon",
    "lon": 25.649,
    "lat": 45.5665
  },
  {
    "wikiId": "Q35242721",
    "name": "Price Canyon",
    "cat": "canyon",
    "lon": -100.5429,
    "lat": 34.33368
  },
  {
    "wikiId": "Q35242954",
    "name": "Providence Canyons",
    "cat": "canyon",
    "lon": -84.91604,
    "lat": 32.06377
  },
  {
    "wikiId": "Q35276537",
    "name": "Santa Elena Canyon",
    "cat": "canyon",
    "lon": -103.61212,
    "lat": 29.16547
  },
  {
    "wikiId": "Q35283493",
    "name": "Sevenmile Canyon",
    "cat": "canyon",
    "lon": -101.87235,
    "lat": 29.99103
  },
  {
    "wikiId": "Q35321077",
    "name": "Soldier Hollow",
    "cat": "canyon",
    "lon": -94.898888888,
    "lat": 36.355
  },
  {
    "wikiId": "Q35358451",
    "name": "Boquillas Canyon",
    "cat": "canyon",
    "lon": -102.88599,
    "lat": 29.21104
  },
  {
    "wikiId": "Q35427979",
    "name": "Echo Canyon",
    "cat": "canyon",
    "lon": -105.3294,
    "lat": 31.1068
  },
  {
    "wikiId": "Q38285174",
    "name": "Kool Kherson",
    "cat": "canyon",
    "lon": 48.523611111,
    "lat": 32.59
  },
  {
    "wikiId": "Q38888125",
    "name": "Jökulsárgljúfur",
    "cat": "canyon",
    "lon": -16.536944444,
    "lat": 65.928888888
  },
  {
    "wikiId": "Q41679118",
    "name": "Canyon de Chelly",
    "cat": "canyon",
    "lon": -109.15,
    "lat": 36.1
  },
  {
    "wikiId": "Q43590260",
    "name": "Bryce Canyon",
    "cat": "canyon",
    "lon": -112.1425,
    "lat": 37.616666666
  },
  {
    "wikiId": "Q43784899",
    "name": "Gole della stretta",
    "cat": "canyon",
    "lon": 14.880765,
    "lat": 37.157818
  },
  {
    "wikiId": "Q44665008",
    "name": "First Creek Canyon",
    "cat": "canyon",
    "lon": -115.448,
    "lat": 36.081
  },
  {
    "wikiId": "Q44665024",
    "name": "Black Velvet Canyon",
    "cat": "canyon",
    "lon": -115.45,
    "lat": 36.035
  },
  {
    "wikiId": "Q44665043",
    "name": "Sandstone Canyon",
    "cat": "canyon",
    "lon": -115.473,
    "lat": 36.062
  },
  {
    "wikiId": "Q44665051",
    "name": "Oak Creek Canyon",
    "cat": "canyon",
    "lon": -115.489,
    "lat": 36.102
  },
  {
    "wikiId": "Q44665065",
    "name": "Juniper Canyon",
    "cat": "canyon",
    "lon": -115.487,
    "lat": 36.114
  },
  {
    "wikiId": "Q44665081",
    "name": "Pine Creek Canyon",
    "cat": "canyon",
    "lon": -115.488,
    "lat": 36.121
  },
  {
    "wikiId": "Q44665109",
    "name": "Icebox Canyon",
    "cat": "canyon",
    "lon": -115.493,
    "lat": 36.145
  },
  {
    "wikiId": "Q44716000",
    "name": "Red Rock Canyon",
    "cat": "canyon",
    "lon": -115.50529,
    "lat": 36.16358
  },
  {
    "wikiId": "Q45334520",
    "name": "Q45334520",
    "cat": "canyon",
    "lon": 22.276944444,
    "lat": 42.078888888
  },
  {
    "wikiId": "Q47380593",
    "name": "Gorges de la Guillera",
    "cat": "canyon",
    "lon": 2.565552777,
    "lat": 42.660813888
  },
  {
    "wikiId": "Q48749330",
    "name": "Gorges du Val du Fier",
    "cat": "canyon",
    "lon": 5.869532,
    "lat": 45.932349
  },
  {
    "wikiId": "Q48945066",
    "name": "Sulak Canyon",
    "cat": "canyon",
    "lon": 46.8278,
    "lat": 43.0095
  },
  {
    "wikiId": "Q49096442",
    "name": "Q49096442",
    "cat": "canyon",
    "lon": 136.159444444,
    "lat": 34.213055555
  },
  {
    "wikiId": "Q49096449",
    "name": "Q49096449",
    "cat": "canyon",
    "lon": -100.978055555,
    "lat": 24.620277777
  },
  {
    "wikiId": "Q49096451",
    "name": "Q49096451",
    "cat": "canyon",
    "lon": -100.815,
    "lat": 24.574444444
  },
  {
    "wikiId": "Q49096454",
    "name": "Q49096454",
    "cat": "canyon",
    "lon": -100.967777777,
    "lat": 24.5925
  },
  {
    "wikiId": "Q49096455",
    "name": "Q49096455",
    "cat": "canyon",
    "lon": -100.820833333,
    "lat": 24.601666666
  },
  {
    "wikiId": "Q49096456",
    "name": "Q49096456",
    "cat": "canyon",
    "lon": -100.815,
    "lat": 24.6
  },
  {
    "wikiId": "Q49096458",
    "name": "Q49096458",
    "cat": "canyon",
    "lon": -100.813611111,
    "lat": 24.606388888
  },
  {
    "wikiId": "Q49096460",
    "name": "Q49096460",
    "cat": "canyon",
    "lon": -100.795277777,
    "lat": 24.575555555
  },
  {
    "wikiId": "Q49096464",
    "name": "Q49096464",
    "cat": "canyon",
    "lon": -100.811111111,
    "lat": 24.568888888
  },
  {
    "wikiId": "Q49096468",
    "name": "Q49096468",
    "cat": "canyon",
    "lon": -100.8275,
    "lat": 24.592777777
  },
  {
    "wikiId": "Q49096471",
    "name": "Q49096471",
    "cat": "canyon",
    "lon": -101.785277777,
    "lat": 21.738611111
  },
  {
    "wikiId": "Q49096474",
    "name": "Q49096474",
    "cat": "canyon",
    "lon": -100.818055555,
    "lat": 24.579166666
  },
  {
    "wikiId": "Q49096475",
    "name": "Q49096475",
    "cat": "canyon",
    "lon": -100.984166666,
    "lat": 24.599722222
  },
  {
    "wikiId": "Q49096478",
    "name": "Q49096478",
    "cat": "canyon",
    "lon": -100.796944444,
    "lat": 24.601111111
  },
  {
    "wikiId": "Q49096480",
    "name": "Q49096480",
    "cat": "canyon",
    "lon": -100.968055555,
    "lat": 24.601111111
  },
  {
    "wikiId": "Q49096482",
    "name": "Q49096482",
    "cat": "canyon",
    "lon": -100.824722222,
    "lat": 24.583333333
  },
  {
    "wikiId": "Q49096484",
    "name": "Q49096484",
    "cat": "canyon",
    "lon": -100.930833333,
    "lat": 24.526388888
  },
  {
    "wikiId": "Q49096488",
    "name": "Q49096488",
    "cat": "canyon",
    "lon": -100.9725,
    "lat": 24.613888888
  },
  {
    "wikiId": "Q49096490",
    "name": "Q49096490",
    "cat": "canyon",
    "lon": -100.920833333,
    "lat": 24.509166666
  },
  {
    "wikiId": "Q49096492",
    "name": "Q49096492",
    "cat": "canyon",
    "lon": -100.969444444,
    "lat": 24.609166666
  },
  {
    "wikiId": "Q49096494",
    "name": "Q49096494",
    "cat": "canyon",
    "lon": -100.992222222,
    "lat": 24.5675
  },
  {
    "wikiId": "Q49096497",
    "name": "Q49096497",
    "cat": "canyon",
    "lon": -100.964444444,
    "lat": 24.583888888
  },
  {
    "wikiId": "Q49096499",
    "name": "Q49096499",
    "cat": "canyon",
    "lon": -100.801666666,
    "lat": 24.603055555
  },
  {
    "wikiId": "Q49096501",
    "name": "Q49096501",
    "cat": "canyon",
    "lon": -100.807777777,
    "lat": 24.604166666
  },
  {
    "wikiId": "Q49096504",
    "name": "Q49096504",
    "cat": "canyon",
    "lon": -108.9275,
    "lat": 31.278055555
  },
  {
    "wikiId": "Q49096505",
    "name": "Q49096505",
    "cat": "canyon",
    "lon": 70.25,
    "lat": -49.683333333
  },
  {
    "wikiId": "Q49096508",
    "name": "Q49096508",
    "cat": "canyon",
    "lon": -101.679166666,
    "lat": 24.032222222
  },
  {
    "wikiId": "Q49096510",
    "name": "Q49096510",
    "cat": "canyon",
    "lon": -104.656944444,
    "lat": 24.123611111
  },
  {
    "wikiId": "Q49096514",
    "name": "Q49096514",
    "cat": "canyon",
    "lon": -104.663888888,
    "lat": 24.119444444
  },
  {
    "wikiId": "Q49096515",
    "name": "Q49096515",
    "cat": "canyon",
    "lon": -101.680833333,
    "lat": 24.040555555
  },
  {
    "wikiId": "Q49096516",
    "name": "Q49096516",
    "cat": "canyon",
    "lon": -103.143888888,
    "lat": 24.135277777
  },
  {
    "wikiId": "Q49096521",
    "name": "Q49096521",
    "cat": "canyon",
    "lon": -104.422777777,
    "lat": 24.130833333
  },
  {
    "wikiId": "Q49096524",
    "name": "Q49096524",
    "cat": "canyon",
    "lon": -100.221111111,
    "lat": 24.453611111
  },
  {
    "wikiId": "Q49096527",
    "name": "Q49096527",
    "cat": "canyon",
    "lon": -103.01,
    "lat": 24.224444444
  },
  {
    "wikiId": "Q49096531",
    "name": "Q49096531",
    "cat": "canyon",
    "lon": -103.699444444,
    "lat": 22.173333333
  },
  {
    "wikiId": "Q49096533",
    "name": "Q49096533",
    "cat": "canyon",
    "lon": -100.988888888,
    "lat": 24.473333333
  },
  {
    "wikiId": "Q49096536",
    "name": "Q49096536",
    "cat": "canyon",
    "lon": -99.992777777,
    "lat": 26.226388888
  },
  {
    "wikiId": "Q49096539",
    "name": "Q49096539",
    "cat": "canyon",
    "lon": -100.215555555,
    "lat": 24.024722222
  },
  {
    "wikiId": "Q49096541",
    "name": "Q49096541",
    "cat": "canyon",
    "lon": -99.822222222,
    "lat": 26.089444444
  },
  {
    "wikiId": "Q49096544",
    "name": "Q49096544",
    "cat": "canyon",
    "lon": -101.495555555,
    "lat": 25.005
  },
  {
    "wikiId": "Q49096547",
    "name": "Q49096547",
    "cat": "canyon",
    "lon": -100.118888888,
    "lat": 23.2075
  },
  {
    "wikiId": "Q49096549",
    "name": "Q49096549",
    "cat": "canyon",
    "lon": -101.553888888,
    "lat": 25.778333333
  },
  {
    "wikiId": "Q49096552",
    "name": "Q49096552",
    "cat": "canyon",
    "lon": -100.021111111,
    "lat": 19.900277777
  },
  {
    "wikiId": "Q49096555",
    "name": "Q49096555",
    "cat": "canyon",
    "lon": -101.535,
    "lat": 25.010277777
  },
  {
    "wikiId": "Q49096557",
    "name": "Q49096557",
    "cat": "canyon",
    "lon": -100.186111111,
    "lat": 24.018888888
  },
  {
    "wikiId": "Q49096560",
    "name": "Q49096560",
    "cat": "canyon",
    "lon": -100.015,
    "lat": 23.024722222
  },
  {
    "wikiId": "Q49096562",
    "name": "Q49096562",
    "cat": "canyon",
    "lon": -103.875277777,
    "lat": 24.143611111
  },
  {
    "wikiId": "Q49096566",
    "name": "Q49096566",
    "cat": "canyon",
    "lon": -101.701666666,
    "lat": 25.018611111
  },
  {
    "wikiId": "Q49096568",
    "name": "Q49096568",
    "cat": "canyon",
    "lon": -101.425833333,
    "lat": 25.189444444
  },
  {
    "wikiId": "Q49096571",
    "name": "Q49096571",
    "cat": "canyon",
    "lon": -101.517222222,
    "lat": 25.526666666
  },
  {
    "wikiId": "Q49096573",
    "name": "Q49096573",
    "cat": "canyon",
    "lon": -100.118611111,
    "lat": 23.190555555
  },
  {
    "wikiId": "Q49096577",
    "name": "Q49096577",
    "cat": "canyon",
    "lon": -101.97,
    "lat": 25.18
  },
  {
    "wikiId": "Q49096581",
    "name": "Q49096581",
    "cat": "canyon",
    "lon": -101.48,
    "lat": 25.7475
  },
  {
    "wikiId": "Q49096583",
    "name": "Q49096583",
    "cat": "canyon",
    "lon": -101.424722222,
    "lat": 25.906388888
  },
  {
    "wikiId": "Q49096586",
    "name": "Q49096586",
    "cat": "canyon",
    "lon": -101.588333333,
    "lat": 25.7475
  },
  {
    "wikiId": "Q49096589",
    "name": "Q49096589",
    "cat": "canyon",
    "lon": -101.656666666,
    "lat": 25.8425
  },
  {
    "wikiId": "Q49096592",
    "name": "Q49096592",
    "cat": "canyon",
    "lon": -101.410555555,
    "lat": 25.967222222
  },
  {
    "wikiId": "Q49096596",
    "name": "Q49096596",
    "cat": "canyon",
    "lon": -101.826388888,
    "lat": 25.308888888
  },
  {
    "wikiId": "Q49096599",
    "name": "Q49096599",
    "cat": "canyon",
    "lon": -103.808333333,
    "lat": 24.144722222
  },
  {
    "wikiId": "Q49096602",
    "name": "Q49096602",
    "cat": "canyon",
    "lon": -101.594166666,
    "lat": 25.746666666
  },
  {
    "wikiId": "Q49096607",
    "name": "Q49096607",
    "cat": "canyon",
    "lon": -101.451388888,
    "lat": 25.825
  },
  {
    "wikiId": "Q49096610",
    "name": "Q49096610",
    "cat": "canyon",
    "lon": -101.615,
    "lat": 25.798611111
  },
  {
    "wikiId": "Q49096613",
    "name": "Q49096613",
    "cat": "canyon",
    "lon": -100.118333333,
    "lat": 23.245833333
  },
  {
    "wikiId": "Q49096616",
    "name": "Q49096616",
    "cat": "canyon",
    "lon": -101.414166666,
    "lat": 25.958333333
  },
  {
    "wikiId": "Q49096619",
    "name": "Q49096619",
    "cat": "canyon",
    "lon": -101.072222222,
    "lat": 25.556111111
  },
  {
    "wikiId": "Q49096622",
    "name": "Q49096622",
    "cat": "canyon",
    "lon": -101.519166666,
    "lat": 25.846944444
  },
  {
    "wikiId": "Q49096625",
    "name": "Q49096625",
    "cat": "canyon",
    "lon": -101.542222222,
    "lat": 25.939444444
  },
  {
    "wikiId": "Q49096627",
    "name": "Q49096627",
    "cat": "canyon",
    "lon": -101.429166666,
    "lat": 25.898333333
  },
  {
    "wikiId": "Q49096629",
    "name": "Q49096629",
    "cat": "canyon",
    "lon": -100.118888888,
    "lat": 23.203611111
  },
  {
    "wikiId": "Q49096633",
    "name": "Q49096633",
    "cat": "canyon",
    "lon": -101.411388888,
    "lat": 25.785277777
  },
  {
    "wikiId": "Q49096636",
    "name": "Q49096636",
    "cat": "canyon",
    "lon": -101.76,
    "lat": 25.266944444
  },
  {
    "wikiId": "Q49096639",
    "name": "Q49096639",
    "cat": "canyon",
    "lon": -101.869722222,
    "lat": 25.132222222
  },
  {
    "wikiId": "Q49096642",
    "name": "Q49096642",
    "cat": "canyon",
    "lon": -101.460833333,
    "lat": 25.848611111
  },
  {
    "wikiId": "Q49096645",
    "name": "Q49096645",
    "cat": "canyon",
    "lon": -101.414722222,
    "lat": 25.796388888
  },
  {
    "wikiId": "Q49097314",
    "name": "Q49097314",
    "cat": "canyon",
    "lon": 130.780833333,
    "lat": 32.143333333
  },
  {
    "wikiId": "Q49594282",
    "name": "Q49594282",
    "cat": "canyon",
    "lon": -156.88887,
    "lat": 20.8081
  },
  {
    "wikiId": "Q49773939",
    "name": "Q49773939",
    "cat": "canyon",
    "lon": -107.10254,
    "lat": 36.9964
  },
  {
    "wikiId": "Q49774066",
    "name": "Alchesay Canyon",
    "cat": "canyon",
    "lon": -111.16346,
    "lat": 33.66949
  },
  {
    "wikiId": "Q49774170",
    "name": "Aliso Canyon",
    "cat": "canyon",
    "lon": -117.509722222,
    "lat": 33.569722222
  },
  {
    "wikiId": "Q49774428",
    "name": "Amon Canyon",
    "cat": "canyon",
    "lon": -119.244722222,
    "lat": 46.2
  },
  {
    "wikiId": "Q49774724",
    "name": "Apache Canyon",
    "cat": "canyon",
    "lon": -105.82446,
    "lat": 35.55031
  },
  {
    "wikiId": "Q49774780",
    "name": "Arch Canyon",
    "cat": "canyon",
    "lon": -112.849444444,
    "lat": 37.624722222
  },
  {
    "wikiId": "Q49774781",
    "name": "Arch Canyon",
    "cat": "canyon",
    "lon": -109.6675,
    "lat": 37.545833333
  },
  {
    "wikiId": "Q49774820",
    "name": "Argyle Canyon",
    "cat": "canyon",
    "lon": -103.628611111,
    "lat": 43.478888888
  },
  {
    "wikiId": "Q49774821",
    "name": "Argyle Canyon",
    "cat": "canyon",
    "lon": -110.355833333,
    "lat": 39.803333333
  },
  {
    "wikiId": "Q49774873",
    "name": "Armstrong Canyon",
    "cat": "canyon",
    "lon": -110.03041,
    "lat": 37.59944
  },
  {
    "wikiId": "Q49775277",
    "name": "B Canyon",
    "cat": "canyon",
    "lon": -110.476388888,
    "lat": 39.584722222
  },
  {
    "wikiId": "Q49776231",
    "name": "Bear Canyon",
    "cat": "canyon",
    "lon": -111.175833333,
    "lat": 39.782777777
  },
  {
    "wikiId": "Q49777028",
    "name": "Bells Canyon",
    "cat": "canyon",
    "lon": -111.806666666,
    "lat": 40.566666666
  },
  {
    "wikiId": "Q49777260",
    "name": "Big Basin Canyon",
    "cat": "canyon",
    "lon": -111.005,
    "lat": 43.2875
  },
  {
    "wikiId": "Q49777372",
    "name": "Big Canyon",
    "cat": "canyon",
    "lon": -112.001111111,
    "lat": 39.95
  },
  {
    "wikiId": "Q49777389",
    "name": "Big Cottonwood Canyon",
    "cat": "canyon",
    "lon": -116.256111111,
    "lat": 41.482222222
  },
  {
    "wikiId": "Q49777390",
    "name": "Big Cottonwood Canyon",
    "cat": "canyon",
    "lon": -116.7825,
    "lat": 38.396666666
  },
  {
    "wikiId": "Q49777391",
    "name": "Big Cottonwood Canyon",
    "cat": "canyon",
    "lon": -112.374444444,
    "lat": 38.806944444
  },
  {
    "wikiId": "Q49777722",
    "name": "Big Morongo Canyon",
    "cat": "canyon",
    "lon": -116.558611111,
    "lat": 34.001388888
  },
  {
    "wikiId": "Q49777819",
    "name": "Big Spring Canyon",
    "cat": "canyon",
    "lon": -111.991944444,
    "lat": 35.124166666
  },
  {
    "wikiId": "Q49777820",
    "name": "Big Spring Canyon",
    "cat": "canyon",
    "lon": -112.25906,
    "lat": 36.31804
  },
  {
    "wikiId": "Q49777821",
    "name": "Big Spring Canyon",
    "cat": "canyon",
    "lon": -109.706666666,
    "lat": 33.013611111
  },