[
  {
    "wikiId": "Q746452",
    "name": "Sydney Harbour National Park",
    "cat": "nationalPark",
    "lon": 151.291666666,
    "lat": -33.813055555
  },
  {
    "wikiId": "Q748637",
    "name": "Rila National Park",
    "cat": "nationalPark",
    "lon": 23.5833,
    "lat": 42.1833
  },
  {
    "wikiId": "Q750251",
    "name": "Chapada dos Veadeiros National Park",
    "cat": "nationalPark",
    "lon": -47.666666666,
    "lat": -14.083333333
  },
  {
    "wikiId": "Q750485",
    "name": "Astrebla Downs National Park",
    "cat": "nationalPark",
    "lon": 140.569166666,
    "lat": -24.211388888
  },
  {
    "wikiId": "Q751274",
    "name": "Lamington National Park",
    "cat": "nationalPark",
    "lon": 153.115,
    "lat": -28.1422
  },
  {
    "wikiId": "Q752218",
    "name": "Emas National Park",
    "cat": "nationalPark",
    "lon": -52.91667,
    "lat": -18.08333
  },
  {
    "wikiId": "Q756790",
    "name": "Kilimanjaro National Park",
    "cat": "nationalPark",
    "lon": 37.366666666,
    "lat": -3.066666666
  },
  {
    "wikiId": "Q760459",
    "name": "Augrabies Falls National Park",
    "cat": "nationalPark",
    "lon": 20.338333,
    "lat": -28.591111
  },
  {
    "wikiId": "Q761227",
    "name": "Garphyttan National Park",
    "cat": "nationalPark",
    "lon": 14.89284014,
    "lat": 59.280229102
  },
  {
    "wikiId": "Q761264",
    "name": "Fulufjället National Park",
    "cat": "nationalPark",
    "lon": 12.739430291,
    "lat": 61.545606648
  },
  {
    "wikiId": "Q762706",
    "name": "Bothnian Bay National Park",
    "cat": "nationalPark",
    "lon": 24.319444444,
    "lat": 65.622777777
  },
  {
    "wikiId": "Q763034",
    "name": "Nawegaon National Park",
    "cat": "nationalPark",
    "lon": 80.16666667,
    "lat": 20.93333333
  },
  {
    "wikiId": "Q763180",
    "name": "Vicente Pérez Rosales National Park",
    "cat": "nationalPark",
    "lon": -72.448888888,
    "lat": -41.172222222
  },
  {
    "wikiId": "Q767661",
    "name": "Karkaraly National Park",
    "cat": "nationalPark",
    "lon": 75.41666667,
    "lat": 49.41666667
  },
  {
    "wikiId": "Q770339",
    "name": "Ben En National Park",
    "cat": "nationalPark",
    "lon": 105.525,
    "lat": 19.61666667
  },
  {
    "wikiId": "Q770357",
    "name": "Q770357",
    "cat": "nationalPark",
    "lon": 125.164,
    "lat": 11.3605
  },
  {
    "wikiId": "Q770855",
    "name": "South Button Island National Park",
    "cat": "nationalPark",
    "lon": 93.02027778,
    "lat": 12.22388889
  },
  {
    "wikiId": "Q771373",
    "name": "Beelu National Park",
    "cat": "nationalPark",
    "lon": 116.15,
    "lat": -31.9544
  },
  {
    "wikiId": "Q773878",
    "name": "Poás Volcano National Park",
    "cat": "nationalPark",
    "lon": -84.231,
    "lat": 10.198
  },
  {
    "wikiId": "Q775202",
    "name": "Saddle Peak National Park",
    "cat": "nationalPark",
    "lon": 93.00555556,
    "lat": 13.15861111
  },
  {
    "wikiId": "Q777274",
    "name": "Q777274",
    "cat": "nationalPark",
    "lon": 121.33333333,
    "lat": 15.66666667
  },
  {
    "wikiId": "Q778921",
    "name": "Aspromonte National Park",
    "cat": "nationalPark",
    "lon": 15.99,
    "lat": 38.17
  },
  {
    "wikiId": "Q783267",
    "name": "Sidi Toui National Park",
    "cat": "nationalPark",
    "lon": 11.35,
    "lat": 32.8
  },
  {
    "wikiId": "Q784621",
    "name": "Souss-Massa National Park",
    "cat": "nationalPark",
    "lon": -9.66666667,
    "lat": 30.08333333
  },
  {
    "wikiId": "Q787298",
    "name": "Deux Balés National Park",
    "cat": "nationalPark",
    "lon": -2.97111111,
    "lat": 11.66527778
  },
  {
    "wikiId": "Q791260",
    "name": "Avon Valley National Park",
    "cat": "nationalPark",
    "lon": 116.183611111,
    "lat": -31.625
  },
  {
    "wikiId": "Q791635",
    "name": "Awash National Park",
    "cat": "nationalPark",
    "lon": 40,
    "lat": 9
  },
  {
    "wikiId": "Q799012",
    "name": "Badgingarra National Park",
    "cat": "nationalPark",
    "lon": 115.44,
    "lat": -30.4686
  },
  {
    "wikiId": "Q799956",
    "name": "Bago Bluff National Park",
    "cat": "nationalPark",
    "lon": 152.629,
    "lat": -31.5322
  },
  {
    "wikiId": "Q804673",
    "name": "Balbalasang-Balbalan National Park",
    "cat": "nationalPark",
    "lon": 121.1,
    "lat": 17.45
  },
  {
    "wikiId": "Q804731",
    "name": "Bald Rock National Park",
    "cat": "nationalPark",
    "lon": 152.0511111,
    "lat": -28.848333333
  },
  {
    "wikiId": "Q804881",
    "name": "Bale Mountains National Park",
    "cat": "nationalPark",
    "lon": 39.6667,
    "lat": 6.66667
  },
  {
    "wikiId": "Q805409",
    "name": "Wild Nephin National Park",
    "cat": "nationalPark",
    "lon": -9.7,
    "lat": 54.01666667
  },
  {
    "wikiId": "Q806023",
    "name": "Ban Ban National Park",
    "cat": "nationalPark",
    "lon": 151.963061111,
    "lat": -25.834169444
  },
  {
    "wikiId": "Q806310",
    "name": "Bandhavgarh National Park",
    "cat": "nationalPark",
    "lon": 80.96194444,
    "lat": 23.69944444
  },
  {
    "wikiId": "Q806454",
    "name": "Bangadilly National Park",
    "cat": "nationalPark",
    "lon": 150.17701149,
    "lat": -34.4642495
  },
  {
    "wikiId": "Q806458",
    "name": "Bangan Hill National Park",
    "cat": "nationalPark",
    "lon": 121.316667,
    "lat": 16.416667
  },
  {
    "wikiId": "Q807235",
    "name": "Barakee National Park",
    "cat": "nationalPark",
    "lon": 151.851666666,
    "lat": -31.641666666
  },
  {
    "wikiId": "Q808021",
    "name": "Bardiya National Park",
    "cat": "nationalPark",
    "lon": 81.47,
    "lat": 28.47
  },
  {
    "wikiId": "Q808426",
    "name": "Barnard Island Group National Park",
    "cat": "nationalPark",
    "lon": 146.172777777,
    "lat": -17.674722222
  },
  {
    "wikiId": "Q808720",
    "name": "Barool National Park",
    "cat": "nationalPark",
    "lon": 152.1925,
    "lat": -29.660277777
  },
  {
    "wikiId": "Q808827",
    "name": "Barranyi (North Island) National Park",
    "cat": "nationalPark",
    "lon": 136.869,
    "lat": -15.5694
  },
  {
    "wikiId": "Q808934",
    "name": "Barrington Tops National Park",
    "cat": "nationalPark",
    "lon": 151.5011111,
    "lat": -32.048333333
  },
  {
    "wikiId": "Q808968",
    "name": "Barron Gorge National Park",
    "cat": "nationalPark",
    "lon": 145.652,
    "lat": -16.8428
  },
  {
    "wikiId": "Q810277",
    "name": "Basket Swamp National Park",
    "cat": "nationalPark",
    "lon": 152.153055555,
    "lat": -28.933055555
  },
  {
    "wikiId": "Q810692",
    "name": "Bataan National Park",
    "cat": "nationalPark",
    "lon": 120.41666667,
    "lat": 14.68333333
  },
  {
    "wikiId": "Q812025",
    "name": "Baw Baw National Park",
    "cat": "nationalPark",
    "lon": 146.223,
    "lat": -37.7639
  },
  {
    "wikiId": "Q814030",
    "name": "Greater Beedelup National Park",
    "cat": "nationalPark",
    "lon": 115.878,
    "lat": -34.4183
  },
  {
    "wikiId": "Q815431",
    "name": "Belford National Park",
    "cat": "nationalPark",
    "lon": 151.29624367,
    "lat": -32.64956528
  },
  {
    "wikiId": "Q815977",
    "name": "Bellinger River National Park",
    "cat": "nationalPark",
    "lon": 152.7011111,
    "lat": -30.415
  },
  {
    "wikiId": "Q816402",
    "name": "Ben Lomond National Park",
    "cat": "nationalPark",
    "lon": 147.666667,
    "lat": -41.55
  },
  {
    "wikiId": "Q816671",
    "name": "Benambra National Park",
    "cat": "nationalPark",
    "lon": 147.09560394,
    "lat": -35.78606988
  },
  {
    "wikiId": "Q816681",
    "name": "Benarkin National Park",
    "cat": "nationalPark",
    "lon": 152.170561111,
    "lat": -26.760561111
  },
  {
    "wikiId": "Q816780",
    "name": "Bendidee National Park",
    "cat": "nationalPark",
    "lon": 150.517777777,
    "lat": -28.300277777
  },
  {
    "wikiId": "Q819281",
    "name": "Mount Arbel",
    "cat": "nationalPark",
    "lon": 35.498611111,
    "lat": 32.824166666
  },
  {
    "wikiId": "Q824602",
    "name": "Puerto Princesa Subterranean River National Park",
    "cat": "nationalPark",
    "lon": 118.916666666,
    "lat": 10.166666666
  },
  {
    "wikiId": "Q827519",
    "name": "Hartz Mountains National Park",
    "cat": "nationalPark",
    "lon": 146.756,
    "lat": -43.2297
  },
  {
    "wikiId": "Q827526",
    "name": "Mole Creek Karst National Park",
    "cat": "nationalPark",
    "lon": 146.289,
    "lat": -41.6006
  },
  {
    "wikiId": "Q827817",
    "name": "Nahuel Huapi National Park",
    "cat": "nationalPark",
    "lon": -71.5,
    "lat": -41
  },
  {
    "wikiId": "Q827962",
    "name": "Perito Moreno National Park",
    "cat": "nationalPark",
    "lon": -72.25055556,
    "lat": -47.81138889
  },
  {
    "wikiId": "Q828155",
    "name": "Krka National Park",
    "cat": "nationalPark",
    "lon": 15.972777777,
    "lat": 43.801944444
  },
  {
    "wikiId": "Q828206",
    "name": "Lanín National Park",
    "cat": "nationalPark",
    "lon": -71.3575,
    "lat": -40.1603
  },
  {
    "wikiId": "Q828291",
    "name": "Los Alerces National Park",
    "cat": "nationalPark",
    "lon": -71.89888889,
    "lat": -42.8075
  },
  {
    "wikiId": "Q828353",
    "name": "Lago Puelo National Park",
    "cat": "nationalPark",
    "lon": -71.683333333,
    "lat": -42.183333333
  },
  {
    "wikiId": "Q828531",
    "name": "Laguna Blanca National Park",
    "cat": "nationalPark",
    "lon": -70.358333333,
    "lat": -39.041388888
  },
  {
    "wikiId": "Q828601",
    "name": "El Rey National Park",
    "cat": "nationalPark",
    "lon": -64.63333333,
    "lat": -24.7
  },
  {
    "wikiId": "Q828642",
    "name": "Río Pilcomayo National Park",
    "cat": "nationalPark",
    "lon": -58.1367,
    "lat": -25.0644
  },
  {
    "wikiId": "Q828709",
    "name": "Tierra del Fuego National Park",
    "cat": "nationalPark",
    "lon": -68.5,
    "lat": -54.666944444
  },
  {
    "wikiId": "Q828918",
    "name": "El Palmar National Park",
    "cat": "nationalPark",
    "lon": -58.3225,
    "lat": -31.85305556
  },
  {
    "wikiId": "Q829012",
    "name": "Los Arrayanes National Park",
    "cat": "nationalPark",
    "lon": -71.61944,
    "lat": -40.86139
  },
  {
    "wikiId": "Q829128",
    "name": "Baritú National Park",
    "cat": "nationalPark",
    "lon": -64.616667,
    "lat": -22.583333
  },
  {
    "wikiId": "Q829228",
    "name": "Lihué Calel National Park",
    "cat": "nationalPark",
    "lon": -65.65,
    "lat": -37.95
  },
  {
    "wikiId": "Q829260",
    "name": "Calilegua National Park",
    "cat": "nationalPark",
    "lon": -64.838,
    "lat": -23.639
  },
  {
    "wikiId": "Q829305",
    "name": "Sierra de las Quijadas National Park",
    "cat": "nationalPark",
    "lon": -67.06416667,
    "lat": -32.55083333
  },
  {
    "wikiId": "Q829341",
    "name": "Predelta National Park",
    "cat": "nationalPark",
    "lon": -60.63333333,
    "lat": -32.15
  },
  {
    "wikiId": "Q829415",
    "name": "Aconquija National Park",
    "cat": "nationalPark",
    "lon": -65.96666667,
    "lat": -27.21666667
  },
  {
    "wikiId": "Q829474",
    "name": "Los Cardones National Park",
    "cat": "nationalPark",
    "lon": -66.18166667,
    "lat": -25.12533333
  },
  {
    "wikiId": "Q829609",
    "name": "Quebrada del Condorito National Park",
    "cat": "nationalPark",
    "lon": -64.66666667,
    "lat": -31.66666667
  },
  {
    "wikiId": "Q829648",
    "name": "Copo National Park",
    "cat": "nationalPark",
    "lon": -61.88333333,
    "lat": -25.96666667
  },
  {
    "wikiId": "Q829745",
    "name": "San Güemes National Park",
    "cat": "nationalPark",
    "lon": -69.2,
    "lat": -29.1
  },
  {
    "wikiId": "Q829771",
    "name": "Mburucuyá National Park",
    "cat": "nationalPark",
    "lon": -58.133333333,
    "lat": -26.083333333
  },
  {
    "wikiId": "Q829805",
    "name": "El Leoncito National Park",
    "cat": "nationalPark",
    "lon": -69.36666667,
    "lat": -31.8
  },
  {
    "wikiId": "Q829872",
    "name": "Monte León National Park",
    "cat": "nationalPark",
    "lon": -69,
    "lat": -50.23333333
  },
  {
    "wikiId": "Q829966",
    "name": "Campos del Tuyú National Park",
    "cat": "nationalPark",
    "lon": -56.866666666,
    "lat": -36.35
  },
  {
    "wikiId": "Q830022",
    "name": "Islas de Santa Fé National Park",
    "cat": "nationalPark",
    "lon": -60.817,
    "lat": -32.433
  },
  {
    "wikiId": "Q830083",
    "name": "Bosques Petrificados de Jaramillo National Park",
    "cat": "nationalPark",
    "lon": -68.1667,
    "lat": -47.6667
  },
  {
    "wikiId": "Q830099",
    "name": "South Bruny National Park",
    "cat": "nationalPark",
    "lon": 147.371111,
    "lat": -43.35
  },
  {
    "wikiId": "Q833116",
    "name": "Undara Volcanic National Park",
    "cat": "nationalPark",
    "lon": 144.596,
    "lat": -18.2011
  },
  {
    "wikiId": "Q839603",
    "name": "Sangay National Park",
    "cat": "nationalPark",
    "lon": -78.333333333,
    "lat": -1.833333333
  },
  {
    "wikiId": "Q847071",
    "name": "Warrumbungle National Park",
    "cat": "nationalPark",
    "lon": 149.008055555,
    "lat": -31.292222222
  },
  {
    "wikiId": "Q863775",
    "name": "Bingera National Park",
    "cat": "nationalPark",
    "lon": 152.3157947,
    "lat": -25.0277748
  },
  {
    "wikiId": "Q864799",
    "name": "Šumava National Park",
    "cat": "nationalPark",
    "lon": 13.482478888,
    "lat": 49.060643055
  },
  {
    "wikiId": "Q865438",
    "name": "Biriwal Bulga National Park",
    "cat": "nationalPark",
    "lon": 152.306388888,
    "lat": -31.507222222
  },
  {
    "wikiId": "Q867361",
    "name": "Cilento, Vallo di Diano and Alburni National Park",
    "cat": "nationalPark",
    "lon": 15.2,
    "lat": 40.2
  },
  {
    "wikiId": "Q869074",
    "name": "Corcovado National Park",
    "cat": "nationalPark",
    "lon": -83.583333333,
    "lat": 8.55
  },
  {
    "wikiId": "Q877719",
    "name": "Fiordland National Park",
    "cat": "nationalPark",
    "lon": 167.717,
    "lat": -45.4167
  },
  {
    "wikiId": "Q879629",
    "name": "Ilha Grande National Park",
    "cat": "nationalPark",
    "lon": -53.81666667,
    "lat": -23.4
  },
  {
    "wikiId": "Q880717",
    "name": "Blackbraes National Park",
    "cat": "nationalPark",
    "lon": 144.181388888,
    "lat": -19.478888888
  },
  {
    "wikiId": "Q880724",
    "name": "Blackbuck National Park, Velavadar",
    "cat": "nationalPark",
    "lon": 72,
    "lat": 22.03333333
  },
  {
    "wikiId": "Q880783",
    "name": "Blackdown Tableland National Park",
    "cat": "nationalPark",
    "lon": 149.06,
    "lat": -23.7236
  },
  {
    "wikiId": "Q885558",
    "name": "Blue Mountains National Park",
    "cat": "nationalPark",
    "lon": 150.304166666,
    "lat": -33.967777777
  },
  {
    "wikiId": "Q887049",
    "name": "Blåfjella–Skjækerfjella National Park",
    "cat": "nationalPark",
    "lon": 13.10929,
    "lat": 64.2168
  },
  {
    "wikiId": "Q891743",
    "name": "Boma National Park",
    "cat": "nationalPark",
    "lon": 33.78,
    "lat": 6.15
  },
  {
    "wikiId": "Q892405",
    "name": "Bongil Bongil National Park",
    "cat": "nationalPark",
    "lon": 153.034722222,
    "lat": -30.398611111
  },
  {
    "wikiId": "Q892884",
    "name": "Bontebok National Park",
    "cat": "nationalPark",
    "lon": 20.45,
    "lat": -34.0667
  },
  {
    "wikiId": "Q893073",
    "name": "Boonoo Boonoo National Park",
    "cat": "nationalPark",
    "lon": 152.178333333,
    "lat": -28.8175
  },
  {
    "wikiId": "Q893086",
    "name": "Boorabbin National Park",
    "cat": "nationalPark",
    "lon": 120.169,
    "lat": -31.2383
  },
  {
    "wikiId": "Q893407",
    "name": "Border Ranges National Park",
    "cat": "nationalPark",
    "lon": 152.986111111,
    "lat": -28.359722222
  },
  {
    "wikiId": "Q894672",
    "name": "Kamay Botany Bay National Park",
    "cat": "nationalPark",
    "lon": 151.224722222,
    "lat": -34.020555555
  },
  {
    "wikiId": "Q894937",
    "name": "Bou-Hedma National Park",
    "cat": "nationalPark",
    "lon": 9.5,
    "lat": 34.416667
  },
  {
    "wikiId": "Q894983",
    "name": "Boucle du Baoulé National Park",
    "cat": "nationalPark",
    "lon": -8.8833,
    "lat": 14.0833
  },
  {
    "wikiId": "Q894991",
    "name": "Bouddi National Park",
    "cat": "nationalPark",
    "lon": 151.4177778,
    "lat": -33.498333333
  },
  {
    "wikiId": "Q895450",
    "name": "Bowling Green Bay National Park",
    "cat": "nationalPark",
    "lon": 147.033888888,
    "lat": -19.213333333
  },
  {
    "wikiId": "Q897598",
    "name": "Brampton Islands National Park",
    "cat": "nationalPark",
    "lon": 149.284419444,
    "lat": -20.793161111
  },
  {
    "wikiId": "Q897623",
    "name": "Fertő-Hanság National Park",
    "cat": "nationalPark",
    "lon": 16.75,
    "lat": 47.75
  },
  {
    "wikiId": "Q901646",
    "name": "Torres del Paine National Park",
    "cat": "nationalPark",
    "lon": -72.96638889,
    "lat": -50.98305556
  },
  {
    "wikiId": "Q905433",
    "name": "Breheimen National Park",
    "cat": "nationalPark",
    "lon": 7.833333333,
    "lat": 61.8
  },
  {
    "wikiId": "Q906973",
    "name": "Murramarang National Park",
    "cat": "nationalPark",
    "lon": 150.3177778,
    "lat": -35.631666666
  },
  {
    "wikiId": "Q909755",
    "name": "Desembarco del Granma National Park",
    "cat": "nationalPark",
    "lon": -77.633333,
    "lat": 19.883333
  },
  {
    "wikiId": "Q913099",
    "name": "Herodium",
    "cat": "nationalPark",
    "lon": 35.24139,
    "lat": 31.66583
  },
  {
    "wikiId": "Q917644",
    "name": "Brisbane Ranges National Park",
    "cat": "nationalPark",
    "lon": 144.279,
    "lat": -37.7953
  },
  {
    "wikiId": "Q917653",
    "name": "Brisbane Water National Park",
    "cat": "nationalPark",
    "lon": 151.3011111,
    "lat": -33.459444444
  },
  {
    "wikiId": "Q917801",
    "name": "Geikie Gorge National Park",
    "cat": "nationalPark",
    "lon": 125.714,
    "lat": -18.0772
  },
  {
    "wikiId": "Q918062",
    "name": "Drysdale River National Park",
    "cat": "nationalPark",
    "lon": 126.776,
    "lat": -15.1614
  },
  {
    "wikiId": "Q918064",
    "name": "William Bay National Park",
    "cat": "nationalPark",
    "lon": 117.235,
    "lat": -35.02638889
  },
  {
    "wikiId": "Q918256",
    "name": "Witjira National Park",
    "cat": "nationalPark",
    "lon": 135.63,
    "lat": -26.3717
  },
  {
    "wikiId": "Q918615",
    "name": "Diamantina National Park",
    "cat": "nationalPark",
    "lon": 141.136111111,
    "lat": -23.357222222
  },
  {
    "wikiId": "Q920056",
    "name": "Lincoln National Park",
    "cat": "nationalPark",
    "lon": 135.87,
    "lat": -34.8678
  },
  {
    "wikiId": "Q921082",
    "name": "National Marine Park of Zakynthos",
    "cat": "nationalPark",
    "lon": 20.9,
    "lat": 37.7833
  },
  {
    "wikiId": "Q921508",
    "name": "Finke Gorge National Park",
    "cat": "nationalPark",
    "lon": 132.818,
    "lat": -24.1447
  },
  {
    "wikiId": "Q921864",
    "name": "Broad Sound Islands National Park",
    "cat": "nationalPark",
    "lon": 149.787222222,
    "lat": -21.813611111
  },
  {
    "wikiId": "Q922736",
    "name": "Niumi National Park",
    "cat": "nationalPark",
    "lon": -16.5,
    "lat": 13.56666667
  },
  {
    "wikiId": "Q922823",
    "name": "Broadwater National Park",
    "cat": "nationalPark",
    "lon": 153.41,
    "lat": -29.053888888
  },
  {
    "wikiId": "Q923213",
    "name": "Quezon Protected Landscape",
    "cat": "nationalPark",
    "lon": 121.75,
    "lat": 14.03333333
  },
  {
    "wikiId": "Q924190",
    "name": "Mount Hypipamee National Park",
    "cat": "nationalPark",
    "lon": 145.486111111,
    "lat": -17.425
  },
  {
    "wikiId": "Q924315",
    "name": "Culgoa National Park",
    "cat": "nationalPark",
    "lon": 147.035277777,
    "lat": -29.080555555
  },
  {
    "wikiId": "Q925214",
    "name": "Tasman National Park",
    "cat": "nationalPark",
    "lon": 147.976,
    "lat": -42.8553
  },
  {
    "wikiId": "Q927690",
    "name": "Leivonmäki National Park",
    "cat": "nationalPark",
    "lon": 26.03333333,
    "lat": 61.93333333
  },
  {
    "wikiId": "Q927997",
    "name": "Kati Thanda-Lake Eyre National Park",
    "cat": "nationalPark",
    "lon": 137.524,
    "lat": -28.6689
  },
  {
    "wikiId": "Q928618",
    "name": "Brook Islands National Park",
    "cat": "nationalPark",
    "lon": 146.282222222,
    "lat": -18.141388888
  },
  {
    "wikiId": "Q930677",
    "name": "Freycinet National Park",
    "cat": "nationalPark",
    "lon": 148.283333,
    "lat": -42.05
  },
  {
    "wikiId": "Q932232",
    "name": "Altai Tavan Bogd National Park",
    "cat": "nationalPark",
    "lon": 88.616666666,
    "lat": 48.55
  },
  {
    "wikiId": "Q932535",
    "name": "Watagans National Park",
    "cat": "nationalPark",
    "lon": 151.393055555,
    "lat": -33.005
  },
  {
    "wikiId": "Q932736",
    "name": "Volcanoes National Park",
    "cat": "nationalPark",
    "lon": 29.4925,
    "lat": -1.4675
  },
  {
    "wikiId": "Q932964",
    "name": "Yanchep National Park",
    "cat": "nationalPark",
    "lon": 115.690833333,
    "lat": -31.560555555
  },
  {
    "wikiId": "Q934019",
    "name": "Nelson Lakes National Park",
    "cat": "nationalPark",
    "lon": 172.608,
    "lat": -42.042
  },
  {
    "wikiId": "Q934161",
    "name": "Cania Gorge National Park",
    "cat": "nationalPark",
    "lon": 150.989444444,
    "lat": -24.66
  },
  {
    "wikiId": "Q935435",
    "name": "Lauca National Park",
    "cat": "nationalPark",
    "lon": -69.353889,
    "lat": -18.244444
  },
  {
    "wikiId": "Q936482",
    "name": "Murray - Sunset National Park",
    "cat": "nationalPark",
    "lon": 141.484,
    "lat": -34.7764
  },
  {
    "wikiId": "Q937596",
    "name": "Andre Felix National Park",
    "cat": "nationalPark",
    "lon": 23.343888888,
    "lat": 9.440833333
  },
  {
    "wikiId": "Q938172",
    "name": "Lemmenjoki National Park",
    "cat": "nationalPark",
    "lon": 25.60027778,
    "lat": 68.57777778
  },
  {
    "wikiId": "Q938754",
    "name": "Ferntree Creek National Park",
    "cat": "nationalPark",
    "lon": 152.963888888,
    "lat": -26.605277777
  },
  {
    "wikiId": "Q940680",
    "name": "Maria Island National Park",
    "cat": "nationalPark",
    "lon": 148.1,
    "lat": -42.644444
  },
  {
    "wikiId": "Q941989",
    "name": "Saiful Muluk National Park",
    "cat": "nationalPark",
    "lon": 73.68333333,
    "lat": 34.86666667
  },
  {
    "wikiId": "Q944542",
    "name": "Monga National Park",
    "cat": "nationalPark",
    "lon": 149.971,
    "lat": -35.6631
  },
  {
    "wikiId": "Q944803",
    "name": "Garigal National Park",
    "cat": "nationalPark",
    "lon": 151.236,
    "lat": -33.7058
  },
  {
    "wikiId": "Q945780",
    "name": "Sarek National Park",
    "cat": "nationalPark",
    "lon": 17.669138525,
    "lat": 67.288339383
  },
  {
    "wikiId": "Q946244",
    "name": "São Joaquim National Park",
    "cat": "nationalPark",
    "lon": -49.5193,
    "lat": -28.1798
  },
  {
    "wikiId": "Q948585",
    "name": "Heathcote National Park",
    "cat": "nationalPark",
    "lon": 150.9761111,
    "lat": -34.098333333
  },
  {
    "wikiId": "Q949297",
    "name": "Jim Corbett National Park",
    "cat": "nationalPark",
    "lon": 78.93333333,
    "lat": 29.53333333
  },
  {
    "wikiId": "Q951837",
    "name": "Tathra National Park",
    "cat": "nationalPark",
    "lon": 115.529,
    "lat": -29.7769
  },
  {
    "wikiId": "Q952197",
    "name": "Kaa-Iya del Gran Chaco National Park and Integrated Management Natural Area",
    "cat": "nationalPark",
    "lon": -61.25,
    "lat": -19.06666667
  },
  {
    "wikiId": "Q953092",
    "name": "Abisko National Park",
    "cat": "nationalPark",
    "lon": 18.680730666,
    "lat": 68.324299485
  },
  {
    "wikiId": "Q953920",
    "name": "Weddin Mountains National Park",
    "cat": "nationalPark",
    "lon": 148.0011111,
    "lat": -33.998333333
  },
  {
    "wikiId": "Q955861",
    "name": "Rondane National Park",
    "cat": "nationalPark",
    "lon": 9.833333333,
    "lat": 61.833333333
  },
  {
    "wikiId": "Q956929",
    "name": "Budderoo National Park",
    "cat": "nationalPark",
    "lon": 150.7011111,
    "lat": -34.648333333
  },
  {
    "wikiId": "Q957573",
    "name": "Serpentine National Park",
    "cat": "nationalPark",
    "lon": 116.043333333,
    "lat": -32.357222222
  },
  {
    "wikiId": "Q958003",
    "name": "Veľká Fatra National Park",
    "cat": "nationalPark",
    "lon": 19.11666667,
    "lat": 49.01666667
  },
  {
    "wikiId": "Q958322",
    "name": "Stokes National Park",
    "cat": "nationalPark",
    "lon": 121.135,
    "lat": -33.8228
  },
  {
    "wikiId": "Q958356",
    "name": "Lesueur National Park",
    "cat": "nationalPark",
    "lon": 115.101,
    "lat": -30.1344
  },
  {
    "wikiId": "Q958913",
    "name": "Goold Island National Park",
    "cat": "nationalPark",
    "lon": 146.17111111,
    "lat": -18.16694444
  },
  {
    "wikiId": "Q962373",
    "name": "Dalby Söderskog National Park",
    "cat": "nationalPark",
    "lon": 13.330555555,
    "lat": 55.675
  },
  {
    "wikiId": "Q964013",
    "name": "Makalu Barun National Park",
    "cat": "nationalPark",
    "lon": 87.11362679,
    "lat": 27.75693134
  },
  {
    "wikiId": "Q964116",
    "name": "Masoala National Park",
    "cat": "nationalPark",
    "lon": 50.18333333,
    "lat": -15.65
  },
  {
    "wikiId": "Q965639",
    "name": "Terrick Terrick National Park",
    "cat": "nationalPark",
    "lon": 144.2282,
    "lat": -36.1429
  },
  {
    "wikiId": "Q965672",
    "name": "Sainte Anne Marine National Park",
    "cat": "nationalPark",
    "lon": 55.500277777,
    "lat": -4.621111111
  },
  {
    "wikiId": "Q578202",
    "name": "Monte Roraima National Park",
    "cat": "nationalPark",
    "lon": -60.7369,
    "lat": 5.20194
  },
  {
    "wikiId": "Q579632",
    "name": "Sobaeksan National Park",
    "cat": "nationalPark",
    "lon": 128.507,
    "lat": 36.965
  },
  {
    "wikiId": "Q580404",
    "name": "Muddus National Park",
    "cat": "nationalPark",
    "lon": 20.197333508,
    "lat": 66.916315609
  },
  {
    "wikiId": "Q581646",
    "name": "Bladensburg National Park",
    "cat": "nationalPark",
    "lon": 143.057222222,
    "lat": -22.6525
  },
  {
    "wikiId": "Q581883",
    "name": "Mummel Gulf National Park",
    "cat": "nationalPark",
    "lon": 151.844444444,
    "lat": -31.3125
  },
  {
    "wikiId": "Q582205",
    "name": "Northumberland National Park",
    "cat": "nationalPark",
    "lon": -2.216666666,
    "lat": 55.316666666
  },
  {
    "wikiId": "Q585251",
    "name": "Parque nacional del Este",
    "cat": "nationalPark",
    "lon": -68.683,
    "lat": 18.2283
  },
  {
    "wikiId": "Q586786",
    "name": "Cape Range National Park",
    "cat": "nationalPark",
    "lon": 113.921,
    "lat": -22.1233
  },
  {
    "wikiId": "Q586985",
    "name": "Tram Chim National Park",
    "cat": "nationalPark",
    "lon": 105.517,
    "lat": 10.725
  },
  {
    "wikiId": "Q591025",
    "name": "Patvinsuo National Park",
    "cat": "nationalPark",
    "lon": 30.70444444,
    "lat": 63.11138889
  },
  {
    "wikiId": "Q591775",
    "name": "Yangudi Rassa National Park",
    "cat": "nationalPark",
    "lon": 40.8333,
    "lat": 11
  },
  {
    "wikiId": "Q591878",
    "name": "National Park Sjeverni Velebit",
    "cat": "nationalPark",
    "lon": 15.00694444,
    "lat": 44.69305556
  },
  {
    "wikiId": "Q592741",
    "name": "Torotoro National Park",
    "cat": "nationalPark",
    "lon": -65.7667,
    "lat": -18.1
  },
  {
    "wikiId": "Q592870",
    "name": "Wild Cattle Island National Park",
    "cat": "nationalPark",
    "lon": 151.384444444,
    "lat": -23.958333333
  },
  {
    "wikiId": "Q593274",
    "name": "Göygöl National Park",
    "cat": "nationalPark",
    "lon": 46.3225,
    "lat": 40.40583333
  },
  {
    "wikiId": "Q595121",
    "name": "Gonarezhou National Park",
    "cat": "nationalPark",
    "lon": 31.66666667,
    "lat": -21.66666667
  },
  {
    "wikiId": "Q600250",
    "name": "Garig Gunak Barlu National Park",
    "cat": "nationalPark",
    "lon": 132.23972222,
    "lat": -11.36555556
  },
  {
    "wikiId": "Q602120",
    "name": "Tortuguero National Park",
    "cat": "nationalPark",
    "lon": -83.4967,
    "lat": 10.4232
  },
  {
    "wikiId": "Q602768",
    "name": "Mangetti National Park",
    "cat": "nationalPark",
    "lon": 19.127,
    "lat": -18.707
  },
  {
    "wikiId": "Q603425",
    "name": "Well of Harod",
    "cat": "nationalPark",
    "lon": 35.355833333,
    "lat": 32.548611111
  },
  {
    "wikiId": "Q605897",
    "name": "Valley of Flowers National Park",
    "cat": "nationalPark",
    "lon": 79.6175,
    "lat": 30.73
  },
  {
    "wikiId": "Q606749",
    "name": "Villarrica National Park",
    "cat": "nationalPark",
    "lon": -71.7168,
    "lat": -39.4931
  },
  {
    "wikiId": "Q607533",
    "name": "Lake Manyara National Park",
    "cat": "nationalPark",
    "lon": 35.833333333,
    "lat": -3.5
  },
  {
    "wikiId": "Q607612",
    "name": "Poloniny National Park",
    "cat": "nationalPark",
    "lon": 22.53361111,
    "lat": 49.07138889
  },
  {
    "wikiId": "Q608315",
    "name": "Yarriabini National Park",
    "cat": "nationalPark",
    "lon": 152.930688888,
    "lat": -30.8052
  },
  {
    "wikiId": "Q611989",
    "name": "Chaco National Park",
    "cat": "nationalPark",
    "lon": -59.66667,
    "lat": -26.83333
  },
  {
    "wikiId": "Q613251",
    "name": "Band-e Amir",
    "cat": "nationalPark",
    "lon": 67.230833333,
    "lat": 34.839722222
  },
  {
    "wikiId": "Q614773",
    "name": "Walyunga National Park",
    "cat": "nationalPark",
    "lon": 116.09,
    "lat": -31.7061
  },
  {
    "wikiId": "Q617635",
    "name": "Aparados da Serra National Park",
    "cat": "nationalPark",
    "lon": -50.09766,
    "lat": -29.19173
  },
  {
    "wikiId": "Q624443",
    "name": "Arabuko Sokoke National Park",
    "cat": "nationalPark",
    "lon": 39.81666667,
    "lat": -3.26666667
  },
  {
    "wikiId": "Q625172",
    "name": "Serra do Itajaí National Park",
    "cat": "nationalPark",
    "lon": -49.35,
    "lat": -27.2
  },
  {
    "wikiId": "Q625511",
    "name": "Arakwal National Park",
    "cat": "nationalPark",
    "lon": 153.621,
    "lat": -28.6603
  },
  {
    "wikiId": "Q629153",
    "name": "West Hill National Park",
    "cat": "nationalPark",
    "lon": 149.486111111,
    "lat": -21.830277777
  },
  {
    "wikiId": "Q629436",
    "name": "Morne Trois Pitons National Park",
    "cat": "nationalPark",
    "lon": -61.283333,
    "lat": 15.266667
  },
  {
    "wikiId": "Q631183",
    "name": "Risnjak National Park",
    "cat": "nationalPark",
    "lon": 14.745,
    "lat": 45.42833333
  },
  {
    "wikiId": "Q631981",
    "name": "Ubajara National Park",
    "cat": "nationalPark",
    "lon": -40.89797967,
    "lat": -3.766282
  },
  {
    "wikiId": "Q634183",
    "name": "Puyehue National Park",
    "cat": "nationalPark",
    "lon": -72.08444444,
    "lat": -40.64888889
  },
  {
    "wikiId": "Q635414",
    "name": "Vesuvius National Park",
    "cat": "nationalPark",
    "lon": 14.427,
    "lat": 40.817
  },
  {
    "wikiId": "Q637968",
    "name": "Mount Richmond National Park",
    "cat": "nationalPark",
    "lon": 141.425,
    "lat": -38.2703
  },
  {
    "wikiId": "Q640485",
    "name": "Djurö National Park",
    "cat": "nationalPark",
    "lon": 13.465248392,
    "lat": 58.846795728
  },
  {
    "wikiId": "Q643478",
    "name": "Guy Fawkes River National Park",
    "cat": "nationalPark",
    "lon": 152.3011111,
    "lat": -30.031666666
  },
  {
    "wikiId": "Q643818",
    "name": "Belair National Park",
    "cat": "nationalPark",
    "lon": 138.655833333,
    "lat": -35.013055555
  },
  {
    "wikiId": "Q647206",
    "name": "Madidi National Park",
    "cat": "nationalPark",
    "lon": -68.333333333,
    "lat": -14.333333333
  },
  {
    "wikiId": "Q647777",
    "name": "Lençóis Maranhenses National Park",
    "cat": "nationalPark",
    "lon": -43.116666666,
    "lat": -2.533333333
  },
  {
    "wikiId": "Q648548",
    "name": "Guindy National Park",
    "cat": "nationalPark",
    "lon": 80.23079,
    "lat": 13.00259
  },
  {
    "wikiId": "Q648907",
    "name": "Sanjay Gandhi National Park",
    "cat": "nationalPark",
    "lon": 72.9167,
    "lat": 19.25
  },
  {
    "wikiId": "Q649680",
    "name": "Bach Ma National Park",
    "cat": "nationalPark",
    "lon": 107.86666667,
    "lat": 16.2
  },
  {
    "wikiId": "Q650710",
    "name": "Noel Kempff Mercado National Park",
    "cat": "nationalPark",
    "lon": -60.84667,
    "lat": -14.23028
  },
  {
    "wikiId": "Q650992",
    "name": "El Kala National Park",
    "cat": "nationalPark",
    "lon": 8.41666667,
    "lat": 36.81666667
  },
  {
    "wikiId": "Q651314",
    "name": "Pirin National Park",
    "cat": "nationalPark",
    "lon": 23.5,
    "lat": 41.666667
  },
  {
    "wikiId": "Q654866",
    "name": "Saint Peter Church, Capernaum",
    "cat": "nationalPark",
    "lon": 35.57537,
    "lat": 32.88056
  },
  {
    "wikiId": "Q655191",
    "name": "Rocky Cape National Park",
    "cat": "nationalPark",
    "lon": 145.535833,
    "lat": -40.899722
  },
  {
    "wikiId": "Q655377",
    "name": "Camdeboo National Park",
    "cat": "nationalPark",
    "lon": 24.5,
    "lat": -32.25
  },
  {
    "wikiId": "Q656363",
    "name": "Ruaha National Park",
    "cat": "nationalPark",
    "lon": 34.63694444,
    "lat": -7.53111111
  },
  {
    "wikiId": "Q662606",
    "name": "Birougou National Park",
    "cat": "nationalPark",
    "lon": 12.26666667,
    "lat": -1.76666667
  },
  {
    "wikiId": "Q663484",
    "name": "Rodna National Park",
    "cat": "nationalPark",
    "lon": 24.735,
    "lat": 47.54
  },
  {
    "wikiId": "Q665110",
    "name": "Bandipur National Park",
    "cat": "nationalPark",
    "lon": 76.627222,
    "lat": 11.664444
  },
  {
    "wikiId": "Q666044",
    "name": "Pieljekaise National Park",
    "cat": "nationalPark",
    "lon": 16.768257591,
    "lat": 66.354300785
  },
  {
    "wikiId": "Q667469",
    "name": "Shannon National Park",
    "cat": "nationalPark",
    "lon": 116.365,
    "lat": -34.6031
  },
  {
    "wikiId": "Q674231",
    "name": "Auburn River National Park",
    "cat": "nationalPark",
    "lon": 151.051944444,
    "lat": -25.721666666
  },
  {
    "wikiId": "Q675633",
    "name": "Etosha National Park",
    "cat": "nationalPark",
    "lon": 16.263889,
    "lat": -18.785278
  },
  {
    "wikiId": "Q678046",
    "name": "Montecristo Trifinio National Park",
    "cat": "nationalPark",
    "lon": -89.334795,
    "lat": 14.435638
  },
  {
    "wikiId": "Q679568",
    "name": "Purnululu National Park",
    "cat": "nationalPark",
    "lon": 128.546055,
    "lat": -17.448789
  },
  {
    "wikiId": "Q680312",
    "name": "Conguillío National Park",
    "cat": "nationalPark",
    "lon": -71.65,
    "lat": -38.66666667
  },
  {
    "wikiId": "Q680313",
    "name": "Alta Murgia National Park",
    "cat": "nationalPark",
    "lon": 16.37,
    "lat": 40.99
  },
  {
    "wikiId": "Q682401",
    "name": "Eudlo Creek National Park",
    "cat": "nationalPark",
    "lon": 152.961944444,
    "lat": -26.706944444
  },
  {
    "wikiId": "Q684121",
    "name": "Ytre Hvaler National Park",
    "cat": "nationalPark",
    "lon": 10.8,
    "lat": 59.01666667
  },
  {
    "wikiId": "Q686088",
    "name": "Llogara National Park",
    "cat": "nationalPark",
    "lon": 19.57027778,
    "lat": 40.21638889
  },
  {
    "wikiId": "Q691597",
    "name": "Sonfjället National Park",
    "cat": "nationalPark",
    "lon": 13.551749514,
    "lat": 62.277494331
  },
  {
    "wikiId": "Q692011",
    "name": "Padjelanta National Park",
    "cat": "nationalPark",
    "lon": 16.721859465,
    "lat": 67.410021653
  },
  {
    "wikiId": "Q692472",
    "name": "Phuoc Binh National Park",
    "cat": "nationalPark",
    "lon": 108.75055556,
    "lat": 12.07111111
  },
  {
    "wikiId": "Q693254",
    "name": "Mana Pools",
    "cat": "nationalPark",
    "lon": 29.333333,
    "lat": -15.75
  },
  {
    "wikiId": "Q696014",
    "name": "Hohe Tauern National Park",
    "cat": "nationalPark",
    "lon": 12.32529,
    "lat": 47.13556
  },
  {
    "wikiId": "Q696959",
    "name": "Snowy River National Park",
    "cat": "nationalPark",
    "lon": 148.553,
    "lat": -37.275
  },
  {
    "wikiId": "Q700204",
    "name": "Salzburger Lungau and Kärntner Nockberge",
    "cat": "nationalPark",
    "lon": 13.7256,
    "lat": 46.9692
  },
  {
    "wikiId": "Q701698",
    "name": "Kinmen National Park",
    "cat": "nationalPark",
    "lon": 118.364,
    "lat": 24.4477
  },
  {
    "wikiId": "Q706301",
    "name": "Wolchulsan National Park",
    "cat": "nationalPark",
    "lon": 126.675,
    "lat": 34.744
  },
  {
    "wikiId": "Q706310",
    "name": "Seoraksan National Park",
    "cat": "nationalPark",
    "lon": 128.416,
    "lat": 38.125
  },
  {
    "wikiId": "Q707067",
    "name": "Bukhansan National Park",
    "cat": "nationalPark",
    "lon": 126.982,
    "lat": 37.675
  },
  {
    "wikiId": "Q707427",
    "name": "Taroko National Park",
    "cat": "nationalPark",
    "lon": 121.333333,
    "lat": 24.166667
  },
  {
    "wikiId": "Q707982",
    "name": "Kenting National Park",
    "cat": "nationalPark",
    "lon": 120.79694444,
    "lat": 21.98
  },
  {
    "wikiId": "Q707996",
    "name": "Shei-Pa National Park",
    "cat": "nationalPark",
    "lon": 121.287222222,
    "lat": 24.414722222
  },
  {
    "wikiId": "Q709029",
    "name": "Yangmingshan National Park",
    "cat": "nationalPark",
    "lon": 121.5475,
    "lat": 25.1775
  },
  {
    "wikiId": "Q712300",
    "name": "Arthur's Pass National Park",
    "cat": "nationalPark",
    "lon": 171.721416666,
    "lat": -42.889666666
  },
  {
    "wikiId": "Q715124",
    "name": "Teide National Park",
    "cat": "nationalPark",
    "lon": -16.6167,
    "lat": 28.25
  },
  {
    "wikiId": "Q716801",
    "name": "Arusha National Park",
    "cat": "nationalPark",
    "lon": 36.833333333,
    "lat": -3.25
  },
  {
    "wikiId": "Q717804",
    "name": "Jirisan National Park",
    "cat": "nationalPark",
    "lon": 127.632,
    "lat": 35.29
  },
  {
    "wikiId": "Q724189",
    "name": "Outamba-Kilimi National Park",
    "cat": "nationalPark",
    "lon": -12.02611111,
    "lat": 9.77194444
  },
  {
    "wikiId": "Q726863",
    "name": "W National Park",
    "cat": "nationalPark",
    "lon": 2.5,
    "lat": 12
  },
  {
    "wikiId": "Q727091",
    "name": "Kishtwar National Park",
    "cat": "nationalPark",
    "lon": 75.99277778,
    "lat": 33.60111111
  },
  {
    "wikiId": "Q732723",
    "name": "Paklenica",
    "cat": "nationalPark",
    "lon": 15.29022,
    "lat": 44.44359
  },
  {
    "wikiId": "Q733491",
    "name": "Neerabup National Park",
    "cat": "nationalPark",
    "lon": 115.735,
    "lat": -31.675
  },
  {
    "wikiId": "Q733659",
    "name": "Satpura National Park",
    "cat": "nationalPark",
    "lon": 78.231,
    "lat": 22.495
  },
  {
    "wikiId": "Q735229",
    "name": "Port Campbell National Park",
    "cat": "nationalPark",
    "lon": 143.0625,
    "lat": -38.65027778
  },
  {
    "wikiId": "Q738428",
    "name": "Dzūkija National Park",
    "cat": "nationalPark",
    "lon": 24.37666667,
    "lat": 54.08194444
  },
  {
    "wikiId": "Q739993",
    "name": "Nairobi National Park",
    "cat": "nationalPark",
    "lon": 36.858888888,
    "lat": -1.373333333
  },
  {
    "wikiId": "Q741557",
    "name": "Japoon National Park",
    "cat": "nationalPark",
    "lon": 145.887222222,
    "lat": -17.739722222
  },
  {
    "wikiId": "Q3627",
    "name": "Chillagoe-Mungana Caves National Park",
    "cat": "nationalPark",
    "lon": 144.393055555,
    "lat": -17.091666666
  },
  {
    "wikiId": "Q4111",
    "name": "Jiuzhaigou Valley",
    "cat": "nationalPark",
    "lon": 103.9,
    "lat": 33.2
  },
  {
    "wikiId": "Q23960",
    "name": "Grey Peaks National Park",
    "cat": "nationalPark",
    "lon": 145.847777777,
    "lat": -17.042222222
  },
  {
    "wikiId": "Q24281",
    "name": "Halifax Bay Wetlands National Park",
    "cat": "nationalPark",
    "lon": 146.268888888,
    "lat": -18.8675
  },
  {
    "wikiId": "Q29723",
    "name": "Hasties Swamp National Park",
    "cat": "nationalPark",
    "lon": 145.474166666,
    "lat": -17.300277777
  },
  {
    "wikiId": "Q42090",
    "name": "Los Haitises National Park",
    "cat": "nationalPark",
    "lon": -69.59289722,
    "lat": 19.04394444
  },
  {
    "wikiId": "Q45933",
    "name": "Hann Tableland National Park",
    "cat": "nationalPark",
    "lon": 145.151,
    "lat": -16.7983
  },
  {
    "wikiId": "Q48153",
    "name": "Alexander von Humboldt National Park",
    "cat": "nationalPark",
    "lon": -74.9,
    "lat": 20.45805556
  },
  {
    "wikiId": "Q48567",
    "name": "Picos de Europa National Park",
    "cat": "nationalPark",
    "lon": -4.84,
    "lat": 43.21
  },
  {
    "wikiId": "Q48642",
    "name": "Fort Lytton National Park",
    "cat": "nationalPark",
    "lon": 153.15,
    "lat": -27.412222222
  },
  {
    "wikiId": "Q60167",
    "name": "Leeuwin-Naturaliste National Park",
    "cat": "nationalPark",
    "lon": 115.047,
    "lat": -34.2386
  },
  {
    "wikiId": "Q61529",
    "name": "Simlipal National Park",
    "cat": "nationalPark",
    "lon": 86.33,
    "lat": 21.75
  },
  {
    "wikiId": "Q61535",
    "name": "Gunung Mulu National Park",
    "cat": "nationalPark",
    "lon": 114.919,
    "lat": 4.132
  },
  {
    "wikiId": "Q68472",
    "name": "Great Otway National Park",
    "cat": "nationalPark",
    "lon": 143.557,
    "lat": -38.7733
  },
  {
    "wikiId": "Q79753",
    "name": "Saklıkent Canyon",
    "cat": "nationalPark",
    "lon": 29.40544,
    "lat": 36.46868
  },
  {
    "wikiId": "Q80343",
    "name": "West Cape Howe National Park",
    "cat": "nationalPark",
    "lon": 117.593,
    "lat": -35.1061
  },
  {
    "wikiId": "Q80344",
    "name": "Mount Olympus",
    "cat": "nationalPark",
    "lon": 22.35,
    "lat": 40.06
  },
  {
    "wikiId": "Q82371",
    "name": "Semenic-Cheile Carașului National Park",
    "cat": "nationalPark",
    "lon": 21.977,
    "lat": 45.142
  },
  {
    "wikiId": "Q83397",
    "name": "Swiss National Park",
    "cat": "nationalPark",
    "lon": 10.095,
    "lat": 46.7
  },
  {
    "wikiId": "Q87172",
    "name": "Te Urewera",
    "cat": "nationalPark",
    "lon": 177.029,
    "lat": -38.539
  },
  {
    "wikiId": "Q112375",
    "name": "Galápagos National Park",
    "cat": "nationalPark",
    "lon": -90,
    "lat": -0.333333333
  },
  {
    "wikiId": "Q112854",
    "name": "Manuel Antonio National Park",
    "cat": "nationalPark",
    "lon": -84.13583333,
    "lat": 9.37555556
  },
  {
    "wikiId": "Q113523",
    "name": "Royal National Park",
    "cat": "nationalPark",
    "lon": 151.0511111,
    "lat": -34.131666666
  },
  {
    "wikiId": "Q113952",
    "name": "Gorongosa National Park",
    "cat": "nationalPark",
    "lon": 34.313611111,
    "lat": -18.690277777
  },
  {
    "wikiId": "Q115591",
    "name": "Stirling Range National Park",
    "cat": "nationalPark",
    "lon": 118.047177,
    "lat": -34.397718
  },
  {
    "wikiId": "Q116661",
    "name": "Loch Lomond and The Trossachs National Park",
    "cat": "nationalPark",
    "lon": -4.61667,
    "lat": 56.25
  },
  {
    "wikiId": "Q116715",
    "name": "Akagera National Park",
    "cat": "nationalPark",
    "lon": 30.783333333,
    "lat": -1.633333333
  },
  {
    "wikiId": "Q119150",
    "name": "Björnlandet National Park",
    "cat": "nationalPark",
    "lon": 18.01487125,
    "lat": 63.974039971
  },
  {
    "wikiId": "Q119528",
    "name": "Jardine River National Park",
    "cat": "nationalPark",
    "lon": 142.627,
    "lat": -10.9211
  },
  {
    "wikiId": "Q120414",
    "name": "Isalo National Park",
    "cat": "nationalPark",
    "lon": 44.93408205,
    "lat": -22.61401088
  },
  {
    "wikiId": "Q120765",
    "name": "Hinchinbrook Island National Park",
    "cat": "nationalPark",
    "lon": 146.247,
    "lat": -18.3819
  },
  {
    "wikiId": "Q122412",
    "name": "Blackwood National Park",
    "cat": "nationalPark",
    "lon": 146.715,
    "lat": -21.461666666
  },
  {
    "wikiId": "Q123161",
    "name": "Woomargama National Park",
    "cat": "nationalPark",
    "lon": 147.485,
    "lat": -35.8714
  },
  {
    "wikiId": "Q125085",
    "name": "Lomsdal–Visten National Park",
    "cat": "nationalPark",
    "lon": 12.7935791,
    "lat": 65.57436506
  },
  {
    "wikiId": "Q125333",
    "name": "Mũi Cà Mau National Park",
    "cat": "nationalPark",
    "lon": 104.79166667,
    "lat": 8.675
  },
  {
    "wikiId": "Q127322",
    "name": "Oulanka National Park",
    "cat": "nationalPark",
    "lon": 29.33861111,
    "lat": 66.37305556
  },
  {
    "wikiId": "Q130718",
    "name": "Deogyusan National Park",
    "cat": "nationalPark",
    "lon": 127.744,
    "lat": 35.864
  },
  {
    "wikiId": "Q131875",
    "name": "Udawalawe National Park",
    "cat": "nationalPark",
    "lon": 80.888455555,
    "lat": 6.438344444
  },
  {
    "wikiId": "Q133502",
    "name": "Warren National Park",
    "cat": "nationalPark",
    "lon": 115.956,
    "lat": -34.5006
  },
  {
    "wikiId": "Q137913",
    "name": "Lochern National Park",
    "cat": "nationalPark",
    "lon": 143.325833333,
    "lat": -24.237222222
  },
  {
    "wikiId": "Q137917",
    "name": "Magnetic Island National Park",
    "cat": "nationalPark",
    "lon": 146.842222222,
    "lat": -19.135833333
  },
  {
    "wikiId": "Q137928",
    "name": "Mazeppa National Park",
    "cat": "nationalPark",
    "lon": 147.291111111,
    "lat": -22.231666666
  },
  {
    "wikiId": "Q138096",
    "name": "Lindeman Islands National Park",
    "cat": "nationalPark",
    "lon": 149.086944444,
    "lat": -20.475
  },
  {
    "wikiId": "Q138100",
    "name": "Mariala National Park",
    "cat": "nationalPark",
    "lon": 145.071388888,
    "lat": -26.029444444
  },
  {
    "wikiId": "Q138104",
    "name": "Littabella National Park",
    "cat": "nationalPark",
    "lon": 152.048055555,
    "lat": -24.579166666
  },
  {
    "wikiId": "Q140033",
    "name": "Glenveagh National Park",
    "cat": "nationalPark",
    "lon": -8.05,
    "lat": 55.016666666
  },
  {
    "wikiId": "Q141549",
    "name": "Day Forest National Park",
    "cat": "nationalPark",
    "lon": 42.683333333,
    "lat": 11.8
  },
  {
    "wikiId": "Q141735",
    "name": "Whanganui National Park",
    "cat": "nationalPark",
    "lon": 175.083333333,
    "lat": -39.583333333
  },
  {
    "wikiId": "Q144029",
    "name": "Fazao Mafakassa National Park",
    "cat": "nationalPark",
    "lon": 1,
    "lat": 9
  },
  {
    "wikiId": "Q145308",
    "name": "Woolooma National Park",
    "cat": "nationalPark",
    "lon": 151.2675,
    "lat": -32.05472222
  },
  {
    "wikiId": "Q155266",
    "name": "Cunnawarra National Park",
    "cat": "nationalPark",
    "lon": 152.217222222,
    "lat": -30.624722222
  },
  {
    "wikiId": "Q164798",
    "name": "Folgefonna National Park",
    "cat": "nationalPark",
    "lon": 6.333055555,
    "lat": 60
  },
  {
    "wikiId": "Q165026",
    "name": "Girraween National Park",
    "cat": "nationalPark",
    "lon": 151.912,
    "lat": -28.7742
  },
  {
    "wikiId": "Q168372",
    "name": "Cheile Nerei-Beușnița National Park",
    "cat": "nationalPark",
    "lon": 21.8882,
    "lat": 44.951194
  },
  {
    "wikiId": "Q168421",
    "name": "Minerva Hills National Park",
    "cat": "nationalPark",
    "lon": 148.064166666,
    "lat": -24.080555555
  },
  {
    "wikiId": "Q168618",
    "name": "Molle Islands National Park",
    "cat": "nationalPark",
    "lon": 148.8575,
    "lat": -20.376666666
  },
  {
    "wikiId": "Q174228",
    "name": "Caparaó National Park",
    "cat": "nationalPark",
    "lon": -41.7837525,
    "lat": -20.45017583
  },
  {
    "wikiId": "Q174656",
    "name": "Millstream Chichester National Park",
    "cat": "nationalPark",
    "lon": 117.107,
    "lat": -21.2733
  },
  {
    "wikiId": "Q174918",
    "name": "Errinundra National Park",
    "cat": "nationalPark",
    "lon": 148.895,
    "lat": -37.2858
  },
  {
    "wikiId": "Q176792",
    "name": "Silent Valley National Park",
    "cat": "nationalPark",
    "lon": 76.466666666,
    "lat": 11.133333333
  },
  {
    "wikiId": "Q176872",
    "name": "Barmah National Park",
    "cat": "nationalPark",
    "lon": 145.118055555,
    "lat": -35.866666666
  },
  {
    "wikiId": "Q181556",
    "name": "Brockman National Park",
    "cat": "nationalPark",
    "lon": 115.996,
    "lat": -34.5144
  },
  {
    "wikiId": "Q181891",
    "name": "Nullarbor National Park",
    "cat": "nationalPark",
    "lon": 129.89905,
    "lat": -31.4562
  },
  {
    "wikiId": "Q181933",
    "name": "Rajaji National Park",
    "cat": "nationalPark",
    "lon": 78.03333333,
    "lat": 30.08333333
  },
  {
    "wikiId": "Q182981",
    "name": "Junkerdal National Park",
    "cat": "nationalPark",
    "lon": 15.8,
    "lat": 66.883333333
  },
  {
    "wikiId": "Q185284",
    "name": "Skarvan and Roltdalen National Park",
    "cat": "nationalPark",
    "lon": 11.416666666,
    "lat": 63.216666666
  },
  {
    "wikiId": "Q185602",
    "name": "Jostedalsbreen National Park",
    "cat": "nationalPark",
    "lon": 6.983333333,
    "lat": 61.683333333
  },
  {
    "wikiId": "Q187592",
    "name": "Sjunkhatten National Park",
    "cat": "nationalPark",
    "lon": 15.06225586,
    "lat": 67.42436395
  },
  {
    "wikiId": "Q190048",
    "name": "Tassili n'Ajjer",
    "cat": "nationalPark",
    "lon": 9,
    "lat": 25.666666666
  },
  {
    "wikiId": "Q192764",
    "name": "Kaziranga National Park",
    "cat": "nationalPark",
    "lon": 93.35,
    "lat": 26.666666666
  },
  {
    "wikiId": "Q198185",
    "name": "Moorrinya National Park",
    "cat": "nationalPark",
    "lon": 144.941,
    "lat": -21.3942
  },
  {
    "wikiId": "Q200521",
    "name": "Brimstone Hill Fortress National Park",
    "cat": "nationalPark",
    "lon": -62.836,
    "lat": 17.347
  },
  {
    "wikiId": "Q202845",
    "name": "Tongariro National Park",
    "cat": "nationalPark",
    "lon": 175.583333,
    "lat": -39.2
  },
  {
    "wikiId": "Q203368",
    "name": "Boodjamulla (Lawn Hill) National Park",
    "cat": "nationalPark",
    "lon": 138.488,
    "lat": -18.7014
  },
  {
    "wikiId": "Q204931",
    "name": "Retezat National Park",
    "cat": "nationalPark",
    "lon": 22.833333333,
    "lat": 45.333333333
  },
  {
    "wikiId": "Q211816",
    "name": "Pioneer Peaks National Park",
    "cat": "nationalPark",
    "lon": 148.923888888,
    "lat": -20.983888888
  },
  {
    "wikiId": "Q211819",
    "name": "Reliance Creek National Park",
    "cat": "nationalPark",
    "lon": 149.099722222,
    "lat": -21.047777777
  },
  {
    "wikiId": "Q212019",
    "name": "Mount O'Connell National Park",
    "cat": "nationalPark",
    "lon": 150.039444444,
    "lat": -22.750277777
  },
  {
    "wikiId": "Q212025",
    "name": "Mount Pinbarren National Park",
    "cat": "nationalPark",
    "lon": 152.854166666,
    "lat": -26.32
  },
  {
    "wikiId": "Q212030",
    "name": "Mount Martin National Park",
    "cat": "nationalPark",
    "lon": 148.829444444,
    "lat": -21.071944444
  },
  {
    "wikiId": "Q212134",
    "name": "Staaten River National Park",
    "cat": "nationalPark",
    "lon": 142.679,
    "lat": -16.2553
  },
  {
    "wikiId": "Q223589",
    "name": "Virunga National Park",
    "cat": "nationalPark",
    "lon": 29.5,
    "lat": -0.5
  },
  {
    "wikiId": "Q235878",
    "name": "Kevladev National Park",
    "cat": "nationalPark",
    "lon": 77.516667,
    "lat": 27.166667
  },
  {
    "wikiId": "Q239264",
    "name": "Dulcie Range National Park",
    "cat": "nationalPark",
    "lon": 135.608,
    "lat": -22.5778
  },
  {
    "wikiId": "Q241960",
    "name": "Cheile Bicazului-Hășmaș National Park",
    "cat": "nationalPark",
    "lon": 25.81894,
    "lat": 46.81198
  },
  {
    "wikiId": "Q246121",
    "name": "Kéran National Park",
    "cat": "nationalPark",
    "lon": 0.619,
    "lat": 10.13
  },
  {
    "wikiId": "Q248825",
    "name": "Peak Charles National Park",
    "cat": "nationalPark",
    "lon": 121.107,
    "lat": -32.9097
  },
  {
    "wikiId": "Q253455",
    "name": "Dudhwa National Park",
    "cat": "nationalPark",
    "lon": 80.699263,
    "lat": 28.470872
  },
  {
    "wikiId": "Q254556",
    "name": "Conondale National Park",
    "cat": "nationalPark",
    "lon": 152.645555555,
    "lat": -26.663055555
  },
  {
    "wikiId": "Q255449",
    "name": "Moresby Range National Park",
    "cat": "nationalPark",
    "lon": 146.075833333,
    "lat": -17.5375
  },
  {
    "wikiId": "Q256022",
    "name": "Wyperfeld National Park",
    "cat": "nationalPark",
    "lon": 141.877,
    "lat": -35.3892
  },
  {
    "wikiId": "Q263406",
    "name": "Upemba National Park",
    "cat": "nationalPark",
    "lon": 26.58333333,
    "lat": -9.01666667
  },
  {
    "wikiId": "Q263883",
    "name": "Odzala National Park",
    "cat": "nationalPark",
    "lon": 14.93333333,
    "lat": 0.8
  },
  {
    "wikiId": "Q268533",
    "name": "Žemaitija National Park",
    "cat": "nationalPark",
    "lon": 21.889,
    "lat": 56.044
  },
  {
    "wikiId": "Q271087",
    "name": "Ånderdalen National Park",
    "cat": "nationalPark",
    "lon": 17.266666666,
    "lat": 69.2
  },
  {
    "wikiId": "Q277145",
    "name": "Tbilisi National Park",
    "cat": "nationalPark",
    "lon": 44.9333,
    "lat": 41.8667
  },
  {
    "wikiId": "Q287883",
    "name": "Pyhä-Häkki National Park",
    "cat": "nationalPark",
    "lon": 25.4725,
    "lat": 62.84555556
  },
  {
    "wikiId": "Q288545",
    "name": "Gambela National Park",
    "cat": "nationalPark",
    "lon": 34,
    "lat": 8
  },
  {
    "wikiId": "Q305169",
    "name": "Los Katíos National Park",
    "cat": "nationalPark",
    "lon": -77.15,
    "lat": 7.8
  },
  {
    "wikiId": "Q308893",
    "name": "Garamba National Park",
    "cat": "nationalPark",
    "lon": 29.25,
    "lat": 4
  },
  {
    "wikiId": "Q309276",
    "name": "Northeast Greenland National Park",
    "cat": "nationalPark",
    "lon": -31,
    "lat": 77
  },
  {
    "wikiId": "Q313071",
    "name": "Lake Nakuru National Park",
    "cat": "nationalPark",
    "lon": 36.08333333,
    "lat": -0.36666667
  },
  {
    "wikiId": "Q317225",
    "name": "Øvre Dividal National Park",
    "cat": "nationalPark",
    "lon": 19.866666666,
    "lat": 68.633333333
  },
  {
    "wikiId": "Q317226",
    "name": "Anárjohka National Park",
    "cat": "nationalPark",
    "lon": 24.75,
    "lat": 68.733333333
  },
  {
    "wikiId": "Q317253",
    "name": "Øvre Pasvik National Park",
    "cat": "nationalPark",
    "lon": 28.833333333,
    "lat": 69.1
  },
  {
    "wikiId": "Q318357",
    "name": "Abel Tasman National Park",
    "cat": "nationalPark",
    "lon": 172.9715,
    "lat": -40.900027777
  },
  {
    "wikiId": "Q319327",
    "name": "Abercrombie River National Park",
    "cat": "nationalPark",
    "lon": 149.6677778,
    "lat": -34.098333333
  },
  {
    "wikiId": "Q319356",
    "name": "Aberdare National Park",
    "cat": "nationalPark",
    "lon": 36.69916667,
    "lat": -0.38
  },
  {
    "wikiId": "Q321200",
    "name": "Abijatta-Shalla National Park",
    "cat": "nationalPark",
    "lon": 38.5,
    "lat": 7.5
  },
  {
    "wikiId": "Q328488",
    "name": "Salonga National Park",
    "cat": "nationalPark",
    "lon": 21,
    "lat": -2
  },
  {
    "wikiId": "Q328577",
    "name": "Taï National Park",
    "cat": "nationalPark",
    "lon": -7.12,
    "lat": 5.75
  },
  {
    "wikiId": "Q337028",
    "name": "Gir Forest",
    "cat": "nationalPark",
    "lon": 70.79667,
    "lat": 21.13556
  },
  {
    "wikiId": "Q338542",
    "name": "Cabo de Hornos National Park",
    "cat": "nationalPark",
    "lon": -67.433,
    "lat": -55.833
  },
  {
    "wikiId": "Q353318",
    "name": "Addo Elephant National Park",
    "cat": "nationalPark",
    "lon": 25.7458,
    "lat": -33.4461
  },
  {
    "wikiId": "Q358729",
    "name": "Val Grande National Park",
    "cat": "nationalPark",
    "lon": 8.459444,
    "lat": 46.029167
  },
  {
    "wikiId": "Q368670",
    "name": "Mebbin National Park",
    "cat": "nationalPark",
    "lon": 153.17,
    "lat": -28.4469
  },
  {
    "wikiId": "Q370159",
    "name": "Bako National Park",
    "cat": "nationalPark",
    "lon": 110.466667,
    "lat": 1.716667
  },
  {
    "wikiId": "Q370370",
    "name": "Mont Péko National Park",
    "cat": "nationalPark",
    "lon": -7.23888889,
    "lat": 7.025
  },
  {
    "wikiId": "Q372019",
    "name": "Amazônia National Park",
    "cat": "nationalPark",
    "lon": -56.84027778,
    "lat": -4.43944444
  },
  {
    "wikiId": "Q376436",
    "name": "Vikos–Aoös National Park",
    "cat": "nationalPark",
    "lon": 20.72833333,
    "lat": 39.96944444
  },
  {
    "wikiId": "Q377998",
    "name": "Lo Go Xa Mat National Park",
    "cat": "nationalPark",
    "lon": 106.00833333,
    "lat": 11.40833333
  },
  {
    "wikiId": "Q379080",
    "name": "Fort Jesus",
    "cat": "nationalPark",
    "lon": 39.682055555,
    "lat": -4.071166666
  },
  {
    "wikiId": "Q382227",
    "name": "Gargano National Park",
    "cat": "nationalPark",
    "lon": 15.925,
    "lat": 41.80611111
  },
  {
    "wikiId": "Q384739",
    "name": "Wilsons Promontory National Park",
    "cat": "nationalPark",
    "lon": 146.394,
    "lat": -39.0133
  },
  {
    "wikiId": "Q385021",
    "name": "Tazekka National Park",
    "cat": "nationalPark",
    "lon": -4.14624,
    "lat": 34.0827
  },
  {
    "wikiId": "Q385269",
    "name": "Dunggir National Park",
    "cat": "nationalPark",
    "lon": 152.651944444,
    "lat": -30.676666666
  },
  {
    "wikiId": "Q385655",
    "name": "Walls of Jerusalem National Park",
    "cat": "nationalPark",
    "lon": 146.259,
    "lat": -41.8689
  },
  {
    "wikiId": "Q389707",
    "name": "Kaboré Tambi National Park",
    "cat": "nationalPark",
    "lon": -1.3226,
    "lat": 11.5335
  },
  {
    "wikiId": "Q392877",
    "name": "Anavilhanas National Park",
    "cat": "nationalPark",
    "lon": -60.92055556,
    "lat": -2.39472222
  },
  {
    "wikiId": "Q398525",
    "name": "Agulhas National Park",
    "cat": "nationalPark",
    "lon": 20.00666667,
    "lat": -34.82722222
  },
  {
    "wikiId": "Q400200",
    "name": "Aukštaitija National Park",
    "cat": "nationalPark",
    "lon": 26.057,
    "lat": 55.344
  },
  {
    "wikiId": "Q422935",
    "name": "Nuga Nuga National Park",
    "cat": "nationalPark",
    "lon": 148.684444444,
    "lat": -24.965277777
  },
  {
    "wikiId": "Q423134",
    "name": "Newry Islands National Park",
    "cat": "nationalPark",
    "lon": 148.899444444,
    "lat": -20.851666666
  },
  {
    "wikiId": "Q426073",
    "name": "Ikara-Flinders Ranges National Park",
    "cat": "nationalPark",
    "lon": 138.705,
    "lat": -31.4222
  },
  {
    "wikiId": "Q428102",
    "name": "Tsitsikamma National Park",
    "cat": "nationalPark",
    "lon": 23.895561111,
    "lat": -34.021669444
  },
  {
    "wikiId": "Q428123",
    "name": "Maiko National Park",
    "cat": "nationalPark",
    "lon": 27.56666667,
    "lat": -0.4
  },
  {
    "wikiId": "Q429470",
    "name": "Théniet El Had National Park",
    "cat": "nationalPark",
    "lon": 1.81667,
    "lat": 35.6667
  },
  {
    "wikiId": "Q441861",
    "name": "Whitsunday Islands National Park",
    "cat": "nationalPark",
    "lon": 148.874166666,
    "lat": -20.060277777
  },
  {
    "wikiId": "Q441890",
    "name": "Little Desert National Park",
    "cat": "nationalPark",
    "lon": 141.189,
    "lat": -36.6067
  },
  {
    "wikiId": "Q442279",
    "name": "Cape Arid National Park",
    "cat": "nationalPark",
    "lon": 123.369,
    "lat": -33.7039
  },
  {
    "wikiId": "Q446220",
    "name": "Tunnel Creek National Park",
    "cat": "nationalPark",
    "lon": 125.143,
    "lat": -17.6119
  },
  {
    "wikiId": "Q447047",
    "name": "Altyn-Emel National Park",
    "cat": "nationalPark",
    "lon": 78.8,
    "lat": 44
  },
  {
    "wikiId": "Q453513",
    "name": "Amamoor National Park",
    "cat": "nationalPark",
    "lon": 152.6457223,
    "lat": -26.3245929
  },
  {
    "wikiId": "Q457324",
    "name": "Kahuzi-Biéga National Park",
    "cat": "nationalPark",
    "lon": 28.758666666,
    "lat": -2.314805555
  },
  {
    "wikiId": "Q457882",
    "name": "Glass House Mountains National Park",
    "cat": "nationalPark",
    "lon": 152.954,
    "lat": -26.8475
  },
  {
    "wikiId": "Q458423",
    "name": "Amboseli National Park",
    "cat": "nationalPark",
    "lon": 37.25,
    "lat": -2.65
  },
  {
    "wikiId": "Q464942",
    "name": "Garajonay National Park",
    "cat": "nationalPark",
    "lon": -17.23722222,
    "lat": 28.12625
  },
  {
    "wikiId": "Q465811",
    "name": "National Mall",
    "cat": "nationalPark",
    "lon": -77.023055555,
    "lat": 38.889444444
  },
  {
    "wikiId": "Q472929",
    "name": "Hassell National Park",
    "cat": "nationalPark",
    "lon": 118.37,
    "lat": -34.6789
  },
  {
    "wikiId": "Q473256",
    "name": "Kinglake National Park",
    "cat": "nationalPark",
    "lon": 145.211,
    "lat": -37.4064
  },
  {
    "wikiId": "Q477399",
    "name": "Michaelmas and Upolu Cays National Park",
    "cat": "nationalPark",
    "lon": 145.9725,
    "lat": -16.60833333
  },
  {
    "wikiId": "Q478677",
    "name": "Nyanga National Park",
    "cat": "nationalPark",
    "lon": 32.75,
    "lat": -18.21666667
  },
  {
    "wikiId": "Q484112",
    "name": "Dadohaehaesang National Park",
    "cat": "nationalPark",
    "lon": 126.7,
    "lat": 34.191
  },
  {
    "wikiId": "Q490975",
    "name": "Gayasan National Park",
    "cat": "nationalPark",
    "lon": 128.116666666,
    "lat": 35.816666666
  },
  {
    "wikiId": "Q491567",
    "name": "Gyeongju National Park",
    "cat": "nationalPark",
    "lon": 129.2225,
    "lat": 35.8675
  },
  {
    "wikiId": "Q491972",
    "name": "Mount William National Park",
    "cat": "nationalPark",
    "lon": 148.253333,
    "lat": -40.9375
  },
  {
    "wikiId": "Q492185",
    "name": "River Gambia National Park",
    "cat": "nationalPark",
    "lon": -14.95944444,
    "lat": 13.63888889
  },
  {
    "wikiId": "Q494689",
    "name": "Juwangsan National Park",
    "cat": "nationalPark",
    "lon": 129.16666667,
    "lat": 36.38833333
  },
  {
    "wikiId": "Q499499",
    "name": "Namaqua National Park",
    "cat": "nationalPark",
    "lon": 17.5861,
    "lat": -30.0433
  },
  {
    "wikiId": "Q499550",
    "name": "Smith Islands National Park",
    "cat": "nationalPark",
    "lon": 149.110555555,
    "lat": -20.589166666
  },
  {
    "wikiId": "Q499953",
    "name": "Southwood National Park",
    "cat": "nationalPark",
    "lon": 150.135555555,
    "lat": -27.814722222
  },
  {
    "wikiId": "Q501344",
    "name": "Comoé National Park",
    "cat": "nationalPark",
    "lon": -3.7725,
    "lat": 9.163611111
  },
  {
    "wikiId": "Q503518",
    "name": "Lower Zambezi National Park",
    "cat": "nationalPark",
    "lon": 29.33333333,
    "lat": -15.75
  },
  {
    "wikiId": "Q503835",
    "name": "Manovo-Gounda St. Floris National Park",
    "cat": "nationalPark",
    "lon": 21.5,
    "lat": 8.5
  },
  {
    "wikiId": "Q504315",
    "name": "Simien Mountains National Park",
    "cat": "nationalPark",
    "lon": 38.066666666,
    "lat": 13.183333333
  },
  {
    "wikiId": "Q506511",
    "name": "Manas National Park",
    "cat": "nationalPark",
    "lon": 90.933333333,
    "lat": 26.716666666
  },
  {
    "wikiId": "Q510882",
    "name": "Phnom Kulen National Park",
    "cat": "nationalPark",
    "lon": 104.0957,
    "lat": 13.6062
  },
  {
    "wikiId": "Q512783",
    "name": "Sumaco Napo-Galeras National Park",
    "cat": "nationalPark",
    "lon": -77.55,
    "lat": -0.383333
  },
  {
    "wikiId": "Q519117",
    "name": "Savage River National Park",
    "cat": "nationalPark",
    "lon": 145.409,
    "lat": -41.3539
  },
  {
    "wikiId": "Q524956",
    "name": "Dorrigo National Park",
    "cat": "nationalPark",
    "lon": 152.7511111,
    "lat": -30.381666666
  },
  {
    "wikiId": "Q526425",
    "name": "Idalia National Park",
    "cat": "nationalPark",
    "lon": 144.697,
    "lat": -24.9586
  },
  {
    "wikiId": "Q527914",
    "name": "Brindabella National Park",
    "cat": "nationalPark",
    "lon": 148.8011111,
    "lat": -35.238611111
  },
  {
    "wikiId": "Q528924",
    "name": "Rago National Park",
    "cat": "nationalPark",
    "lon": 15.983333333,
    "lat": 67.433333333
  },
  {
    "wikiId": "Q532440",
    "name": "Sundarbans National Park",
    "cat": "nationalPark",
    "lon": 88.86896612,
    "lat": 21.73318765
  },
  {
    "wikiId": "Q534596",
    "name": "Tel Be'er Sheva",
    "cat": "nationalPark",
    "lon": 34.840833333,
    "lat": 31.244722222
  },
  {
    "wikiId": "Q536703",
    "name": "Arcipelago di La Maddalena National Park",
    "cat": "nationalPark",
    "lon": 9.41185,
    "lat": 41.24580483
  },
  {
    "wikiId": "Q536993",
    "name": "Greater Bendigo National Park",
    "cat": "nationalPark",
    "lon": 144.255,
    "lat": -36.6739
  },
  {
    "wikiId": "Q539518",
    "name": "Banc d'Arguin National Park",
    "cat": "nationalPark",
    "lon": -16.108889,
    "lat": 20.234722
  },
  {
    "wikiId": "Q539925",
    "name": "Murray Valley National Park",
    "cat": "nationalPark",
    "lon": 145.027,
    "lat": -35.7933
  },
  {
    "wikiId": "Q541149",
    "name": "Hat Head National Park",
    "cat": "nationalPark",
    "lon": 153.0177778,
    "lat": -31.065
  },
  {
    "wikiId": "Q541934",
    "name": "Chaelundi National Park",
    "cat": "nationalPark",
    "lon": 152.510833333,
    "lat": -29.944166666
  },
  {
    "wikiId": "Q543703",
    "name": "Danube-Ipoly National Park",
    "cat": "nationalPark",
    "lon": 18.95,
    "lat": 47.76666667
  },
  {
    "wikiId": "Q548153",
    "name": "Periyar National Park",
    "cat": "nationalPark",
    "lon": 77.2,
    "lat": 9.53333333
  },
  {
    "wikiId": "Q549295",
    "name": "Rāzna National Park",
    "cat": "nationalPark",
    "lon": 27.5,
    "lat": 56.26666667
  },
  {
    "wikiId": "Q549411",
    "name": "Greenmount National Park",
    "cat": "nationalPark",
    "lon": 116.06,
    "lat": -31.9064
  },
  {
    "wikiId": "Q556596",
    "name": "Nini Suhien National Park",
    "cat": "nationalPark",
    "lon": -2.56777778,
    "lat": 5.27694444
  },
  {
    "wikiId": "Q564482",
    "name": "Annan River (Yuku Baja-Muliku) National Park",
    "cat": "nationalPark",
    "lon": 145.2069207,
    "lat": -15.5665902
  },
  {
    "wikiId": "Q568121",
    "name": "Lake Eildon National Park",
    "cat": "nationalPark",
    "lon": 145.830138888,
    "lat": -37.151530555
  },
  {
    "wikiId": "Q568264",
    "name": "Buila-Vânturarița National Park",
    "cat": "nationalPark",
    "lon": 24.096,
    "lat": 45.24
  },
  {
    "wikiId": "Q993154",
    "name": "Tomorr Mountain National Park",
    "cat": "nationalPark",
    "lon": 20.13333333,
    "lat": 40.7
  },
  {
    "wikiId": "Q997788",
    "name": "Isla Gorge National Park",
    "cat": "nationalPark",
    "lon": 149.945,
    "lat": -25.169444444
  },
  {
    "wikiId": "Q999301",
    "name": "Dryander National Park",
    "cat": "nationalPark",
    "lon": 148.565833333,
    "lat": -20.218055555
  },
  {
    "wikiId": "Q1000715",
    "name": "Budawang National Park",
    "cat": "nationalPark",
    "lon": 150.0011111,
    "lat": -35.498333333
  },
  {
    "wikiId": "Q1002547",
    "name": "Bugong National Park",
    "cat": "nationalPark",
    "lon": 150.44306,
    "lat": -34.825
  },
  {
    "wikiId": "Q1002702",
    "name": "Bui National Park",
    "cat": "nationalPark",
    "lon": -2.36275,
    "lat": 8.29983
  },
  {
    "wikiId": "Q1003457",
    "name": "Bulabog Putian National Park",
    "cat": "nationalPark",
    "lon": 122.661,
    "lat": 11.0399
  },
  {
    "wikiId": "Q1003529",
    "name": "Bulburin National Park",
    "cat": "nationalPark",
    "lon": 151.5079648,
    "lat": -24.6490873
  },
  {
    "wikiId": "Q1004326",
    "name": "Bulleringa National Park",
    "cat": "nationalPark",
    "lon": 143.829,
    "lat": -17.5803
  },
  {
    "wikiId": "Q1009360",
    "name": "Bundjalung National Park",
    "cat": "nationalPark",
    "lon": 153.3344444,
    "lat": -29.331666666
  },
  {
    "wikiId": "Q1009440",
    "name": "Bungawalbin National Park",
    "cat": "nationalPark",
    "lon": 153.143888888,
    "lat": -29.098055555
  },
  {
    "wikiId": "Q1009486",
    "name": "Bungonia National Park",
    "cat": "nationalPark",
    "lon": 150.01638889,
    "lat": -34.79722222
  },
  {
    "wikiId": "Q1010032",
    "name": "Bunya Mountains National Park",
    "cat": "nationalPark",
    "lon": 151.536944444,
    "lat": -26.799444444
  },
  {
    "wikiId": "Q1010980",
    "name": "Belvoir Fortress",
    "cat": "nationalPark",
    "lon": 35.521388888,
    "lat": 32.595555555
  },
  {
    "wikiId": "Q1016604",
    "name": "Burleigh Head National Park",
    "cat": "nationalPark",
    "lon": 153.457222222,
    "lat": -28.095277777
  },
  {
    "wikiId": "Q1016934",
    "name": "Burrowa - Pine Mountain National Park",
    "cat": "nationalPark",
    "lon": 147.758,
    "lat": -36.09
  },
  {
    "wikiId": "Q1016942",
    "name": "Burrum Coast National Park",
    "cat": "nationalPark",
    "lon": 152.4675,
    "lat": -24.999166666
  },
  {
    "wikiId": "Q1018112",
    "name": "Butterleaf National Park",
    "cat": "nationalPark",
    "lon": 152.011944444,
    "lat": -29.518888888
  },
  {
    "wikiId": "Q1018500",
    "name": "Byfield National Park",
    "cat": "nationalPark",
    "lon": 150.731666666,
    "lat": -22.783888888
  },
  {
    "wikiId": "Q1020241",
    "name": "Børgefjell National Park",
    "cat": "nationalPark",
    "lon": 13.9,
    "lat": 65.1833
  },
  {
    "wikiId": "Q1027914",
    "name": "Gran Sasso e Monti della Laga National Park",
    "cat": "nationalPark",
    "lon": 13.4952371,
    "lat": 42.4906519
  },
  {
    "wikiId": "Q1028367",
    "name": "Ras Muhammad National Park",
    "cat": "nationalPark",
    "lon": 34.234722222,
    "lat": 27.806111111
  },
  {
    "wikiId": "Q1029674",
    "name": "Camooweal Caves National Park",
    "cat": "nationalPark",
    "lon": 138.19,
    "lat": -20.01916667
  },
  {
    "wikiId": "Q1030926",
    "name": "Macquarie Pass National Park",
    "cat": "nationalPark",
    "lon": 150.6511111,
    "lat": -34.565
  },
  {
    "wikiId": "Q1033936",
    "name": "Canunda National Park",
    "cat": "nationalPark",
    "lon": 140.283,
    "lat": -37.7156
  },
  {
    "wikiId": "Q1034237",
    "name": "Cape Hillsborough National Park",
    "cat": "nationalPark",
    "lon": 148.994,
    "lat": -20.8989
  },
  {
    "wikiId": "Q1034246",
    "name": "Cape Palmerston National Park",
    "cat": "nationalPark",
    "lon": 149.4275,
    "lat": -21.590277777
  },
  {
    "wikiId": "Q1034249",
    "name": "Cape Upstart National Park",
    "cat": "nationalPark",
    "lon": 147.760833333,
    "lat": -19.713333333
  },
  {
    "wikiId": "Q1034253",
    "name": "Cape Le Grand National Park",
    "cat": "nationalPark",
    "lon": 122.156,
    "lat": -33.9469
  },
  {
    "wikiId": "Q1034802",
    "name": "Capoompeta National Park",
    "cat": "nationalPark",
    "lon": 152.008888888,
    "lat": -29.392777777
  },
  {
    "wikiId": "Q1034936",
    "name": "Capricorn Coast National Park",
    "cat": "nationalPark",
    "lon": 150.743888888,
    "lat": -23.122222222
  },
  {
    "wikiId": "Q1034937",
    "name": "Capricornia Cays National Park",
    "cat": "nationalPark",
    "lon": 152.288561111,
    "lat": -23.809519444
  },
  {
    "wikiId": "Q1035333",
    "name": "Henri Pittier National Park",
    "cat": "nationalPark",
    "lon": -67.619,
    "lat": 10.38
  },
  {
    "wikiId": "Q1035375",
    "name": "Caramoan National Park",
    "cat": "nationalPark",
    "lon": 123.88333333,
    "lat": 13.8
  },
  {
    "wikiId": "Q1043894",
    "name": "Carnarvon National Park",
    "cat": "nationalPark",
    "lon": 147.997,
    "lat": -24.6358
  },
  {
    "wikiId": "Q1044858",
    "name": "Carrai National Park",
    "cat": "nationalPark",
    "lon": 152.241944444,
    "lat": -30.893055555
  },
  {
    "wikiId": "Q1046851",
    "name": "Cascade National Park",
    "cat": "nationalPark",
    "lon": 152.808611111,
    "lat": -30.258055555
  },
  {
    "wikiId": "Q1048217",
    "name": "Cassamata Hill National Park",
    "cat": "nationalPark",
    "lon": 120.621,
    "lat": 17.5912
  },
  {
    "wikiId": "Q1049361",
    "name": "Castle Tower National Park",
    "cat": "nationalPark",
    "lon": 151.306944444,
    "lat": -24.1575
  },
  {
    "wikiId": "Q1050363",
    "name": "Cataract National Park",
    "cat": "nationalPark",
    "lon": 152.33608246,
    "lat": -28.73944444
  },
  {
    "wikiId": "Q1050857",
    "name": "Cathedral Rock National Park",
    "cat": "nationalPark",
    "lon": 152.2511111,
    "lat": -30.415
  },
  {
    "wikiId": "Q1051319",
    "name": "Cattai National Park",
    "cat": "nationalPark",
    "lon": 150.897,
    "lat": -33.5472
  },
  {
    "wikiId": "Q1051873",
    "name": "Cavernas do Peruaçu National Park",
    "cat": "nationalPark",
    "lon": -44.32434,
    "lat": -15.12251
  },
  {
    "wikiId": "Q1053661",
    "name": "Westland Tai Poutini National Park",
    "cat": "nationalPark",
    "lon": 170.183333333,
    "lat": -43.383333333
  },
  {
    "wikiId": "Q1063366",
    "name": "Charles Darwin National Park",
    "cat": "nationalPark",
    "lon": 130.87333333,
    "lat": -12.45083333
  },
  {
    "wikiId": "Q1070202",
    "name": "Cherbourg National Park",
    "cat": "nationalPark",
    "lon": 151.9919941,
    "lat": -26.4112683
  },
  {
    "wikiId": "Q1070790",
    "name": "Chesterton Range National Park",
    "cat": "nationalPark",
    "lon": 147.324166666,
    "lat": -26.154166666
  },
  {
    "wikiId": "Q1070905",
    "name": "Mount Aspiring National Park",
    "cat": "nationalPark",
    "lon": 168.732777777,
    "lat": -44.382777777
  },
  {
    "wikiId": "Q1072838",
    "name": "Pollino National Park",
    "cat": "nationalPark",
    "lon": 16.126111111,
    "lat": 39.931111111
  },
  {
    "wikiId": "Q1073037",
    "name": "Chiltern-Mt Pilot National Park",
    "cat": "nationalPark",
    "lon": 146.601,
    "lat": -36.1331
  },
  {
    "wikiId": "Q1074949",
    "name": "Chitral Gol National Park",
    "cat": "nationalPark",
    "lon": 71.66666667,
    "lat": 35.93333333
  },
  {
    "wikiId": "Q1075023",
    "name": "Chitwan National Park",
    "cat": "nationalPark",
    "lon": 84.333333,
    "lat": 27.5
  },
  {
    "wikiId": "Q1075091",
    "name": "Chizarira National Park",
    "cat": "nationalPark",
    "lon": 28.16666667,
    "lat": -17.75
  },
  {
    "wikiId": "Q1075151",
    "name": "Paparoa National Park",
    "cat": "nationalPark",
    "lon": 171.5,
    "lat": -42.0833
  },
  {
    "wikiId": "Q1076030",
    "name": "Machalilla National Park",
    "cat": "nationalPark",
    "lon": -80.83,
    "lat": -1.5625
  },
  {
    "wikiId": "Q1077596",
    "name": "Lake Malawi National Park",
    "cat": "nationalPark",
    "lon": 34.883333333,
    "lat": -14.033333333
  },
  {
    "wikiId": "Q1080683",
    "name": "Tatra National Park",
    "cat": "nationalPark",
    "lon": 19.91944444,
    "lat": 49.18027778
  },
  {
    "wikiId": "Q1085735",
    "name": "Maiella National Park",
    "cat": "nationalPark",
    "lon": 14.06,
    "lat": 42.08194444
  },
  {
    "wikiId": "Q1089780",
    "name": "Christmas Island National Park",
    "cat": "nationalPark",
    "lon": 105.63333333,
    "lat": -10.48333333
  },
  {
    "wikiId": "Q1089860",
    "name": "Churchill National Park",
    "cat": "nationalPark",
    "lon": 145.26,
    "lat": -37.9514
  },
  {
    "wikiId": "Q1091068",
    "name": "Asinara National Park",
    "cat": "nationalPark",
    "lon": 8.276,
    "lat": 41.058
  },
  {
    "wikiId": "Q1091298",
    "name": "Sila National Park",
    "cat": "nationalPark",
    "lon": 16.59194444,
    "lat": 39.37611111
  },
  {
    "wikiId": "Q1094889",
    "name": "Los Nevados National Natural Park",
    "cat": "nationalPark",
    "lon": -75.366667,
    "lat": 4.8
  },
  {
    "wikiId": "Q1097024",
    "name": "Tunku Abdul Rahman National Park",
    "cat": "nationalPark",
    "lon": 116,
    "lat": 5.96667
  },
  {
    "wikiId": "Q1101416",
    "name": "Waka National Park",
    "cat": "nationalPark",
    "lon": 11.0392,
    "lat": -1.27088
  },
  {
    "wikiId": "Q1102054",
    "name": "Bazaruto National Park",
    "cat": "nationalPark",
    "lon": 35.465927,
    "lat": -21.665724
  },
  {
    "wikiId": "Q1103359",
    "name": "Clump Mountain National Park",
    "cat": "nationalPark",
    "lon": 146.095555555,
    "lat": -17.820277777
  },
  {
    "wikiId": "Q1103590",
    "name": "Clyde River National Park",
    "cat": "nationalPark",
    "lon": 150.149166666,
    "lat": -35.678333333
  },
  {
    "wikiId": "Q1104316",
    "name": "Coalstoun Lakes National Park",
    "cat": "nationalPark",
    "lon": 151.909,
    "lat": -25.5978
  },
  {
    "wikiId": "Q1104628",
    "name": "Lengwe National Park",
    "cat": "nationalPark",
    "lon": 34.5,
    "lat": -16.25
  },
  {
    "wikiId": "Q1104632",
    "name": "Cobboboonee National Park",
    "cat": "nationalPark",
    "lon": 141.446,
    "lat": -38.1264
  },
  {
    "wikiId": "Q1105433",
    "name": "Morne Seychellois National Park",
    "cat": "nationalPark",
    "lon": 55.42008,
    "lat": -4.64674
  },
  {
    "wikiId": "Q1105456",
    "name": "Cocoparra National Park",
    "cat": "nationalPark",
    "lon": 146.2177778,
    "lat": -34.131666666
  },
  {
    "wikiId": "Q1106855",
    "name": "Coffin Bay National Park",
    "cat": "nationalPark",
    "lon": 135.322,
    "lat": -34.5822
  },
  {
    "wikiId": "Q1107090",
    "name": "Chad Basin National Park",
    "cat": "nationalPark",
    "lon": 13,
    "lat": 11.5
  },
  {
    "wikiId": "Q1107102",
    "name": "Watamu Marine National Park",
    "cat": "nationalPark",
    "lon": 40.01638889,
    "lat": -3.36777778
  },
  {
    "wikiId": "Q1107161",
    "name": "Okomu National Park",
    "cat": "nationalPark",
    "lon": 5.26667,
    "lat": 6.33333
  },
  {
    "wikiId": "Q1107175",
    "name": "Kamuku National Park",
    "cat": "nationalPark",
    "lon": 6.5,
    "lat": 10.75
  },
  {
    "wikiId": "Q1109041",
    "name": "Manda National Park",
    "cat": "nationalPark",
    "lon": 17.940277777,
    "lat": 9.294166666
  },
  {
    "wikiId": "Q1109452",
    "name": "Collier Range National Park",
    "cat": "nationalPark",
    "lon": 119.272,
    "lat": -24.6236
  },
  {
    "wikiId": "Q1109724",
    "name": "Dovrefjell–Sunndalsfjella National Park",
    "cat": "nationalPark",
    "lon": 9.173055555,
    "lat": 62.396666666
  },
  {
    "wikiId": "Q1111568",
    "name": "Arcipelago Toscano National Park",
    "cat": "nationalPark",
    "lon": 10.268736111,
    "lat": 42.824947222
  },
  {
    "wikiId": "Q1112226",
    "name": "Columbey National Park",
    "cat": "nationalPark",
    "lon": 151.73732758,
    "lat": -32.58782691
  },
  {
    "wikiId": "Q1117259",
    "name": "Coorabakh National Park",
    "cat": "nationalPark",
    "lon": 152.5225,
    "lat": -31.712222222
  },
  {
    "wikiId": "Q1118293",
    "name": "Scone Mountain National Park",
    "cat": "nationalPark",
    "lon": 150.88,
    "lat": -32.04027778
  },
  {
    "wikiId": "Q1120709",
    "name": "Llanganates National Park",
    "cat": "nationalPark",
    "lon": -78.23333333,
    "lat": -1.13333333
  },
  {
    "wikiId": "Q1122053",
    "name": "Yuraygir National Park",
    "cat": "nationalPark",
    "lon": 153.2677778,
    "lat": -29.815
  },
  {
    "wikiId": "Q1123694",
    "name": "Lauhanvuori National Park",
    "cat": "nationalPark",
    "lon": 22.175,
    "lat": 62.15194444
  },
  {
    "wikiId": "Q1124254",
    "name": "Huerquehue National Park",
    "cat": "nationalPark",
    "lon": -71.666389,
    "lat": -39.138611
  },
  {
    "wikiId": "Q1124728",
    "name": "Mikumi National Park",
    "cat": "nationalPark",
    "lon": 37.13333333,
    "lat": -7.2
  },
  {
    "wikiId": "Q1125150",
    "name": "Crater Lakes National Park",
    "cat": "nationalPark",
    "lon": 145.628888888,
    "lat": -17.245833333
  },
  {
    "wikiId": "Q1126072",
    "name": "Conimbla National Park",
    "cat": "nationalPark",
    "lon": 148.439166666,
    "lat": -33.748333333
  },
  {
    "wikiId": "Q3524793",
    "name": "Wilpattu National Park",
    "cat": "nationalPark",
    "lon": 80,
    "lat": 8.43333
  },
  {
    "wikiId": "Q3560405",
    "name": "Brasília National Park",
    "cat": "nationalPark",
    "lon": -47.926667,
    "lat": -15.738056
  },
  {
    "wikiId": "Q3595683",
    "name": "Hazaribagh National Park",
    "cat": "nationalPark",
    "lon": 85.36,
    "lat": 24.1474
  },
  {
    "wikiId": "Q3645592",
    "name": "Algeti National Park",
    "cat": "nationalPark",
    "lon": 44.51666667,
    "lat": 41.58333333
  },
  {
    "wikiId": "Q3646784",
    "name": "Cerro Cora National Park",
    "cat": "nationalPark",
    "lon": -56.183333333,
    "lat": -22.65
  },
  {
    "wikiId": "Q3647888",
    "name": "Caguanes National Park",
    "cat": "nationalPark",
    "lon": -79.12916667,
    "lat": 22.37972222
  },
  {
    "wikiId": "Q3663554",
    "name": "Endau-Rompin National Park",
    "cat": "nationalPark",
    "lon": 103.273,
    "lat": 2.43892
  },
  {
    "wikiId": "Q3695304",
    "name": "Toli Pir",
    "cat": "nationalPark",
    "lon": 73.917777777,
    "lat": 33.886111111
  },
  {
    "wikiId": "Q3695317",
    "name": "Skeleton Coast National Park",
    "cat": "nationalPark",
    "lon": 12.72,
    "lat": -19.19
  },
  {
    "wikiId": "Q3695333",
    "name": "Lulusar-Dudipatsar National Park",
    "cat": "nationalPark",
    "lon": 73.933333333,
    "lat": 35.083333333
  },
  {
    "wikiId": "Q3695605",
    "name": "Batéké Plateau National Park",
    "cat": "nationalPark",
    "lon": 14.02,
    "lat": -2.188
  },
  {
    "wikiId": "Q3695606",
    "name": "South Downs National Park",
    "cat": "nationalPark",
    "lon": -0.367,
    "lat": 50.911
  },
  {
    "wikiId": "Q3695702",
    "name": "Banke National Park",
    "cat": "nationalPark",
    "lon": 81.9128,
    "lat": 28.1911
  },
  {
    "wikiId": "Q3695993",
    "name": "Ruvubu National Park",
    "cat": "nationalPark",
    "lon": 30.373,
    "lat": -3.111
  },
  {
    "wikiId": "Q3696259",
    "name": "Chandoli National Park",
    "cat": "nationalPark",
    "lon": 73.775,
    "lat": 17.19166667
  },
  {
    "wikiId": "Q3696260",
    "name": "Palani Hills Wildlife Sanctuary and National Park",
    "cat": "nationalPark",
    "lon": 77.52388889,
    "lat": 10.24527778
  },
  {
    "wikiId": "Q3738170",
    "name": "Ramat Gan National Park",
    "cat": "nationalPark",
    "lon": 34.82580278,
    "lat": 32.049225
  },
  {
    "wikiId": "Q3895693",
    "name": "Ciénagas de Juan Manuel National Park",
    "cat": "nationalPark",
    "lon": -72.319968611,
    "lat": 9.522487777
  },
  {
    "wikiId": "Q3895694",
    "name": "Burren National Park",
    "cat": "nationalPark",
    "lon": -9.06666667,
    "lat": 53.01666667
  },
  {
    "wikiId": "Q3895700",
    "name": "Bai Tu Long National Park",
    "cat": "nationalPark",
    "lon": 107.63333333,
    "lat": 21.1
  },
  {
    "wikiId": "Q3895701",
    "name": "Bidoup Nui Ba National Park",
    "cat": "nationalPark",
    "lon": 108.5,
    "lat": 12.43333333
  },
  {
    "wikiId": "Q3895703",
    "name": "Bu Gia Map National Park",
    "cat": "nationalPark",
    "lon": 107.190277777,
    "lat": 12.176944444
  },
  {
    "wikiId": "Q3895714",
    "name": "Lower U Minh National Park",
    "cat": "nationalPark",
    "lon": 104.94527778,
    "lat": 9.25138889
  },
  {
    "wikiId": "Q3896391",
    "name": "Morrocoy National Park",
    "cat": "nationalPark",
    "lon": -68.306,
    "lat": 10.856
  },
  {
    "wikiId": "Q4056818",
    "name": "Aghgol National Park",
    "cat": "nationalPark",
    "lon": 47.65,
    "lat": 40.00916667
  },
  {
    "wikiId": "Q4058060",
    "name": "Ajar Valley National Park",
    "cat": "nationalPark",
    "lon": 67,
    "lat": 34
  },
  {
    "wikiId": "Q4068343",
    "name": "Absheron National Park",
    "cat": "nationalPark",
    "lon": 50.35944444,
    "lat": 40.28361111
  },
  {
    "wikiId": "Q4068420",
    "name": "Araguaia National Park",
    "cat": "nationalPark",
    "lon": -50.167,
    "lat": -10.5
  },
  {
    "wikiId": "Q4095233",
    "name": "Bowen Island National Park Reserve",
    "cat": "nationalPark",
    "lon": -123.3833333,
    "lat": 49.38333333
  },
  {
    "wikiId": "Q4098508",
    "name": "Buiratau National Park",
    "cat": "nationalPark",
    "lon": 73.33333334,
    "lat": 51.33333334
  },
  {
    "wikiId": "Q4099294",
    "name": "Burabay National Park",
    "cat": "nationalPark",
    "lon": 70.30000001,
    "lat": 53.08333334
  },
  {
    "wikiId": "Q4121671",
    "name": "Axios-Loudias-Aliakmonas Delta National Park",
    "cat": "nationalPark",
    "lon": 22.666263,
    "lat": 40.509713
  },
  {
    "wikiId": "Q4175950",
    "name": "Juan Castro Blanco National Park",
    "cat": "nationalPark",
    "lon": -84.3293288,
    "lat": 10.2857034
  },
  {
    "wikiId": "Q4181072",
    "name": "Zhongar-Alatau National Park",
    "cat": "nationalPark",
    "lon": 80,
    "lat": 45
  },
  {
    "wikiId": "Q4199195",
    "name": "Ile-Alatau National Park",
    "cat": "nationalPark",
    "lon": 77.166666666,
    "lat": 43.066666666
  },
  {
    "wikiId": "Q4208325",
    "name": "Qazinag National Park",
    "cat": "nationalPark",
    "lon": 74.033333,
    "lat": 34.166667
  },
  {
    "wikiId": "Q4217451",
    "name": "Katon-Karagay National Park",
    "cat": "nationalPark",
    "lon": 86.445923,
    "lat": 49.26422
  },
  {
    "wikiId": "Q4227524",
    "name": "Kokshetau National Park",
    "cat": "nationalPark",
    "lon": 68.46817,
    "lat": 52.886535
  },
  {
    "wikiId": "Q4228940",
    "name": "Kolsay Lakes National Park",
    "cat": "nationalPark",
    "lon": 78.4,
    "lat": 42.933333333
  },
  {
    "wikiId": "Q4280157",
    "name": "Royal Manas National Park",
    "cat": "nationalPark",
    "lon": 90.75805556,
    "lat": 26.89944444
  },
  {
    "wikiId": "Q4313531",
    "name": "Naryn Nature Reserve",
    "cat": "nationalPark",
    "lon": 76.5863353,
    "lat": 41.430665
  },
  {
    "wikiId": "Q4315024",
    "name": "Las Baulas National Marine Park",
    "cat": "nationalPark",
    "lon": -85.865,
    "lat": 10.318
  },
  {
    "wikiId": "Q4350416",
    "name": "Botum Sakor National Park",
    "cat": "nationalPark",
    "lon": 103.24969205,
    "lat": 11.11553035
  },
  {
    "wikiId": "Q4351267",
    "name": "Langtang National Park",
    "cat": "nationalPark",
    "lon": 85.5531,
    "lat": 28.1738
  },
  {
    "wikiId": "Q4351857",
    "name": "Parsa National Park",
    "cat": "nationalPark",
    "lon": 84.33333333,
    "lat": 27.46666667
  },
  {
    "wikiId": "Q4405258",
    "name": "Sayram-Ugam National Park",
    "cat": "nationalPark",
    "lon": 70.05,
    "lat": 41.95
  },
  {
    "wikiId": "Q4420168",
    "name": "Synevyr National Nature Park",
    "cat": "nationalPark",
    "lon": 23.7,
    "lat": 48.5
  },
  {
    "wikiId": "Q4499886",
    "name": "Khorgo-Terkhiin Tsagaan Nuur National Park",
    "cat": "nationalPark",
    "lon": 99.72222222,
    "lat": 48.17083333
  },
  {
    "wikiId": "Q4502059",
    "name": "Barbilla National Park",
    "cat": "nationalPark",
    "lon": -83.42,
    "lat": 9.942
  },
  {
    "wikiId": "Q4503069",
    "name": "Tsambagarav Uul National Park",
    "cat": "nationalPark",
    "lon": 90.96,
    "lat": 48.671
  },
  {
    "wikiId": "Q4507523",
    "name": "Charyn National Park",
    "cat": "nationalPark",
    "lon": 79.06963,
    "lat": 43.35015
  },
  {
    "wikiId": "Q4524236",
    "name": "Shirvan National Park",
    "cat": "nationalPark",
    "lon": 49.01555556,
    "lat": 39.5475
  },
  {
    "wikiId": "Q4551358",
    "name": "Tenorio Volcano National Park",
    "cat": "nationalPark",
    "lon": -85,
    "lat": 10.666666666
  },
  {
    "wikiId": "Q4551539",
    "name": "Piedras Blancas National Park",
    "cat": "nationalPark",
    "lon": -83.261,
    "lat": 8.7
  },
  {
    "wikiId": "Q4552189",
    "name": "La Cangreja National Park",
    "cat": "nationalPark",
    "lon": -84.393333333,
    "lat": 9.649444444
  },
  {
    "wikiId": "Q4552264",
    "name": "Tapantí National Park",
    "cat": "nationalPark",
    "lon": -83.799722222,
    "lat": 9.770555555
  },
  {
    "wikiId": "Q4552273",
    "name": "Turrialba Volcano National Park",
    "cat": "nationalPark",
    "lon": -83.77,
    "lat": 10.03
  },
  {
    "wikiId": "Q4692149",
    "name": "Quill/Boven National Park",
    "cat": "nationalPark",
    "lon": -62.96,
    "lat": 17.47805556
  },
  {
    "wikiId": "Q4704751",
    "name": "Al Saleel National Park",
    "cat": "nationalPark",
    "lon": 59.197,
    "lat": 22.363
  },
  {
    "wikiId": "Q4708857",
    "name": "Alaungdaw Kathapa National Park",
    "cat": "nationalPark",
    "lon": 95.53333333,
    "lat": 23.6
  },
  {
    "wikiId": "Q4736972",
    "name": "Altos de Nsork National Park",
    "cat": "nationalPark",
    "lon": 11.12,
    "lat": 1.16
  },
  {
    "wikiId": "Q4744643",
    "name": "Cayambe Coca National Park",
    "cat": "nationalPark",
    "lon": -77.8,
    "lat": 0.05
  },
  {
    "wikiId": "Q4761937",
    "name": "Angammedilla National Park",
    "cat": "nationalPark",
    "lon": 80.93714167,
    "lat": 7.90117778
  },
  {
    "wikiId": "Q4778814",
    "name": "Aouk National Park",
    "cat": "nationalPark",
    "lon": 20.166666666,
    "lat": 9.833055555
  },
  {
    "wikiId": "Q4784468",
    "name": "Araucárias National Park",
    "cat": "nationalPark",
    "lon": -51.9675,
    "lat": -26.76472222
  },
  {
    "wikiId": "Q4822573",
    "name": "Aurora Memorial National Park",
    "cat": "nationalPark",
    "lon": 121.41666667,
    "lat": 15.46666667
  },
  {
    "wikiId": "Q4838578",
    "name": "Bacalar Chico National Park and Marine Reserve",
    "cat": "nationalPark",
    "lon": -87.863,
    "lat": 18.141
  },
  {
    "wikiId": "Q4841344",
    "name": "Bafing National Park",
    "cat": "nationalPark",
    "lon": -10.81666667,
    "lat": 13.8
  },
  {
    "wikiId": "Q4845575",
    "name": "Turuepano National Park",
    "cat": "nationalPark",
    "lon": -62.9036544,
    "lat": 10.451939
  },
  {
    "wikiId": "Q4845588",
    "name": "Delta del Orinoco National Park",
    "cat": "nationalPark",
    "lon": -61.475206,
    "lat": 9.8058587
  },
  {
    "wikiId": "Q4845589",
    "name": "El Guache National Park",
    "cat": "nationalPark",
    "lon": -69.5615,
    "lat": 9.572388888
  },
  {
    "wikiId": "Q4845607",
    "name": "Cerro El Copey National Park",
    "cat": "nationalPark",
    "lon": -63.8864207,
    "lat": 11.0088427
  },
  {
    "wikiId": "Q4845608",
    "name": "El Tamá National Park",
    "cat": "nationalPark",
    "lon": -72.189,
    "lat": 7.54079
  },
  {
    "wikiId": "Q4845612",
    "name": "Juan Crisóstomo Falcón National Park",
    "cat": "nationalPark",
    "lon": -69.6899,
    "lat": 11.1499
  },
  {
    "wikiId": "Q4845613",
    "name": "Laguna de Tacarigua National Park",
    "cat": "nationalPark",
    "lon": -65.85,
    "lat": 10.26666667
  },
  {
    "wikiId": "Q4845614",
    "name": "General Juan Pablo Peñaloza National Park",
    "cat": "nationalPark",
    "lon": -71.95,
    "lat": 7.98333333
  },
  {
    "wikiId": "Q4845616",
    "name": "Chorro El Indio National Park",
    "cat": "nationalPark",
    "lon": -72.35523,
    "lat": 8.568591111
  },
  {
    "wikiId": "Q4845617",
    "name": "Guatopo National Park",
    "cat": "nationalPark",
    "lon": -66.416528,
    "lat": 10.076361
  },
  {
    "wikiId": "Q4845618",
    "name": "Yacambú National Park",
    "cat": "nationalPark",
    "lon": -69.66666667,
    "lat": 9.63333333
  },
  {
    "wikiId": "Q4845620",
    "name": "Yurubí National Park",
    "cat": "nationalPark",
    "lon": -68.65925,
    "lat": 10.47875
  },
  {
    "wikiId": "Q4845626",
    "name": "Aguaro-Guariquito National Park",
    "cat": "nationalPark",
    "lon": -66.7,
    "lat": 8.28333333
  },
  {
    "wikiId": "Q4845652",
    "name": "Duida-Marahuaca National Park",
    "cat": "nationalPark",
    "lon": -65.4232408,
    "lat": 3.6530517
  },
  {
    "wikiId": "Q4845690",
    "name": "Tapo-Caparo National Park",
    "cat": "nationalPark",
    "lon": -71.85,
    "lat": 7.86666667
  },
  {
    "wikiId": "Q4845694",
    "name": "Terepaima National Park",
    "cat": "nationalPark",
    "lon": -69.26666667,
    "lat": 9.86666667
  },
  {
    "wikiId": "Q4845696",
    "name": "Macarao National Park",
    "cat": "nationalPark",
    "lon": -67.032780555,
    "lat": 10.425561111
  },
  {
    "wikiId": "Q4845697",
    "name": "Río Viejo San Camilo National Park",
    "cat": "nationalPark",
    "lon": -72.06666667,
    "lat": 7.5
  },
  {
    "wikiId": "Q4845725",
    "name": "Dinira National Park",
    "cat": "nationalPark",
    "lon": -70.171587833,
    "lat": 9.430782
  },
  {
    "wikiId": "Q4845766",
    "name": "El Guacharo National Park",
    "cat": "nationalPark",
    "lon": -63.553853611,
    "lat": 10.171760388
  },
  {
    "wikiId": "Q4855656",
    "name": "Banhine National Park",
    "cat": "nationalPark",
    "lon": 32.80848,
    "lat": -22.748599
  },
  {
    "wikiId": "Q4868577",
    "name": "Batang Ai National Park",
    "cat": "nationalPark",
    "lon": 111.88333333,
    "lat": 1.13333333
  },
  {
    "wikiId": "Q4869860",
    "name": "Battery Kemble Park",
    "cat": "nationalPark",
    "lon": -77.095555555,
    "lat": 38.930277777
  },
  {
    "wikiId": "Q6744949",
    "name": "Maludam National Park",
    "cat": "nationalPark",
    "lon": 111.092,
    "lat": 1.549
  },
  {
    "wikiId": "Q6753039",
    "name": "Ein Hinya",
    "cat": "nationalPark",
    "lon": 35.1566845,
    "lat": 31.7435417
  },
  {
    "wikiId": "Q6799652",
    "name": "Mbaéré Bodingué National Park",
    "cat": "nationalPark",
    "lon": 17.166666666,
    "lat": 3.833333333
  },
  {
    "wikiId": "Q6817116",
    "name": "Menissawok National Park",
    "cat": "nationalPark",
    "lon": -109.45,
    "lat": 49.7724
  },
  {
    "wikiId": "Q6870388",
    "name": "Białowieża National Park",
    "cat": "nationalPark",
    "lon": 23.866666666,
    "lat": 52.766666666
  },
  {
    "wikiId": "Q6879409",
    "name": "Missolonghi–Aitoliko Lagoons",
    "cat": "nationalPark",
    "lon": 21.358,
    "lat": 38.387
  },
  {
    "wikiId": "Q6897052",
    "name": "Mombasa Marine National Park and Reserve",
    "cat": "nationalPark",
    "lon": 39.78333333,
    "lat": -4.06666667
  },
  {
    "wikiId": "Q6904514",
    "name": "Montaña Santa Bárbara National Park",
    "cat": "nationalPark",
    "lon": -88.13166667,
    "lat": 14.91555556
  },
  {
    "wikiId": "Q6904518",
    "name": "Montaña de Comayagua National Park",
    "cat": "nationalPark",
    "lon": -87.5114,
    "lat": 14.4947
  },
  {
    "wikiId": "Q6904522",
    "name": "Montaña de Yoro National Park",
    "cat": "nationalPark",
    "lon": -87.07222222,
    "lat": 15.00472222
  },
  {
    "wikiId": "Q6904640",
    "name": "Monte Alén National Park",
    "cat": "nationalPark",
    "lon": 10.11,
    "lat": 1.53
  },
  {
    "wikiId": "Q6904743",
    "name": "Monte Cristi National Park",
    "cat": "nationalPark",
    "lon": -71.702271,
    "lat": 19.777042
  },
  {
    "wikiId": "Q6905054",
    "name": "Montecristo National Park",
    "cat": "nationalPark",
    "lon": -89.32555556,
    "lat": 14.44194444
  },
  {
    "wikiId": "Q6912732",
    "name": "Morne Diablotin National Park",
    "cat": "nationalPark",
    "lon": -61.4,
    "lat": 15.5
  },
  {
    "wikiId": "Q6918943",
    "name": "Moukalaba-Doudou National Park",
    "cat": "nationalPark",
    "lon": 10.42,
    "lat": -2.43
  },
  {
    "wikiId": "Q6924442",
    "name": "Mount Victoria National Park",
    "cat": "nationalPark",
    "lon": 93.9,
    "lat": 21.23333333
  },
  {
    "wikiId": "Q6958106",
    "name": "Naejangsan National Park",
    "cat": "nationalPark",
    "lon": 126.896,
    "lat": 35.432
  },
  {
    "wikiId": "Q6966637",
    "name": "Nascentes do Rio Parnaíba National Park",
    "cat": "nationalPark",
    "lon": -45.9,
    "lat": -10.05
  },
  {
    "wikiId": "Q6979310",
    "name": "National Vigilance Park",
    "cat": "nationalPark",
    "lon": -76.7748,
    "lat": 39.1119
  },
  {
    "wikiId": "Q6991182",
    "name": "Nemiskam National Park",
    "cat": "nationalPark",
    "lon": -111.417,
    "lat": 49.5392
  },
  {
    "wikiId": "Q7054706",
    "name": "North Cascades National Park Complex",
    "cat": "nationalPark",
    "lon": -121,
    "lat": 48.3333
  },
  {
    "wikiId": "Q7054789",
    "name": "Yehudiya Forest Nature Reserve",
    "cat": "nationalPark",
    "lon": 35.6897023,
    "lat": 32.939104
  },
  {
    "wikiId": "Q7077223",
    "name": "Odaesan National Park",
    "cat": "nationalPark",
    "lon": 128.54305556,
    "lat": 37.79527778
  },
  {
    "wikiId": "Q7081927",
    "name": "Okeluse Forest Reserve",
    "cat": "nationalPark",
    "lon": 5.586862886,
    "lat": 6.787679889
  },
  {
    "wikiId": "Q7088873",
    "name": "Oluwa Forest Reserve",
    "cat": "nationalPark",
    "lon": 4.674,
    "lat": 6.823
  },
  {
    "wikiId": "Q7099832",
    "name": "Orango Islands National Park",
    "cat": "nationalPark",
    "lon": -16.13805,
    "lat": 11.06582
  },
  {
    "wikiId": "Q7131944",
    "name": "Pantuwaraya Lake National Park",
    "cat": "nationalPark",
    "lon": 124.48333333,
    "lat": 7.98333333
  },
  {
    "wikiId": "Q7139657",
    "name": "Parque Nacional Del Este",
    "cat": "nationalPark",
    "lon": -68.68,
    "lat": 18.16
  },
  {
    "wikiId": "Q7148751",
    "name": "Patuca National Park",
    "cat": "nationalPark",
    "lon": -85.44638889,
    "lat": 14.43194444
  },
  {
    "wikiId": "Q7148813",
    "name": "Pau Brasil National Park",
    "cat": "nationalPark",
    "lon": -39.264444444,
    "lat": -16.4975
  },
  {
    "wikiId": "Q7156798",
    "name": "Payne's Creek National Park",
    "cat": "nationalPark",
    "lon": -88.577,
    "lat": 16.327
  },
  {
    "wikiId": "Q7162231",
    "name": "Penang National Park",
    "cat": "nationalPark",
    "lon": 100.2039,
    "lat": 5.4607
  },
  {
    "wikiId": "Q7190130",
    "name": "Eshkol National Park",
    "cat": "nationalPark",
    "lon": 34.4895,
    "lat": 31.3081
  },
  {
    "wikiId": "Q7193301",
    "name": "Pigeon Island National Park",
    "cat": "nationalPark",
    "lon": 81.2,
    "lat": 8.716666666
  },
  {
    "wikiId": "Q7212122",
    "name": "Palmachim beach",
    "cat": "nationalPark",
    "lon": 34.700833333,
    "lat": 31.930277777
  },
  {
    "wikiId": "Q7227798",
    "name": "Pongara National Park",
    "cat": "nationalPark",
    "lon": 9.41666667,
    "lat": 0.38333333
  },
  {
    "wikiId": "Q7229106",
    "name": "Popa Mountain National Park",
    "cat": "nationalPark",
    "lon": 95.25,
    "lat": 20.91666667
  },
  {
    "wikiId": "Q7230907",
    "name": "Port Royal National Park",
    "cat": "nationalPark",
    "lon": -86.36666667,
    "lat": 16.39972222
  },
  {
    "wikiId": "Q7253230",
    "name": "Kopaonik National Park",
    "cat": "nationalPark",
    "lon": 20.81250001,
    "lat": 43.28527779
  },
  {
    "wikiId": "Q7258470",
    "name": "Pueblo Viejo National Park",
    "cat": "nationalPark",
    "lon": -70.5442,
    "lat": 19.2936
  },