[
  {
    "wikiId": "Q18091",
    "name": "Streif",
    "cat": "skiSlope",
    "lon": 12.3653,
    "lat": 47.4242
  },
  {
    "wikiId": "Q327818",
    "name": "Kandahar Downhill Piste",
    "cat": "skiSlope",
    "lon": 11.0631,
    "lat": 47.4708
  },
  {
    "wikiId": "Q548895",
    "name": "Ganslernhang",
    "cat": "skiSlope",
    "lon": 12.3793,
    "lat": 47.4425
  },
  {
    "wikiId": "Q865094",
    "name": "Birds of Prey",
    "cat": "skiSlope",
    "lon": -106.523,
    "lat": 39.583
  },
  {
    "wikiId": "Q872133",
    "name": "Harakiri",
    "cat": "skiSlope",
    "lon": 11.8053,
    "lat": 47.1725
  },
  {
    "wikiId": "Q931193",
    "name": "Gran Risa",
    "cat": "skiSlope",
    "lon": 11.9007,
    "lat": 46.59093
  },
  {
    "wikiId": "Q1032738",
    "name": "Canalone Miramonti",
    "cat": "skiSlope",
    "lon": 10.821919,
    "lat": 46.231198
  },
  {
    "wikiId": "Q1591399",
    "name": "Piste Oreiller-Killy",
    "cat": "skiSlope",
    "lon": 6.951861,
    "lat": 45.442292
  },
  {
    "wikiId": "Q1688590",
    "name": "Planai",
    "cat": "skiSlope",
    "lon": 13.69455556,
    "lat": 47.39261111
  },
  {
    "wikiId": "Q1799263",
    "name": "Face de Bellevarde",
    "cat": "skiSlope",
    "lon": 6.97361111,
    "lat": 45.44527778
  },
  {
    "wikiId": "Q1807156",
    "name": "Lauberhorn (downhill ski course)",
    "cat": "skiSlope",
    "lon": 7.94833,
    "lat": 46.5917
  },
  {
    "wikiId": "Q2019856",
    "name": "Olimpia delle Tofane",
    "cat": "skiSlope",
    "lon": 12.120306,
    "lat": 46.534917
  },
  {
    "wikiId": "Q2225705",
    "name": "Saslong",
    "cat": "skiSlope",
    "lon": 11.73,
    "lat": 46.55666667
  },
  {
    "wikiId": "Q2944974",
    "name": "Madrid Xanadú",
    "cat": "skiSlope",
    "lon": -3.9275,
    "lat": 40.29916667
  },
  {
    "wikiId": "Q5169721",
    "name": "Corbet's Couloir",
    "cat": "skiSlope",
    "lon": -110.868,
    "lat": 43.5961
  },
  {
    "wikiId": "Q7416426",
    "name": "Sandnes Alpine Center",
    "cat": "skiSlope",
    "lon": 29.9289,
    "lat": 69.6721
  },
  {
    "wikiId": "Q15815286",
    "name": "Q15815286",
    "cat": "skiSlope",
    "lon": 13.38566685,
    "lat": 47.34166718
  },
  {
    "wikiId": "Q18287608",
    "name": "Q18287608",
    "cat": "skiSlope",
    "lon": 15.571666666,
    "lat": 57.305555555
  },
  {
    "wikiId": "Q18680850",
    "name": "Levi Black",
    "cat": "skiSlope",
    "lon": 24.824722,
    "lat": 67.786667
  },
  {
    "wikiId": "Q18712904",
    "name": "Q18712904",
    "cat": "skiSlope",
    "lon": 10.485277777,
    "lat": 46.414722222
  },
  {
    "wikiId": "Q19951214",
    "name": "Piste de la Sarra",
    "cat": "skiSlope",
    "lon": 4.81621,
    "lat": 45.7644
  },
  {
    "wikiId": "Q20379654",
    "name": "Kälberloch",
    "cat": "skiSlope",
    "lon": 13.456111,
    "lat": 47.29
  },
  {
    "wikiId": "Q20379687",
    "name": "Q20379687",
    "cat": "skiSlope",
    "lon": -106.823333333,
    "lat": 39.185277777
  },
  {
    "wikiId": "Q20917876",
    "name": "Podkoren",
    "cat": "skiSlope",
    "lon": 13.7564309,
    "lat": 46.4888201
  },
  {
    "wikiId": "Q21001128",
    "name": "Rettenbach",
    "cat": "skiSlope",
    "lon": 10.929752777,
    "lat": 46.943072222
  },
  {
    "wikiId": "Q23869435",
    "name": "Schlossberg (ski course)",
    "cat": "skiSlope",
    "lon": 12.752778,
    "lat": 46.83
  },
  {
    "wikiId": "Q23869454",
    "name": "Corviglia",
    "cat": "skiSlope",
    "lon": 9.801389,
    "lat": 46.504722
  },
  {
    "wikiId": "Q23869551",
    "name": "Antikkala ski slope",
    "cat": "skiSlope",
    "lon": 27.67027778,
    "lat": 62.91611111
  },
  {
    "wikiId": "Q28721211",
    "name": "Q28721211",
    "cat": "skiSlope",
    "lon": 23.438333333,
    "lat": 41.777777777
  },
  {
    "wikiId": "Q28721833",
    "name": "Q28721833",
    "cat": "skiSlope",
    "lon": 18.111111111,
    "lat": 59.300833333
  },
  {
    "wikiId": "Q31087476",
    "name": "Q31087476",
    "cat": "skiSlope",
    "lon": -80.321111111,
    "lat": 44.502222222
  },
  {
    "wikiId": "Q33141459",
    "name": "Mount Gilboa",
    "cat": "skiSlope",
    "lon": -93.367222222,
    "lat": 44.840277777
  },
  {
    "wikiId": "Q60196975",
    "name": "Q60196975",
    "cat": "skiSlope",
    "lon": 12.278194444,
    "lat": 46.729444444
  },
  {
    "wikiId": "Q60809883",
    "name": "Q60809883",
    "cat": "skiSlope",
    "lon": -114.213888888,
    "lat": 51.078333333
  },
  {
    "wikiId": "Q65246793",
    "name": "Q65246793",
    "cat": "skiSlope",
    "lon": 1.650833333,
    "lat": 42.575
  },
  {
    "wikiId": "Q83480057",
    "name": "Mighty Peace",
    "cat": "skiSlope",
    "lon": -115.157777777,
    "lat": 50.944583333
  },
  {
    "wikiId": "Q100741603",
    "name": "Rudträsk slope",
    "cat": "skiSlope",
    "lon": 23.143166666,
    "lat": 65.877666666
  },
  {
    "wikiId": "Q101248206",
    "name": "Flexenarena",
    "cat": "skiSlope",
    "lon": 10.166744444,
    "lat": 47.167655555
  },
  {
    "wikiId": "Q102351109",
    "name": "Q102351109",
    "cat": "skiSlope",
    "lon": 16.57317,
    "lat": 49.2039
  },
  {
    "wikiId": "Q104782064",
    "name": "Erta",
    "cat": "skiSlope",
    "lon": 11.922737,
    "lat": 46.69952
  },
  {
    "wikiId": "Q108783598",
    "name": "Q108783598",
    "cat": "skiSlope",
    "lon": 16.15,
    "lat": 61.717222222
  },
  {
    "wikiId": "Q110952832",
    "name": "Rock",
    "cat": "skiSlope",
    "lon": 115.803,
    "lat": 40.542
  },
  {
    "wikiId": "Q113004861",
    "name": "Q113004861",
    "cat": "skiSlope",
    "lon": 9.122434848,
    "lat": 49.376548584
  },
  {
    "wikiId": "Q113565534",
    "name": "Sport Dolina",
    "cat": "skiSlope",
    "lon": 18.858472222,
    "lat": 50.402694444
  }
]