[
  {
    "wikiId": "Q1330927",
    "name": "Puracé",
    "cat": "volcano",
    "lon": -76.394166666,
    "lat": 2.314166666
  },
  {
    "wikiId": "Q1340711",
    "name": "Mehetia",
    "cat": "volcano",
    "lon": -148.066666666,
    "lat": -17.866666666
  },
  {
    "wikiId": "Q1361324",
    "name": "Socorro Island",
    "cat": "volcano",
    "lon": -110.975,
    "lat": 18.784444444
  },
  {
    "wikiId": "Q1373738",
    "name": "Mount Suribachi",
    "cat": "volcano",
    "lon": 141.287783333,
    "lat": 24.749030555
  },
  {
    "wikiId": "Q1374413",
    "name": "Teneguía",
    "cat": "volcano",
    "lon": -17.85166667,
    "lat": 28.47333333
  },
  {
    "wikiId": "Q1376373",
    "name": "Volcán Wolf",
    "cat": "volcano",
    "lon": -91.333333333,
    "lat": 0.033333333
  },
  {
    "wikiId": "Q1377333",
    "name": "Mount Osore",
    "cat": "volcano",
    "lon": 141.12,
    "lat": 41.279
  },
  {
    "wikiId": "Q1411801",
    "name": "Horns of Hattin",
    "cat": "volcano",
    "lon": 35.459722222,
    "lat": 32.799722222
  },
  {
    "wikiId": "Q1413846",
    "name": "Hengill",
    "cat": "volcano",
    "lon": -21.313611111,
    "lat": 64.085555555
  },
  {
    "wikiId": "Q1417843",
    "name": "Hanish Islands",
    "cat": "volcano",
    "lon": 42.75,
    "lat": 13.75
  },
  {
    "wikiId": "Q1420308",
    "name": "Juriques",
    "cat": "volcano",
    "lon": -67.8392,
    "lat": -22.8475
  },
  {
    "wikiId": "Q1422715",
    "name": "Rangitoto Island",
    "cat": "volcano",
    "lon": 174.860115,
    "lat": -36.786742
  },
  {
    "wikiId": "Q1424979",
    "name": "Alcedo Volcano",
    "cat": "volcano",
    "lon": -91.109104,
    "lat": -0.396583
  },
  {
    "wikiId": "Q1427939",
    "name": "Fonualei",
    "cat": "volcano",
    "lon": -174.325,
    "lat": -18.024
  },
  {
    "wikiId": "Q1436026",
    "name": "Q1436026",
    "cat": "volcano",
    "lon": 81.64972222,
    "lat": 35.70111111
  },
  {
    "wikiId": "Q1472301",
    "name": "Uranius Mons",
    "cat": "volcano",
    "lon": null,
    "lat": null
  },
  {
    "wikiId": "Q1473902",
    "name": "Sapas Mons",
    "cat": "volcano",
    "lon": null,
    "lat": null
  },
  {
    "wikiId": "Q1474799",
    "name": "Torfajökull",
    "cat": "volcano",
    "lon": -19.009708333,
    "lat": 63.881544444
  },
  {
    "wikiId": "Q1478289",
    "name": "Tupan Patera",
    "cat": "volcano",
    "lon": null,
    "lat": null
  },
  {
    "wikiId": "Q1478849",
    "name": "Incahuasi",
    "cat": "volcano",
    "lon": -68.3,
    "lat": -27.033333333
  },
  {
    "wikiId": "Q1515751",
    "name": "Caldeira das Sete Cidades",
    "cat": "volcano",
    "lon": -25.786166666,
    "lat": 37.855194444
  },
  {
    "wikiId": "Q1535333",
    "name": "Marmolejo",
    "cat": "volcano",
    "lon": -69.864514,
    "lat": -33.717129
  },
  {
    "wikiId": "Q1535776",
    "name": "Morne Watt",
    "cat": "volcano",
    "lon": -61.305,
    "lat": 15.307
  },
  {
    "wikiId": "Q1545699",
    "name": "Grensdalur",
    "cat": "volcano",
    "lon": -21.190626,
    "lat": 64.04649
  },
  {
    "wikiId": "Q1550157",
    "name": "Late",
    "cat": "volcano",
    "lon": -174.65,
    "lat": -18.8
  },
  {
    "wikiId": "Q1551586",
    "name": "Grímsnes",
    "cat": "volcano",
    "lon": -20.889444444,
    "lat": 64.036666666
  },
  {
    "wikiId": "Q1552026",
    "name": "Tacora",
    "cat": "volcano",
    "lon": -69.766666666,
    "lat": -17.716666666
  },
  {
    "wikiId": "Q1554199",
    "name": "Gula Mons",
    "cat": "volcano",
    "lon": null,
    "lat": null
  },
  {
    "wikiId": "Q1573932",
    "name": "Tau",
    "cat": "volcano",
    "lon": -170.72806,
    "lat": -14.31778
  },
  {
    "wikiId": "Q1575468",
    "name": "Volcán San Pedro",
    "cat": "volcano",
    "lon": -91.265833333,
    "lat": 14.655833333
  },
  {
    "wikiId": "Q1582571",
    "name": "Mount Parker",
    "cat": "volcano",
    "lon": 124.88972222,
    "lat": 6.11416667
  },
  {
    "wikiId": "Q1584353",
    "name": "Har Bnei Rasan",
    "cat": "volcano",
    "lon": 35.833888888,
    "lat": 33.081944444
  },
  {
    "wikiId": "Q1586649",
    "name": "Yate",
    "cat": "volcano",
    "lon": -72.400277777,
    "lat": -41.758888888
  },
  {
    "wikiId": "Q1628555",
    "name": "Hornopirén",
    "cat": "volcano",
    "lon": -72.431388888,
    "lat": -41.874444444
  },
  {
    "wikiId": "Q1630952",
    "name": "Patomskiy crater",
    "cat": "volcano",
    "lon": 116.58944444,
    "lat": 59.28472222
  },
  {
    "wikiId": "Q1631727",
    "name": "Ofu-Olosega",
    "cat": "volcano",
    "lon": -169.616666666,
    "lat": -14.166666666
  },
  {
    "wikiId": "Q1632346",
    "name": "Hrafnabjörg",
    "cat": "volcano",
    "lon": -20.921597,
    "lat": 64.272593
  },
  {
    "wikiId": "Q1638935",
    "name": "Jabuka",
    "cat": "volcano",
    "lon": 15.460098888,
    "lat": 43.091813888
  },
  {
    "wikiId": "Q1639195",
    "name": "Mount Mikeno",
    "cat": "volcano",
    "lon": 29.41681722,
    "lat": -1.46276833
  },
  {
    "wikiId": "Q1641276",
    "name": "Quilotoa",
    "cat": "volcano",
    "lon": -78.897286111,
    "lat": -0.861194444
  },
  {
    "wikiId": "Q1648022",
    "name": "Vulcano",
    "cat": "volcano",
    "lon": 14.962,
    "lat": 38.404
  },
  {
    "wikiId": "Q1672472",
    "name": "Irazú Volcano",
    "cat": "volcano",
    "lon": -83.8525,
    "lat": 9.979166666
  },
  {
    "wikiId": "Q1673747",
    "name": "Mount Isarog",
    "cat": "volcano",
    "lon": 123.373333333,
    "lat": 13.659166666
  },
  {
    "wikiId": "Q1730511",
    "name": "Randecker Maar",
    "cat": "volcano",
    "lon": 9.523,
    "lat": 48.5742
  },
  {
    "wikiId": "Q1738211",
    "name": "Keli Mutubuurai",
    "cat": "volcano",
    "lon": 121.82,
    "lat": -8.77
  },
  {
    "wikiId": "Q1738398",
    "name": "Keluo",
    "cat": "volcano",
    "lon": 125.92,
    "lat": 49.37
  },
  {
    "wikiId": "Q1739281",
    "name": "Kerlingarfjöll",
    "cat": "volcano",
    "lon": -19.25,
    "lat": 64.65
  },
  {
    "wikiId": "Q1751428",
    "name": "Prometheus",
    "cat": "volcano",
    "lon": null,
    "lat": null
  },
  {
    "wikiId": "Q1752870",
    "name": "Volcán Tacaná",
    "cat": "volcano",
    "lon": -92.1058,
    "lat": 15.1334
  },
  {
    "wikiId": "Q1754806",
    "name": "Mount Ontake",
    "cat": "volcano",
    "lon": 137.480277777,
    "lat": 35.892777777
  },
  {
    "wikiId": "Q1769276",
    "name": "Nevado San Francisco",
    "cat": "volcano",
    "lon": -68.263055555,
    "lat": -26.918333333
  },
  {
    "wikiId": "Q1781665",
    "name": "Mont Marion-Dufresne",
    "cat": "volcano",
    "lon": 52.256944444,
    "lat": -46.416388888
  },
  {
    "wikiId": "Q1783754",
    "name": "Kuwae",
    "cat": "volcano",
    "lon": 168.536111111,
    "lat": -16.829166666
  },
  {
    "wikiId": "Q1787964",
    "name": "Krenitsyn Volcano",
    "cat": "volcano",
    "lon": 154.705277777,
    "lat": 49.353055555
  },
  {
    "wikiId": "Q1790072",
    "name": "Mount Okmok",
    "cat": "volcano",
    "lon": -168.166111111,
    "lat": 53.396944444
  },
  {
    "wikiId": "Q1790653",
    "name": "Cerro Bayo Complex",
    "cat": "volcano",
    "lon": -68.583333333,
    "lat": -25.416666666
  },
  {
    "wikiId": "Q1800511",
    "name": "Laguna Aramuaca",
    "cat": "volcano",
    "lon": -88.105,
    "lat": 13.428055555
  },
  {
    "wikiId": "Q1827535",
    "name": "Poike",
    "cat": "volcano",
    "lon": -109.25505,
    "lat": -27.105322222
  },
  {
    "wikiId": "Q1869504",
    "name": "Longgang volcano group",
    "cat": "volcano",
    "lon": 126.5,
    "lat": 42.33333333
  },
  {
    "wikiId": "Q1869839",
    "name": "Lopevi",
    "cat": "volcano",
    "lon": 168.5,
    "lat": -16.833333333
  },
  {
    "wikiId": "Q1872082",
    "name": "Ndete Napu",
    "cat": "volcano",
    "lon": 121.78,
    "lat": -8.72
  },
  {
    "wikiId": "Q1880965",
    "name": "Volcán Tolimán",
    "cat": "volcano",
    "lon": -91.189166666,
    "lat": 14.6125
  },
  {
    "wikiId": "Q1891390",
    "name": "San Félix Island",
    "cat": "volcano",
    "lon": -80.0833,
    "lat": -26.2986
  },
  {
    "wikiId": "Q1894467",
    "name": "Marduk",
    "cat": "volcano",
    "lon": null,
    "lat": null
  },
  {
    "wikiId": "Q1896903",
    "name": "Nuevo Mundo volcano",
    "cat": "volcano",
    "lon": -66.478333333,
    "lat": -19.774166666
  },
  {
    "wikiId": "Q1945447",
    "name": "Mont Ross",
    "cat": "volcano",
    "lon": 69.5,
    "lat": -49.6
  },
  {
    "wikiId": "Q1945827",
    "name": "Q1945827",
    "cat": "volcano",
    "lon": -110.95,
    "lat": 18.78
  },
  {
    "wikiId": "Q1950449",
    "name": "Putauaki",
    "cat": "volcano",
    "lon": 176.8,
    "lat": -38.1
  },
  {
    "wikiId": "Q1950728",
    "name": "Rarotonga / Mount Smart",
    "cat": "volcano",
    "lon": 174.8125,
    "lat": -36.918333333
  },
  {
    "wikiId": "Q1950774",
    "name": "Mount Victoria, Auckland",
    "cat": "volcano",
    "lon": 174.799,
    "lat": -36.8266
  },
  {
    "wikiId": "Q1952854",
    "name": "Krainy",
    "cat": "volcano",
    "lon": 159.033333333,
    "lat": 56.366666666
  },
  {
    "wikiId": "Q1964765",
    "name": "Mount Nantai",
    "cat": "volcano",
    "lon": 139.493888888,
    "lat": 36.761944444
  },
  {
    "wikiId": "Q1969482",
    "name": "Poás Volcano",
    "cat": "volcano",
    "lon": -84.2302979,
    "lat": 10.1978153
  },
  {
    "wikiId": "Q1983493",
    "name": "Newer Volcanics Province",
    "cat": "volcano",
    "lon": 142.5,
    "lat": -37.77
  },
  {
    "wikiId": "Q2003801",
    "name": "Bratan",
    "cat": "volcano",
    "lon": 115.133333333,
    "lat": -8.283333333
  },
  {
    "wikiId": "Q2019666",
    "name": "Cumbal",
    "cat": "volcano",
    "lon": -77.883333333,
    "lat": 0.955833333
  },
  {
    "wikiId": "Q2025111",
    "name": "Kozyrevsky",
    "cat": "volcano",
    "lon": 158.383333333,
    "lat": 55.583333333
  },
  {
    "wikiId": "Q2045381",
    "name": "Q2045381",
    "cat": "volcano",
    "lon": 155.45,
    "lat": 50.3
  },
  {
    "wikiId": "Q2065108",
    "name": "Mount Tehama",
    "cat": "volcano",
    "lon": -121.559427777,
    "lat": 40.445436111
  },
  {
    "wikiId": "Q2072520",
    "name": "Zavaritski Caldera",
    "cat": "volcano",
    "lon": 151.95,
    "lat": 46.916666666
  },
  {
    "wikiId": "Q2073703",
    "name": "Schmidt",
    "cat": "volcano",
    "lon": 160.63,
    "lat": 54.92
  },
  {
    "wikiId": "Q2080283",
    "name": "Goryashchaya Sopka",
    "cat": "volcano",
    "lon": 151.751388888,
    "lat": 46.831666666
  },
  {
    "wikiId": "Q2080294",
    "name": "Prevo Peak",
    "cat": "volcano",
    "lon": 152.115,
    "lat": 47.011111111
  },
  {
    "wikiId": "Q2087307",
    "name": "Lvinaya Past",
    "cat": "volcano",
    "lon": 146.993888888,
    "lat": 44.608333333
  },
  {
    "wikiId": "Q2091698",
    "name": "Volcán Tenorio",
    "cat": "volcano",
    "lon": -85.015,
    "lat": 10.672777777
  },
  {
    "wikiId": "Q2091943",
    "name": "Iettunup",
    "cat": "volcano",
    "lon": 161.066666666,
    "lat": 58.4
  },
  {
    "wikiId": "Q2092383",
    "name": "Pico viejo",
    "cat": "volcano",
    "lon": -16.664722222,
    "lat": 28.263888888
  },
  {
    "wikiId": "Q2105492",
    "name": "Mount Sukaria",
    "cat": "volcano",
    "lon": 121.77,
    "lat": -8.792
  },
  {
    "wikiId": "Q2108921",
    "name": "Sotará",
    "cat": "volcano",
    "lon": -76.591944444,
    "lat": 2.108055555
  },
  {
    "wikiId": "Q2118760",
    "name": "Purchas Hill",
    "cat": "volcano",
    "lon": 174.847,
    "lat": -36.8871
  },
  {
    "wikiId": "Q714605",
    "name": "Mount Bandai",
    "cat": "volcano",
    "lon": 140.072222222,
    "lat": 37.600833333
  },
  {
    "wikiId": "Q717453",
    "name": "Mount Tateshina",
    "cat": "volcano",
    "lon": 138.295,
    "lat": 36.103611111
  },
  {
    "wikiId": "Q747135",
    "name": "Grodczyn",
    "cat": "volcano",
    "lon": 16.333344444,
    "lat": 50.4142
  },
  {
    "wikiId": "Q747584",
    "name": "Macizo de Teno",
    "cat": "volcano",
    "lon": -16.85,
    "lat": 28.3
  },
  {
    "wikiId": "Q752994",
    "name": "Krafla",
    "cat": "volcano",
    "lon": -16.783333333,
    "lat": 65.733333333
  },
  {
    "wikiId": "Q753924",
    "name": "Pacaya",
    "cat": "volcano",
    "lon": -90.601111111,
    "lat": 14.380833333
  },
  {
    "wikiId": "Q757314",
    "name": "Atlasov Island",
    "cat": "volcano",
    "lon": 155.559444444,
    "lat": 50.859722222
  },
  {
    "wikiId": "Q758574",
    "name": "Aucanquilcha",
    "cat": "volcano",
    "lon": -68.466666666,
    "lat": -21.216666666
  },
  {
    "wikiId": "Q760819",
    "name": "Mount Popomanaseu",
    "cat": "volcano",
    "lon": 160.061944444,
    "lat": -9.703611111
  },
  {
    "wikiId": "Q765048",
    "name": "Loki Patera",
    "cat": "volcano",
    "lon": null,
    "lat": null
  },
  {
    "wikiId": "Q783798",
    "name": "Mount Cleveland",
    "cat": "volcano",
    "lon": -169.945,
    "lat": 52.822222222
  },
  {
    "wikiId": "Q791652",
    "name": "Avachinsky",
    "cat": "volcano",
    "lon": 158.832777777,
    "lat": 53.255
  },
  {
    "wikiId": "Q794264",
    "name": "Volcán Azufral",
    "cat": "volcano",
    "lon": -77.718758333,
    "lat": 1.085263888
  },
  {
    "wikiId": "Q797800",
    "name": "Babuyan Claro",
    "cat": "volcano",
    "lon": 121.94,
    "lat": 19.523333333
  },
  {
    "wikiId": "Q799818",
    "name": "Bagabag",
    "cat": "volcano",
    "lon": 146.233333333,
    "lat": -4.8
  },
  {
    "wikiId": "Q804039",
    "name": "Mount Bisoke",
    "cat": "volcano",
    "lon": 29.448333333,
    "lat": -1.511111111
  },
  {
    "wikiId": "Q804562",
    "name": "Bal Haf",
    "cat": "volcano",
    "lon": 48.333333333,
    "lat": 14.05
  },
  {
    "wikiId": "Q805832",
    "name": "Baluan Island",
    "cat": "volcano",
    "lon": 147.283333333,
    "lat": -2.55
  },
  {
    "wikiId": "Q805915",
    "name": "Bam",
    "cat": "volcano",
    "lon": 144.816666666,
    "lat": -3.616666666
  },
  {
    "wikiId": "Q806237",
    "name": "Banda Api",
    "cat": "volcano",
    "lon": 129.871388888,
    "lat": -4.525
  },
  {
    "wikiId": "Q807265",
    "name": "Baransky",
    "cat": "volcano",
    "lon": 148.015555555,
    "lat": 45.103333333
  },
  {
    "wikiId": "Q809722",
    "name": "Bas Dong Nai",
    "cat": "volcano",
    "lon": 107.2,
    "lat": 10.8
  },
  {
    "wikiId": "Q814113",
    "name": "Beerenberg",
    "cat": "volcano",
    "lon": -8.155880555,
    "lat": 71.079666666
  },
  {
    "wikiId": "Q829207",
    "name": "Berutarube",
    "cat": "volcano",
    "lon": 146.93163,
    "lat": 44.46131
  },
  {
    "wikiId": "Q839630",
    "name": "Koryaksky",
    "cat": "volcano",
    "lon": 158.683333333,
    "lat": 53.316666666
  },
  {
    "wikiId": "Q841189",
    "name": "El Chichón",
    "cat": "volcano",
    "lon": -93.227777777,
    "lat": 17.36
  },
  {
    "wikiId": "Q842154",
    "name": "Brennisteinsfjöll",
    "cat": "volcano",
    "lon": -21.833333333,
    "lat": 63.916666666
  },
  {
    "wikiId": "Q849364",
    "name": "Tunupa volcano",
    "cat": "volcano",
    "lon": -67.64,
    "lat": -19.83
  },
  {
    "wikiId": "Q851232",
    "name": "Mount Chiginagak",
    "cat": "volcano",
    "lon": -156.991388888,
    "lat": 57.133611111
  },
  {
    "wikiId": "Q858808",
    "name": "Osorno",
    "cat": "volcano",
    "lon": -72.493055555,
    "lat": -41.1
  },
  {
    "wikiId": "Q859376",
    "name": "Volcán de Fuego",
    "cat": "volcano",
    "lon": -90.880833333,
    "lat": 14.474722222
  },
  {
    "wikiId": "Q874092",
    "name": "Ciomad",
    "cat": "volcano",
    "lon": 25.88,
    "lat": 46.13
  },
  {
    "wikiId": "Q886940",
    "name": "Bláhnjúkur",
    "cat": "volcano",
    "lon": -19.0681,
    "lat": 63.9768
  },
  {
    "wikiId": "Q890128",
    "name": "Harrat Lunayyir",
    "cat": "volcano",
    "lon": 37.75,
    "lat": 25.17
  },
  {
    "wikiId": "Q906358",
    "name": "Volcán Maipo",
    "cat": "volcano",
    "lon": -69.832777777,
    "lat": -34.160555555
  },
  {
    "wikiId": "Q913722",
    "name": "Bridgeman Island",
    "cat": "volcano",
    "lon": -56.733333333,
    "lat": -62.066666666
  },
  {
    "wikiId": "Q928681",
    "name": "Mount Pico",
    "cat": "volcano",
    "lon": -28.40095,
    "lat": 38.467271
  },
  {
    "wikiId": "Q931485",
    "name": "Taapaca",
    "cat": "volcano",
    "lon": -69.5,
    "lat": -18.1
  },
  {
    "wikiId": "Q937167",
    "name": "Rano Raraku",
    "cat": "volcano",
    "lon": -109.43524,
    "lat": -27.18632
  },
  {
    "wikiId": "Q937424",
    "name": "Mentolat",
    "cat": "volcano",
    "lon": -73.075833333,
    "lat": -44.696666666
  },
  {
    "wikiId": "Q943045",
    "name": "Tupungatito",
    "cat": "volcano",
    "lon": -69.798055555,
    "lat": -33.423888888
  },
  {
    "wikiId": "Q955177",
    "name": "San Antonio",
    "cat": "volcano",
    "lon": -17.848244444,
    "lat": 28.485919444
  },
  {
    "wikiId": "Q969968",
    "name": "Silay",
    "cat": "volcano",
    "lon": 123.23333333,
    "lat": 10.76666667
  },
  {
    "wikiId": "Q978441",
    "name": "Jabal al-Tair Island",
    "cat": "volcano",
    "lon": 41.83,
    "lat": 15.54
  },
  {
    "wikiId": "Q989650",
    "name": "Mount Algidus",
    "cat": "volcano",
    "lon": 12.7786,
    "lat": 41.7267
  },
  {
    "wikiId": "Q991004",
    "name": "Broutona",
    "cat": "volcano",
    "lon": 150.733333333,
    "lat": 46.716666666
  },
  {
    "wikiId": "Q992791",
    "name": "Syrtis Major Planum",
    "cat": "volcano",
    "lon": null,
    "lat": null
  },
  {
    "wikiId": "Q999791",
    "name": "Buckle Island",
    "cat": "volcano",
    "lon": 163.25,
    "lat": -66.783333333
  },
  {
    "wikiId": "Q1020272",
    "name": "Búrfell",
    "cat": "volcano",
    "lon": -19.82777778,
    "lat": 64.08694444
  },
  {
    "wikiId": "Q1026302",
    "name": "Calbuco",
    "cat": "volcano",
    "lon": -72.611111111,
    "lat": -41.332777777
  },
  {
    "wikiId": "Q1028902",
    "name": "Camiguin de Babuyanes",
    "cat": "volcano",
    "lon": 121.86,
    "lat": 18.83333333
  },
  {
    "wikiId": "Q1034530",
    "name": "Capelinhos",
    "cat": "volcano",
    "lon": -28.831569444,
    "lat": 38.601322222
  },
  {
    "wikiId": "Q1037278",
    "name": "Agnano",
    "cat": "volcano",
    "lon": 14.14972222,
    "lat": 40.84472222
  },
  {
    "wikiId": "Q1047509",
    "name": "Mount Bental",
    "cat": "volcano",
    "lon": 35.7856,
    "lat": 33.1281
  },
  {
    "wikiId": "Q1048209",
    "name": "Floreana Island",
    "cat": "volcano",
    "lon": -90.434166666,
    "lat": -1.2975
  },
  {
    "wikiId": "Q1049619",
    "name": "Izalco",
    "cat": "volcano",
    "lon": -89.633333333,
    "lat": 13.813055555
  },
  {
    "wikiId": "Q1053880",
    "name": "Central Island",
    "cat": "volcano",
    "lon": 36.05,
    "lat": 3.5
  },
  {
    "wikiId": "Q1055787",
    "name": "Cerro Azul",
    "cat": "volcano",
    "lon": -70.760833333,
    "lat": -35.653333333
  },
  {
    "wikiId": "Q1055899",
    "name": "Mount Hudson",
    "cat": "volcano",
    "lon": -72.966666666,
    "lat": -45.916666666
  },
  {
    "wikiId": "Q1055937",
    "name": "Q1055937",
    "cat": "volcano",
    "lon": -67.415555555,
    "lat": -22.260833333
  },
  {
    "wikiId": "Q1056001",
    "name": "Cerro Verde",
    "cat": "volcano",
    "lon": -89.625277777,
    "lat": 13.827777777
  },
  {
    "wikiId": "Q1057979",
    "name": "Mount Tarumae",
    "cat": "volcano",
    "lon": 141.378055555,
    "lat": 42.69
  },
  {
    "wikiId": "Q1062516",
    "name": "Española Island",
    "cat": "volcano",
    "lon": -89.683333333,
    "lat": -1.366666666
  },
  {
    "wikiId": "Q1064098",
    "name": "Pinta Island",
    "cat": "volcano",
    "lon": -90.753588888,
    "lat": 0.5833
  },
  {
    "wikiId": "Q1067417",
    "name": "Mount Hakone",
    "cat": "volcano",
    "lon": 139.023888888,
    "lat": 35.23
  },
  {
    "wikiId": "Q1067452",
    "name": "Concepción",
    "cat": "volcano",
    "lon": -85.616666666,
    "lat": 11.533333333
  },
  {
    "wikiId": "Q1083948",
    "name": "Mount Serua",
    "cat": "volcano",
    "lon": 130,
    "lat": -6.3
  },
  {
    "wikiId": "Q1089657",
    "name": "Chupiquiña",
    "cat": "volcano",
    "lon": -69.8,
    "lat": -17.666666666
  },
  {
    "wikiId": "Q1112316",
    "name": "Jom-Bolok volcanic field",
    "cat": "volcano",
    "lon": 98.983333333,
    "lat": 52.7
  },
  {
    "wikiId": "Q1123218",
    "name": "Toba catastrophe theory",
    "cat": "volcano",
    "lon": 98.883333333,
    "lat": 2.566666666
  },
  {
    "wikiId": "Q1125445",
    "name": "Mount Tendürek",
    "cat": "volcano",
    "lon": 43.8743324,
    "lat": 39.3555574
  },
  {
    "wikiId": "Q1130741",
    "name": "Hveravellir",
    "cat": "volcano",
    "lon": -19.556676,
    "lat": 64.865296
  },
  {
    "wikiId": "Q1138683",
    "name": "Mount Mihara",
    "cat": "volcano",
    "lon": 139.394722222,
    "lat": 34.724444444
  },
  {
    "wikiId": "Q1139121",
    "name": "Gareloi Volcano",
    "cat": "volcano",
    "lon": -178.803055555,
    "lat": 51.786666666
  },
  {
    "wikiId": "Q1139840",
    "name": "Puntiagudo-Cordón Cenizos",
    "cat": "volcano",
    "lon": -72.263888888,
    "lat": -40.969444444
  },
  {
    "wikiId": "Q1140054",
    "name": "Kell",
    "cat": "volcano",
    "lon": 157.35,
    "lat": 51.65
  },
  {
    "wikiId": "Q1140202",
    "name": "Tvashtar Paterae",
    "cat": "volcano",
    "lon": null,
    "lat": null
  },
  {
    "wikiId": "Q1141849",
    "name": "Helgafell",
    "cat": "volcano",
    "lon": -20.2601,
    "lat": 63.4293
  },
  {
    "wikiId": "Q1143300",
    "name": "Cuicocha",
    "cat": "volcano",
    "lon": -78.362777777,
    "lat": 0.300555555
  },
  {
    "wikiId": "Q1143359",
    "name": "Culann Patera",
    "cat": "volcano",
    "lon": null,
    "lat": null
  },
  {
    "wikiId": "Q1147502",
    "name": "Marchena Island",
    "cat": "volcano",
    "lon": -90.5,
    "lat": 0.35
  },
  {
    "wikiId": "Q1157658",
    "name": "Daisetsuzan Volcanic Group",
    "cat": "volcano",
    "lon": 142.85,
    "lat": 43.65
  },
  {
    "wikiId": "Q1162021",
    "name": "Mount Masaraga",
    "cat": "volcano",
    "lon": 123.6,
    "lat": 13.310277777
  },
  {
    "wikiId": "Q1189723",
    "name": "Mount Gharat",
    "cat": "volcano",
    "lon": 167.517,
    "lat": -14.2839
  },
  {
    "wikiId": "Q1189752",
    "name": "Quetrupillán",
    "cat": "volcano",
    "lon": -71.7,
    "lat": -39.5
  },
  {
    "wikiId": "Q1195352",
    "name": "Pinzón Island",
    "cat": "volcano",
    "lon": -90.65,
    "lat": -0.6
  },
  {
    "wikiId": "Q1200515",
    "name": "Descabezado Grande",
    "cat": "volcano",
    "lon": -70.75,
    "lat": -35.583333333
  },
  {
    "wikiId": "Q1249309",
    "name": "Pantelleria Island",
    "cat": "volcano",
    "lon": 12,
    "lat": 36.783333333
  },
  {
    "wikiId": "Q25736",
    "name": "Volcano Kropotkin",
    "cat": "volcano",
    "lon": 99.000027777,
    "lat": 52.704077777
  },
  {
    "wikiId": "Q26546",
    "name": "Doña Juana",
    "cat": "volcano",
    "lon": -76.924902777,
    "lat": 1.47075
  },
  {
    "wikiId": "Q38954",
    "name": "Teide",
    "cat": "volcano",
    "lon": -16.639166666,
    "lat": 28.270833333
  },
  {
    "wikiId": "Q42118",
    "name": "Pulosari",
    "cat": "volcano",
    "lon": 105.975,
    "lat": -6.342
  },
  {
    "wikiId": "Q43876",
    "name": "Mount Batur",
    "cat": "volcano",
    "lon": 115.375,
    "lat": -8.241944444
  },
  {
    "wikiId": "Q123157",
    "name": "Gunung Telomoyo",
    "cat": "volcano",
    "lon": 110.4,
    "lat": -7.37
  },
  {
    "wikiId": "Q126589",
    "name": "Mount Butak",
    "cat": "volcano",
    "lon": 112.45,
    "lat": -7.92
  },
  {
    "wikiId": "Q131148",
    "name": "Stromboli",
    "cat": "volcano",
    "lon": 15.217777777,
    "lat": 38.794166666
  },
  {
    "wikiId": "Q131230",
    "name": "Mauna Kea",
    "cat": "volcano",
    "lon": -155.468055555,
    "lat": 19.820555555
  },
  {
    "wikiId": "Q137953",
    "name": "Ilopango",
    "cat": "volcano",
    "lon": -89.05,
    "lat": 13.66666667
  },
  {
    "wikiId": "Q150081",
    "name": "Mount Kaba",
    "cat": "volcano",
    "lon": 102.62,
    "lat": -3.52
  },
  {
    "wikiId": "Q152380",
    "name": "Chaité",
    "cat": "volcano",
    "lon": -72.645833333,
    "lat": -42.832777777
  },
  {
    "wikiId": "Q163890",
    "name": "Prestahnúkur",
    "cat": "volcano",
    "lon": -20.58,
    "lat": 64.6
  },
  {
    "wikiId": "Q166972",
    "name": "Zavodovski Island",
    "cat": "volcano",
    "lon": -27.566666666,
    "lat": -56.3
  },
  {
    "wikiId": "Q181157",
    "name": "Popocatépetl",
    "cat": "volcano",
    "lon": -98.62778,
    "lat": 19.02222
  },
  {
    "wikiId": "Q183027",
    "name": "Mount Garibaldi",
    "cat": "volcano",
    "lon": -123.004722222,
    "lat": 49.850555555
  },
  {
    "wikiId": "Q185847",
    "name": "Mount Wrangell",
    "cat": "volcano",
    "lon": -144.015833333,
    "lat": 62.006944444
  },
  {
    "wikiId": "Q188982",
    "name": "Mount Erebus",
    "cat": "volcano",
    "lon": 167.283333333,
    "lat": -77.533333333
  },
  {
    "wikiId": "Q190562",
    "name": "Mount Cameroon",
    "cat": "volcano",
    "lon": 9.1725,
    "lat": 4.216666666
  },
  {
    "wikiId": "Q194215",
    "name": "Amsterdam Island",
    "cat": "volcano",
    "lon": 77.554722222,
    "lat": -37.825833333
  },
  {
    "wikiId": "Q202629",
    "name": "Lonquimay",
    "cat": "volcano",
    "lon": -71.59272222,
    "lat": -38.37894444
  },
  {
    "wikiId": "Q204821",
    "name": "Île Saint-Paul",
    "cat": "volcano",
    "lon": 77.522222222,
    "lat": -38.73
  },
  {
    "wikiId": "Q207284",
    "name": "Mount Ruapehu",
    "cat": "volcano",
    "lon": 175.566666666,
    "lat": -39.283333333
  },
  {
    "wikiId": "Q210252",
    "name": "Klyuchevskaya Sopka",
    "cat": "volcano",
    "lon": 160.633333333,
    "lat": 56.066666666
  },
  {
    "wikiId": "Q214696",
    "name": "Mount Nyiragongo",
    "cat": "volcano",
    "lon": 29.25,
    "lat": -1.516666666
  },
  {
    "wikiId": "Q214916",
    "name": "Llullaillaco",
    "cat": "volcano",
    "lon": -68.536852,
    "lat": -24.719863
  },
  {
    "wikiId": "Q227496",
    "name": "Zubair Group",
    "cat": "volcano",
    "lon": 42.16666667,
    "lat": 15.05
  },
  {
    "wikiId": "Q231620",
    "name": "Parícutin",
    "cat": "volcano",
    "lon": -102.251,
    "lat": 19.493
  },
  {
    "wikiId": "Q233351",
    "name": "Nevado del Ruiz",
    "cat": "volcano",
    "lon": -75.323611111,
    "lat": 4.8925
  },
  {
    "wikiId": "Q235062",
    "name": "Galeras",
    "cat": "volcano",
    "lon": -77.366666666,
    "lat": 1.216666666
  },
  {
    "wikiId": "Q248276",
    "name": "Corcovado Volcano",
    "cat": "volcano",
    "lon": -72.792777777,
    "lat": -43.193055555
  },
  {
    "wikiId": "Q252081",
    "name": "Guallatiri, Chile",
    "cat": "volcano",
    "lon": -69.0917,
    "lat": -18.4167
  },
  {
    "wikiId": "Q255010",
    "name": "Parinacota",
    "cat": "volcano",
    "lon": -69.141611111,
    "lat": -18.165752777
  },
  {
    "wikiId": "Q279915",
    "name": "Mount Kusatsu-Shirane",
    "cat": "volcano",
    "lon": 138.527777777,
    "lat": 36.643888888
  },
  {
    "wikiId": "Q280822",
    "name": "Brennisteinsalda",
    "cat": "volcano",
    "lon": -19.145833,
    "lat": 63.980833
  },
  {
    "wikiId": "Q288403",
    "name": "Sarychev Peak",
    "cat": "volcano",
    "lon": 153.201388888,
    "lat": 48.090555555
  },
  {
    "wikiId": "Q298119",
    "name": "Öræfajökull",
    "cat": "volcano",
    "lon": -16.642063888,
    "lat": 64.025436111
  },
  {
    "wikiId": "Q312770",
    "name": "Domuyo",
    "cat": "volcano",
    "lon": -70.433,
    "lat": -36.6397
  },
  {
    "wikiId": "Q312862",
    "name": "Aracar",
    "cat": "volcano",
    "lon": -67.7833,
    "lat": -24.29
  },
  {
    "wikiId": "Q312866",
    "name": "Antofalla",
    "cat": "volcano",
    "lon": -67.880833333,
    "lat": -25.5625
  },
  {
    "wikiId": "Q312929",
    "name": "Viedma",
    "cat": "volcano",
    "lon": -73.283333333,
    "lat": -49.358333333
  },
  {
    "wikiId": "Q312930",
    "name": "Copahue",
    "cat": "volcano",
    "lon": -71.1675,
    "lat": -37.852222222
  },
  {
    "wikiId": "Q312936",
    "name": "Antofagasta de la Sierra",
    "cat": "volcano",
    "lon": -67.535833333,
    "lat": -25.968055555
  },
  {
    "wikiId": "Q315110",
    "name": "Hohe Acht",
    "cat": "volcano",
    "lon": 7.011111111,
    "lat": 50.385833333
  },
  {
    "wikiId": "Q334728",
    "name": "Abu",
    "cat": "volcano",
    "lon": 131.6,
    "lat": 34.5
  },
  {
    "wikiId": "Q335699",
    "name": "Þríhnúkagígur",
    "cat": "volcano",
    "lon": -21.69888889,
    "lat": 63.99833333
  },
  {
    "wikiId": "Q337644",
    "name": "Acamarachi",
    "cat": "volcano",
    "lon": -67.617222222,
    "lat": -23.295833333
  },
  {
    "wikiId": "Q368857",
    "name": "Bandama Caldera",
    "cat": "volcano",
    "lon": -15.455556,
    "lat": 28.033333
  },
  {
    "wikiId": "Q373105",
    "name": "Arintica",
    "cat": "volcano",
    "lon": -69.05,
    "lat": -18.75
  },
  {
    "wikiId": "Q375398",
    "name": "Irruputuncu",
    "cat": "volcano",
    "lon": -68.566666666,
    "lat": -20.733333333
  },
  {
    "wikiId": "Q380300",
    "name": "Mount Overlord",
    "cat": "volcano",
    "lon": 164.6,
    "lat": -73.166666666
  },
  {
    "wikiId": "Q383862",
    "name": "Mount Lurus",
    "cat": "volcano",
    "lon": 113.580277777,
    "lat": -7.739166666
  },
  {
    "wikiId": "Q385882",
    "name": "Fuss Peak",
    "cat": "volcano",
    "lon": 155.2475,
    "lat": 50.269722222
  },
  {
    "wikiId": "Q389121",
    "name": "Lanín",
    "cat": "volcano",
    "lon": -71.499722222,
    "lat": -39.632777777
  },
  {
    "wikiId": "Q392766",
    "name": "Mount Yasur",
    "cat": "volcano",
    "lon": 169.441666666,
    "lat": -19.533333333
  },
  {
    "wikiId": "Q408217",
    "name": "Santiago Island",
    "cat": "volcano",
    "lon": -90.7,
    "lat": -0.25
  },
  {
    "wikiId": "Q415251",
    "name": "Mount Akagi",
    "cat": "volcano",
    "lon": 139.193611111,
    "lat": 36.560833333
  },
  {
    "wikiId": "Q419247",
    "name": "Akita-Komagatake",
    "cat": "volcano",
    "lon": 140.803611111,
    "lat": 39.760833333
  },
  {
    "wikiId": "Q422737",
    "name": "Pomerape",
    "cat": "volcano",
    "lon": -69.126719444,
    "lat": -18.126275
  },
  {
    "wikiId": "Q422765",
    "name": "Socompa",
    "cat": "volcano",
    "lon": -68.256111111,
    "lat": -24.393333333
  },
  {
    "wikiId": "Q422774",
    "name": "Robledo",
    "cat": "volcano",
    "lon": -67.72,
    "lat": -26.77
  },
  {
    "wikiId": "Q422807",
    "name": "Tipas",
    "cat": "volcano",
    "lon": -68.55,
    "lat": -27.2
  },
  {
    "wikiId": "Q422965",
    "name": "Tromen",
    "cat": "volcano",
    "lon": -70.03,
    "lat": -37.142
  },
  {
    "wikiId": "Q456619",
    "name": "Ambang",
    "cat": "volcano",
    "lon": 124.415833333,
    "lat": 0.7575
  },
  {
    "wikiId": "Q457596",
    "name": "Ambitle",
    "cat": "volcano",
    "lon": 153.621388888,
    "lat": -4.080833333
  },
  {
    "wikiId": "Q457606",
    "name": "Q457606",
    "cat": "volcano",
    "lon": 153.619444444,
    "lat": -4.065277777
  },
  {
    "wikiId": "Q494645",
    "name": "Hallasan",
    "cat": "volcano",
    "lon": 126.516666666,
    "lat": 33.35
  },
  {
    "wikiId": "Q499164",
    "name": "Ascraeus Mons",
    "cat": "volcano",
    "lon": null,
    "lat": null
  },
  {
    "wikiId": "Q511443",
    "name": "Mallahle",
    "cat": "volcano",
    "lon": 41.655,
    "lat": 13.277
  },
  {
    "wikiId": "Q513216",
    "name": "Kelut",
    "cat": "volcano",
    "lon": 112.305555555,
    "lat": -7.933333333
  },
  {
    "wikiId": "Q521660",
    "name": "Sierra Nevada",
    "cat": "volcano",
    "lon": -71.58333333,
    "lat": -38.58333333
  },
  {
    "wikiId": "Q524216",
    "name": "Atsonupuri",
    "cat": "volcano",
    "lon": 147.1275,
    "lat": 44.807222222
  },
  {
    "wikiId": "Q524954",
    "name": "Mount Taftan",
    "cat": "volcano",
    "lon": 61.133333333,
    "lat": 28.6
  },
  {
    "wikiId": "Q538601",
    "name": "Terevaka",
    "cat": "volcano",
    "lon": -109.379444444,
    "lat": -27.084444444
  },
  {
    "wikiId": "Q547770",
    "name": "Tyatya",
    "cat": "volcano",
    "lon": 146.250833333,
    "lat": 44.353888888
  },
  {
    "wikiId": "Q556594",
    "name": "Ankaratra",
    "cat": "volcano",
    "lon": 47.243341666,
    "lat": -19.349777777
  },
  {
    "wikiId": "Q568090",
    "name": "Puy Griou",
    "cat": "volcano",
    "lon": 2.70611,
    "lat": 45.0803
  },
  {
    "wikiId": "Q575891",
    "name": "Momotombo",
    "cat": "volcano",
    "lon": -86.538577,
    "lat": 12.424312
  },
  {
    "wikiId": "Q577482",
    "name": "Cerro Solo",
    "cat": "volcano",
    "lon": -68.716666666,
    "lat": -27.108333333
  },
  {
    "wikiId": "Q577700",
    "name": "Puyehue-Cordón Caulle",
    "cat": "volcano",
    "lon": -72.117222222,
    "lat": -40.590277777
  },
  {
    "wikiId": "Q578799",
    "name": "Malinche",
    "cat": "volcano",
    "lon": -98.03194444,
    "lat": 19.23083333
  },
  {
    "wikiId": "Q586852",
    "name": "Ushas Mons",
    "cat": "volcano",
    "lon": null,
    "lat": null
  },
  {
    "wikiId": "Q587915",
    "name": "Makian",
    "cat": "volcano",
    "lon": 127.366666666,
    "lat": 0.333333333
  },
  {
    "wikiId": "Q590920",
    "name": "Cerro Bravo",
    "cat": "volcano",
    "lon": -75.292222222,
    "lat": 5.089166666
  },
  {
    "wikiId": "Q598893",
    "name": "Gunung Merbabu",
    "cat": "volcano",
    "lon": 110.44,
    "lat": -7.455
  },
  {
    "wikiId": "Q605355",
    "name": "Rábida Island",
    "cat": "volcano",
    "lon": -90.709,
    "lat": -0.413
  },
  {
    "wikiId": "Q607372",
    "name": "Puy de Dôme",
    "cat": "volcano",
    "lon": 2.9624,
    "lat": 45.772
  },
  {
    "wikiId": "Q609982",
    "name": "Antuco",
    "cat": "volcano",
    "lon": -71.351111111,
    "lat": -37.41
  },
  {
    "wikiId": "Q614531",
    "name": "Antsiferov Island",
    "cat": "volcano",
    "lon": 154.981388888,
    "lat": 50.200555555
  },
  {
    "wikiId": "Q620860",
    "name": "Mount Unzen",
    "cat": "volcano",
    "lon": 130.283333333,
    "lat": 32.75
  },
  {
    "wikiId": "Q634065",
    "name": "Lastarria",
    "cat": "volcano",
    "lon": -68.5,
    "lat": -25.166666666
  },
  {
    "wikiId": "Q639993",
    "name": "Ardoukoba",
    "cat": "volcano",
    "lon": 42.495833333,
    "lat": 11.571944444
  },
  {
    "wikiId": "Q691021",
    "name": "Cay",
    "cat": "volcano",
    "lon": -72.98583333,
    "lat": -45.0625
  },
  {
    "wikiId": "Q692922",
    "name": "Novarupta",
    "cat": "volcano",
    "lon": -155.156666666,
    "lat": 58.266666666
  },
  {
    "wikiId": "Q695846",
    "name": "Nyamuragira",
    "cat": "volcano",
    "lon": 29.2,
    "lat": -1.408333333
  },
  {
    "wikiId": "Q3138897",
    "name": "Hobicha",
    "cat": "volcano",
    "lon": 37.83,
    "lat": 6.78
  },
  {
    "wikiId": "Q3155409",
    "name": "Isluga",
    "cat": "volcano",
    "lon": -68.833333333,
    "lat": -19.15
  },
  {
    "wikiId": "Q3156114",
    "name": "Yakeyama",
    "cat": "volcano",
    "lon": 147.873611111,
    "lat": 45.0125
  },
  {
    "wikiId": "Q3192416",
    "name": "Kami-Nari Patera",
    "cat": "volcano",
    "lon": null,
    "lat": null
  },
  {
    "wikiId": "Q3197148",
    "name": "Kinich Ahau Patera",
    "cat": "volcano",
    "lon": null,
    "lat": null
  },
  {
    "wikiId": "Q3198640",
    "name": "Kone",
    "cat": "volcano",
    "lon": 39.692,
    "lat": 8.8
  },
  {
    "wikiId": "Q3200888",
    "name": "Kyatwa",
    "cat": "volcano",
    "lon": 30.25,
    "lat": 0.45
  },
  {
    "wikiId": "Q3217435",
    "name": "Gunung Muria",
    "cat": "volcano",
    "lon": 110.88333333,
    "lat": -6.61666667
  },
  {
    "wikiId": "Q3229393",
    "name": "Q3229393",
    "cat": "volcano",
    "lon": 2.947,
    "lat": 45.8181
  },
  {
    "wikiId": "Q3237604",
    "name": "Liado",
    "cat": "volcano",
    "lon": 40.28,
    "lat": 9.57
  },
  {
    "wikiId": "Q3273698",
    "name": "Q3273698",
    "cat": "volcano",
    "lon": 3.08175,
    "lat": 45.7766
  },
  {
    "wikiId": "Q3276924",
    "name": "Mount Yake",
    "cat": "volcano",
    "lon": 137.58824,
    "lat": 36.22887
  },
  {
    "wikiId": "Q3286723",
    "name": "Manua Patera",
    "cat": "volcano",
    "lon": null,
    "lat": null
  },
  {
    "wikiId": "Q3290107",
    "name": "Mount Manengouba",
    "cat": "volcano",
    "lon": 9.83,
    "lat": 5.03
  },
  {
    "wikiId": "Q3300188",
    "name": "Mauna Ulu",
    "cat": "volcano",
    "lon": -155.201,
    "lat": 19.3668
  },
  {
    "wikiId": "Q3321807",
    "name": "Mont Denise",
    "cat": "volcano",
    "lon": 3.85482,
    "lat": 45.0584
  },
  {
    "wikiId": "Q3321904",
    "name": "Mount Karakuni",
    "cat": "volcano",
    "lon": 130.86166667,
    "lat": 31.93416667
  },
  {
    "wikiId": "Q3321906",
    "name": "Mount Kupe",
    "cat": "volcano",
    "lon": 9.707,
    "lat": 4.801
  },
  {
    "wikiId": "Q3322001",
    "name": "Mount Oku",
    "cat": "volcano",
    "lon": 10.518888888,
    "lat": 6.199722222
  },
  {
    "wikiId": "Q3322034",
    "name": "Q3322034",
    "cat": "volcano",
    "lon": 50.432,
    "lat": -45.952
  },
  {
    "wikiId": "Q3322052",
    "name": "Q3322052",
    "cat": "volcano",
    "lon": 3.0338,
    "lat": 45.6681
  },
  {
    "wikiId": "Q3322136",
    "name": "Q3322136",
    "cat": "volcano",
    "lon": -151.452,
    "lat": -16.828
  },
  {
    "wikiId": "Q3322217",
    "name": "Mont de la Dives",
    "cat": "volcano",
    "lon": 77.549444444,
    "lat": -37.849444444
  },
  {
    "wikiId": "Q3322220",
    "name": "Q3322220",
    "cat": "volcano",
    "lon": 50.402,
    "lat": -46.4195
  },
  {
    "wikiId": "Q3325375",
    "name": "Moua Pihaa",
    "cat": "volcano",
    "lon": -148.67,
    "lat": -18.32
  },
  {
    "wikiId": "Q3327565",
    "name": "Pico do Cabugi",
    "cat": "volcano",
    "lon": -36.32083333,
    "lat": -5.70611111
  },
  {
    "wikiId": "Q3332046",
    "name": "Mælifellshnjúkur",
    "cat": "volcano",
    "lon": -19.366149,
    "lat": 65.400014
  },
  {
    "wikiId": "Q3367232",
    "name": "Tri Sestry",
    "cat": "volcano",
    "lon": 149.92,
    "lat": 45.93
  },
  {
    "wikiId": "Q3372707",
    "name": "Platanar",
    "cat": "volcano",
    "lon": -84.3660879,
    "lat": 10.3000174
  },
  {
    "wikiId": "Q3377210",
    "name": "Petit Suchet",
    "cat": "volcano",
    "lon": 2.961171,
    "lat": 45.789786
  },
  {
    "wikiId": "Q3382428",
    "name": "Pic du Mascarin",
    "cat": "volcano",
    "lon": 51.7446,
    "lat": -46.4381
  },
  {
    "wikiId": "Q3391954",
    "name": "Thor",
    "cat": "volcano",
    "lon": null,
    "lat": null
  },
  {
    "wikiId": "Q3411049",
    "name": "Putana",
    "cat": "volcano",
    "lon": -67.85,
    "lat": -22.55
  },
  {
    "wikiId": "Q3411078",
    "name": "Puy Pariou",
    "cat": "volcano",
    "lon": 2.971484,
    "lat": 45.796824
  },
  {
    "wikiId": "Q3411084",
    "name": "Q3411084",
    "cat": "volcano",
    "lon": 2.97427,
    "lat": 45.9589
  },
  {
    "wikiId": "Q3411087",
    "name": "Puy de Côme",
    "cat": "volcano",
    "lon": 2.94332,
    "lat": 45.7965
  },
  {
    "wikiId": "Q3411089",
    "name": "Puy de Gravenoire",
    "cat": "volcano",
    "lon": 3.04974,
    "lat": 45.75153
  },
  {
    "wikiId": "Q3411091",
    "name": "Puy de Louchadière",
    "cat": "volcano",
    "lon": 2.95083,
    "lat": 45.8531
  },
  {
    "wikiId": "Q3411093",
    "name": "Puy de Mercœur",
    "cat": "volcano",
    "lon": 2.95583,
    "lat": 45.7164
  },
  {
    "wikiId": "Q3411094",
    "name": "Puy de Montiroir",
    "cat": "volcano",
    "lon": 2.92648,
    "lat": 45.9702
  },
  {
    "wikiId": "Q3411095",
    "name": "Puy de Lassolas",
    "cat": "volcano",
    "lon": 2.95828,
    "lat": 45.71166
  },
  {
    "wikiId": "Q3411096",
    "name": "Puy de Paugnat",
    "cat": "volcano",
    "lon": 2.9778,
    "lat": 45.8803
  },
  {
    "wikiId": "Q3411100",
    "name": "Puy de la Nugère",
    "cat": "volcano",
    "lon": 2.9837,
    "lat": 45.8601
  },
  {
    "wikiId": "Q3411101",
    "name": "Puy de la Bannière",
    "cat": "volcano",
    "lon": 3.03361,
    "lat": 45.8789
  },
  {
    "wikiId": "Q3411102",
    "name": "Puy de la Vache",
    "cat": "volcano",
    "lon": 2.96335,
    "lat": 45.7054
  },
  {
    "wikiId": "Q3411104",
    "name": "Puy des Goules",
    "cat": "volcano",
    "lon": 2.98059,
    "lat": 45.8095
  },
  {
    "wikiId": "Q3411123",
    "name": "Q3411123",
    "cat": "volcano",
    "lon": 2.955,
    "lat": 45.8278
  },
  {
    "wikiId": "Q3437336",
    "name": "Q3437336",
    "cat": "volcano",
    "lon": 2.64361,
    "lat": 45.1144
  },
  {
    "wikiId": "Q3466925",
    "name": "Q3466925",
    "cat": "volcano",
    "lon": 167.466666666,
    "lat": -13.8
  },
  {
    "wikiId": "Q3471590",
    "name": "San Pedro de Tarara",
    "cat": "volcano",
    "lon": -70.8863297,
    "lat": -35.9948665
  },
  {
    "wikiId": "Q3471599",
    "name": "Q3471599",
    "cat": "volcano",
    "lon": 6.93722,
    "lat": 43.525
  },
  {
    "wikiId": "Q3530589",
    "name": "Tolhuaca",
    "cat": "volcano",
    "lon": -71.645,
    "lat": -38.31
  },
  {
    "wikiId": "Q3695499",
    "name": "Mount Kirigamine",
    "cat": "volcano",
    "lon": 138.167,
    "lat": 36.1
  },
  {
    "wikiId": "Q3695505",
    "name": "Mount Hiuchigatake",
    "cat": "volcano",
    "lon": 139.28716,
    "lat": 36.95298
  },
  {
    "wikiId": "Q3707308",
    "name": "Bud Dajo",
    "cat": "volcano",
    "lon": 121.05666667,
    "lat": 6.01333333
  },
  {
    "wikiId": "Q3742394",
    "name": "Mount Shiga",
    "cat": "volcano",
    "lon": 138.510725,
    "lat": 36.699427777
  },
  {
    "wikiId": "Q3775494",
    "name": "Taupo Volcano",
    "cat": "volcano",
    "lon": 175.900833333,
    "lat": -38.805555555
  },
  {
    "wikiId": "Q4054131",
    "name": "Aag",
    "cat": "volcano",
    "lon": 158.656466666,
    "lat": 53.395816666
  },
  {
    "wikiId": "Q4058910",
    "name": "Q4058910",
    "cat": "volcano",
    "lon": 160.383333333,
    "lat": 57.5
  },
  {
    "wikiId": "Q4060178",
    "name": "Aku Volcano",
    "cat": "volcano",
    "lon": 117.4614,
    "lat": 56.1776
  },
  {
    "wikiId": "Q4060464",
    "name": "Alamagan (volcano)",
    "cat": "volcano",
    "lon": 145.836666666,
    "lat": 17.601944444
  },
  {
    "wikiId": "Q4062424",
    "name": "Q4062424",
    "cat": "volcano",
    "lon": -78.007141666,
    "lat": -0.533
  },
  {
    "wikiId": "Q4062794",
    "name": "Q4062794",
    "cat": "volcano",
    "lon": 159.644894444,
    "lat": 56.692016666
  },
  {
    "wikiId": "Q4064525",
    "name": "Q4064525",
    "cat": "volcano",
    "lon": 77.548528,
    "lat": -37.849239
  },
  {
    "wikiId": "Q4066158",
    "name": "Q4066158",
    "cat": "volcano",
    "lon": 169.790555555,
    "lat": -20.184166666
  },
  {
    "wikiId": "Q4067894",
    "name": "Q4067894",
    "cat": "volcano",
    "lon": 167.849166666,
    "lat": -15.380277777
  },
  {
    "wikiId": "Q4068356",
    "name": "Mount Ara",
    "cat": "volcano",
    "lon": 44.452222222,
    "lat": 40.405555555
  },
  {
    "wikiId": "Q4069234",
    "name": "Arik volcano",
    "cat": "volcano",
    "lon": 158.666666666,
    "lat": 53.366666666
  },
  {
    "wikiId": "Q4070254",
    "name": "Arteni",
    "cat": "volcano",
    "lon": 43.784880555,
    "lat": 40.375844444
  },
  {
    "wikiId": "Q4071223",
    "name": "Q4071223",
    "cat": "volcano",
    "lon": -14.342336111,
    "lat": -7.951797222
  },
  {
    "wikiId": "Q4071824",
    "name": "Q4071824",
    "cat": "volcano",
    "lon": 145.403611111,
    "lat": 19.6925
  },
  {
    "wikiId": "Q4075236",
    "name": "Buzzard Creek",
    "cat": "volcano",
    "lon": -148.421666666,
    "lat": 64.066666666
  },
  {
    "wikiId": "Q4075651",
    "name": "Bayonnaise Rocks",
    "cat": "volcano",
    "lon": 139.916666666,
    "lat": 31.883333333
  },
  {
    "wikiId": "Q4075861",
    "name": "Q4075861",
    "cat": "volcano",
    "lon": 155.35,
    "lat": -6.15
  },
  {
    "wikiId": "Q4076242",
    "name": "Balagan-Tas",
    "cat": "volcano",
    "lon": 145.89305,
    "lat": 65.958258333
  },
  {
    "wikiId": "Q4077147",
    "name": "Q4077147",
    "cat": "volcano",
    "lon": 144.819166666,
    "lat": -3.613055555
  },
  {
    "wikiId": "Q4077868",
    "name": "Q4077868",
    "cat": "volcano",
    "lon": 101.933333333,
    "lat": 60.916666666
  },
  {
    "wikiId": "Q4077870",
    "name": "Baranovsky Volcano (Primorsky Krai)",
    "cat": "volcano",
    "lon": 131.919472222,
    "lat": 43.652975
  },
  {
    "wikiId": "Q4083643",
    "name": "Q4083643",
    "cat": "volcano",
    "lon": -131.05,
    "lat": 55.316666666
  },
  {
    "wikiId": "Q4086958",
    "name": "Bir Borhut",
    "cat": "volcano",
    "lon": 50.633333333,
    "lat": 15.55
  },
  {
    "wikiId": "Q4087566",
    "name": "Biu Plateau",
    "cat": "volcano",
    "lon": 12.1333333,
    "lat": 10.55
  },
  {
    "wikiId": "Q4088153",
    "name": "Bliznetsy",
    "cat": "volcano",
    "lon": 161.37,
    "lat": 57.350833333
  },
  {
    "wikiId": "Q4088366",
    "name": "Blue Lake Crater",
    "cat": "volcano",
    "lon": -121.773888888,
    "lat": 44.411388888
  },
  {
    "wikiId": "Q4088405",
    "name": "Blup Blup",
    "cat": "volcano",
    "lon": 144.605,
    "lat": -3.506666666
  },
  {
    "wikiId": "Q4088419",
    "name": "Black Rock Desert volcanic field",
    "cat": "volcano",
    "lon": -112.5,
    "lat": 38.966666666
  },
  {
    "wikiId": "Q4089140",
    "name": "Bogachevsky",
    "cat": "volcano",
    "lon": 160.707136,
    "lat": 54.973214
  },
  {
    "wikiId": "Q4089188",
    "name": "Bogdan Khmelnitsky",
    "cat": "volcano",
    "lon": 147.920277777,
    "lat": 45.336944444
  },
  {
    "wikiId": "Q4089661",
    "name": "Bogoria",
    "cat": "volcano",
    "lon": 36.08,
    "lat": 0.25
  },
  {
    "wikiId": "Q4089752",
    "name": "Q4089752",
    "cat": "volcano",
    "lon": -177.438333333,
    "lat": 51.91
  },
  {
    "wikiId": "Q4090272",
    "name": "Q4090272",
    "cat": "volcano",
    "lon": 41.833333333,
    "lat": 11.25
  },
  {
    "wikiId": "Q4090471",
    "name": "Q4090471",
    "cat": "volcano",
    "lon": 144.963333333,
    "lat": -3.994444444
  },
  {
    "wikiId": "Q4091448",
    "name": "Q4091448",
    "cat": "volcano",
    "lon": 158.233333333,
    "lat": 56.95
  },
  {
    "wikiId": "Q2264951",
    "name": "Bolshoi Payalpan",
    "cat": "volcano",
    "lon": 157.75,
    "lat": 55.833333333
  },
  {
    "wikiId": "Q2282091",
    "name": "Chikurachki",
    "cat": "volcano",
    "lon": 155.461666666,
    "lat": 50.321666666
  },
  {
    "wikiId": "Q2301875",
    "name": "Água de Pau",
    "cat": "volcano",
    "lon": -25.491558333,
    "lat": 37.760333333
  },
  {
    "wikiId": "Q2317058",
    "name": "Kaileney",
    "cat": "volcano",
    "lon": 160.666666666,
    "lat": 57.8
  },
  {
    "wikiId": "Q2328794",
    "name": "Poco Leok",
    "cat": "volcano",
    "lon": 120.48,
    "lat": -8.68
  },
  {
    "wikiId": "Q2332726",
    "name": "Tshibinda",
    "cat": "volcano",
    "lon": 28.75,
    "lat": -2.316666666
  },
  {
    "wikiId": "Q2340739",
    "name": "Gunung Dukono",
    "cat": "volcano",
    "lon": 127.878105,
    "lat": 1.699505
  },
  {
    "wikiId": "Q2352524",
    "name": "Wolo Inelika",
    "cat": "volcano",
    "lon": 120.98,
    "lat": -8.73
  },
  {
    "wikiId": "Q2360498",
    "name": "El Totumo",
    "cat": "volcano",
    "lon": -75.24140278,
    "lat": 10.74447222
  },
  {
    "wikiId": "Q2375482",
    "name": "Brava",
    "cat": "volcano",
    "lon": -24.716666666,
    "lat": 14.85
  },
  {
    "wikiId": "Q2381562",
    "name": "Riang Kotang",
    "cat": "volcano",
    "lon": 122.892,
    "lat": -8.3
  },
  {
    "wikiId": "Q2396057",
    "name": "Leroboleng",
    "cat": "volcano",
    "lon": 122.842,
    "lat": -8.358
  },
  {
    "wikiId": "Q2401434",
    "name": "Iktunup",
    "cat": "volcano",
    "lon": 160.75,
    "lat": 58.083333333
  },
  {
    "wikiId": "Q2425296",
    "name": "Udokan Plateau",
    "cat": "volcano",
    "lon": 117.77,
    "lat": 56.28
  },
  {
    "wikiId": "Q2433163",
    "name": "Wai Sano",
    "cat": "volcano",
    "lon": 120.0166667,
    "lat": -8.71666667
  },
  {
    "wikiId": "Q2454241",
    "name": "Tristan da Cunha",
    "cat": "volcano",
    "lon": -12.2875,
    "lat": -37.11111111
  },
  {
    "wikiId": "Q2467823",
    "name": "San José",
    "cat": "volcano",
    "lon": -69.897222222,
    "lat": -33.781666666
  },
  {
    "wikiId": "Q2483640",
    "name": "Iliwerung",
    "cat": "volcano",
    "lon": 123.573333333,
    "lat": -8.532222222
  },
  {
    "wikiId": "Q2530684",
    "name": "Volcano W",
    "cat": "volcano",
    "lon": -179.183333333,
    "lat": -31.85
  },
  {
    "wikiId": "Q2530709",
    "name": "Volcán Azul",
    "cat": "volcano",
    "lon": -83.95888889,
    "lat": 12.55305556
  },
  {
    "wikiId": "Q2535356",
    "name": "volcanoes of the Leizhou Peninsula",
    "cat": "volcano",
    "lon": 110.16666667,
    "lat": 20.5
  },
  {
    "wikiId": "Q2549314",
    "name": "Iyang-Argapura",
    "cat": "volcano",
    "lon": 113.57,
    "lat": -7.97
  },
  {
    "wikiId": "Q2553917",
    "name": "Michinmahuida",
    "cat": "volcano",
    "lon": -72.445833333,
    "lat": -42.799166666
  },
  {
    "wikiId": "Q2564984",
    "name": "Kuntomintar",
    "cat": "volcano",
    "lon": 154.014444444,
    "lat": 48.758055555
  },
  {
    "wikiId": "Q2573663",
    "name": "Sangeang Api",
    "cat": "volcano",
    "lon": 119.05,
    "lat": -8.18
  },
  {
    "wikiId": "Q2593019",
    "name": "Ilyinsky",
    "cat": "volcano",
    "lon": 157.2,
    "lat": 51.49
  },
  {
    "wikiId": "Q2594712",
    "name": "Wudalianchi",
    "cat": "volcano",
    "lon": 126.12,
    "lat": 48.71666667
  },
  {
    "wikiId": "Q2595055",
    "name": "Surveyors volcano",
    "cat": "volcano",
    "lon": 158.68,
    "lat": 56.333888888
  },
  {
    "wikiId": "Q2601149",
    "name": "Demon",
    "cat": "volcano",
    "lon": 148.8603,
    "lat": 45.5014
  },
  {
    "wikiId": "Q2601582",
    "name": "Smirnov",
    "cat": "volcano",
    "lon": 146.134722222,
    "lat": 44.419722222
  },
  {
    "wikiId": "Q2621082",
    "name": "Khangar",
    "cat": "volcano",
    "lon": 157.366666666,
    "lat": 54.75
  },
  {
    "wikiId": "Q2622322",
    "name": "Los Patos",
    "cat": "volcano",
    "lon": -68.808888888,
    "lat": -27.301111111
  },
  {
    "wikiId": "Q2638551",
    "name": "Albert Park Volcano",
    "cat": "volcano",
    "lon": 174.767263,
    "lat": -36.848585
  },
  {
    "wikiId": "Q2639098",
    "name": "Mount Haku",
    "cat": "volcano",
    "lon": 136.5,
    "lat": 36.1
  },
  {
    "wikiId": "Q2643122",
    "name": "Karaha Crater",
    "cat": "volcano",
    "lon": 108.08,
    "lat": -7.12
  },
  {
    "wikiId": "Q2651559",
    "name": "Mendeleyeva",
    "cat": "volcano",
    "lon": 145.736111111,
    "lat": 43.976388888
  },
  {
    "wikiId": "Q2655929",
    "name": "Los Atlixcos",
    "cat": "volcano",
    "lon": -96.526388888,
    "lat": 19.808888888
  },
  {
    "wikiId": "Q2656048",
    "name": "Pico Birigoyo",
    "cat": "volcano",
    "lon": -17.841111111,
    "lat": 28.605
  },
  {
    "wikiId": "Q2661998",
    "name": "Tecuamburro",
    "cat": "volcano",
    "lon": -90.406944444,
    "lat": 14.156111111
  },
  {
    "wikiId": "Q2664586",
    "name": "Golovnin",
    "cat": "volcano",
    "lon": 145.505555555,
    "lat": 43.843055555
  },
  {
    "wikiId": "Q2666739",
    "name": "Chirip",
    "cat": "volcano",
    "lon": 147.912222222,
    "lat": 45.377222222
  },
  {
    "wikiId": "Q2669883",
    "name": "Tunka valley",
    "cat": "volcano",
    "lon": 102.5,
    "lat": 51.5
  },
  {
    "wikiId": "Q2672141",
    "name": "Volcán Santo Tomás",
    "cat": "volcano",
    "lon": -91.478611111,
    "lat": 14.710277777
  },
  {
    "wikiId": "Q2672570",
    "name": "Volcán Darwin",
    "cat": "volcano",
    "lon": -91.283333333,
    "lat": -0.183333333
  },
  {
    "wikiId": "Q2729027",
    "name": "Bolshaya Ipelka",
    "cat": "volcano",
    "lon": 156.9725,
    "lat": 52.663333333
  },
  {
    "wikiId": "Q2735753",
    "name": "Gunung Guntur",
    "cat": "volcano",
    "lon": 107.839722222,
    "lat": -7.143333333
  },
  {
    "wikiId": "Q2740999",
    "name": "Talamau Mount",
    "cat": "volcano",
    "lon": 99.983333333,
    "lat": 0.079166666
  },
  {
    "wikiId": "Q2742687",
    "name": "San Pedro",
    "cat": "volcano",
    "lon": -68.39166667,
    "lat": -21.8875
  },
  {
    "wikiId": "Q2746400",
    "name": "May-Ya-Moto",
    "cat": "volcano",
    "lon": 29.333333333,
    "lat": -0.933333333
  },
  {
    "wikiId": "Q2786660",
    "name": "Malang Plain",
    "cat": "volcano",
    "lon": 112.68,
    "lat": -8.02
  },
  {
    "wikiId": "Q2788686",
    "name": "Montaña Quemada",
    "cat": "volcano",
    "lon": -17.84042,
    "lat": 28.62497
  },
  {
    "wikiId": "Q2827325",
    "name": "Aguas Calientes",
    "cat": "volcano",
    "lon": -67.685,
    "lat": -23.368333333
  },
  {
    "wikiId": "Q2827394",
    "name": "Ah Peku Patera",
    "cat": "volcano",
    "lon": null,
    "lat": null
  },
  {
    "wikiId": "Q2841341",
    "name": "Amaterasu Patera",
    "cat": "volcano",
    "lon": null,
    "lat": null
  },
  {
    "wikiId": "Q2844426",
    "name": "Amphitrites Patera",
    "cat": "volcano",
    "lon": null,
    "lat": null
  },
  {
    "wikiId": "Q2854575",
    "name": "Wayang-Windu",
    "cat": "volcano",
    "lon": 107.63,
    "lat": -7.208
  },
  {
    "wikiId": "Q2854860",
    "name": "Peretolchin",
    "cat": "volcano",
    "lon": 99.034722222,
    "lat": 52.719166666
  },
  {
    "wikiId": "Q2861446",
    "name": "Q2861446",
    "cat": "volcano",
    "lon": -67.9875,
    "lat": -24.416944
  },
  {
    "wikiId": "Q2868734",
    "name": "Ata volcano",
    "cat": "volcano",
    "lon": -68.576111111,
    "lat": -27.181944444
  },
  {
    "wikiId": "Q2882838",
    "name": "Banne d'Ordanche",
    "cat": "volcano",
    "lon": 2.77278,
    "lat": 45.6108
  },
  {
    "wikiId": "Q2895004",
    "name": "Salín",
    "cat": "volcano",
    "lon": -68.0639,
    "lat": -24.3317
  },
  {
    "wikiId": "Q2901375",
    "name": "Poco Ranaka",
    "cat": "volcano",
    "lon": 120.516666666,
    "lat": -8.633333333
  },
  {
    "wikiId": "Q2903912",
    "name": "Q2903912",
    "cat": "volcano",
    "lon": 35.788888888,
    "lat": 33.211111111
  },
  {
    "wikiId": "Q2903945",
    "name": "Hermonit Mountain",
    "cat": "volcano",
    "lon": 35.793611111,
    "lat": 33.185277777
  },
  {
    "wikiId": "Q2904267",
    "name": "Mount Teon",
    "cat": "volcano",
    "lon": 35.863888888,
    "lat": 32.959444444
  },
  {
    "wikiId": "Q2905170",
    "name": "mount Avital",
    "cat": "volcano",
    "lon": 35.788888888,
    "lat": 33.115
  },
  {
    "wikiId": "Q2933737",
    "name": "Q2933737",
    "cat": "volcano",
    "lon": -71,
    "lat": -37.85
  },
  {
    "wikiId": "Q2934098",
    "name": "Callaqui",
    "cat": "volcano",
    "lon": -71.45,
    "lat": -37.916666666
  },
  {
    "wikiId": "Q2943430",
    "name": "Cayutue-La Vigueria",
    "cat": "volcano",
    "lon": -72.27,
    "lat": -41.25
  },
  {
    "wikiId": "Q2946773",
    "name": "Cerro Singüil",
    "cat": "volcano",
    "lon": -89.6315,
    "lat": 14.053
  },
  {
    "wikiId": "Q2946783",
    "name": "Cerro Tujle",
    "cat": "volcano",
    "lon": -67.9515,
    "lat": -23.8354
  },
  {
    "wikiId": "Q2946787",
    "name": "Ciguatepe",
    "cat": "volcano",
    "lon": -86.142,
    "lat": 12.53
  },
  {
    "wikiId": "Q2948571",
    "name": "Geysir geothermal field",
    "cat": "volcano",
    "lon": -20.2999,
    "lat": 64.3167
  },
  {
    "wikiId": "Q2956453",
    "name": "Chaos Crags",
    "cat": "volcano",
    "lon": -121.521111111,
    "lat": 40.524166666
  },
  {
    "wikiId": "Q2956713",
    "name": "Santa Isabel",
    "cat": "volcano",
    "lon": -75.36666667,
    "lat": 4.81666667
  },
  {
    "wikiId": "Q2974420",
    "name": "Citerne",
    "cat": "volcano",
    "lon": -61.657,
    "lat": 16.0334
  },
  {
    "wikiId": "Q3006369",
    "name": "Crête de la Novara",
    "cat": "volcano",
    "lon": 77.52,
    "lat": -38.715
  },
  {
    "wikiId": "Q3033707",
    "name": "Dofan",
    "cat": "volcano",
    "lon": 40.13194444,
    "lat": 9.34444444
  },
  {
    "wikiId": "Q3042741",
    "name": "Mount Belinda",
    "cat": "volcano",
    "lon": -26.33333333,
    "lat": -58.43333333
  },
  {
    "wikiId": "Q3042964",
    "name": "Masubi",
    "cat": "volcano",
    "lon": null,
    "lat": null
  },
  {
    "wikiId": "Q3046481",
    "name": "Mojanda",
    "cat": "volcano",
    "lon": -78.27,
    "lat": 0.13
  },
  {
    "wikiId": "Q3065113",
    "name": "Suchitan",
    "cat": "volcano",
    "lon": -89.78,
    "lat": 14.333333333
  },
  {
    "wikiId": "Q3066185",
    "name": "Volcán Huequi",
    "cat": "volcano",
    "lon": -72.578055555,
    "lat": -42.376666666
  },
  {
    "wikiId": "Q3077985",
    "name": "Fort Portal",
    "cat": "volcano",
    "lon": 30.25,
    "lat": 0.7
  },
  {
    "wikiId": "Q3087410",
    "name": "Linzor",
    "cat": "volcano",
    "lon": -67.96667,
    "lat": -22.15
  },
  {
    "wikiId": "Q3090546",
    "name": "Fueguino",
    "cat": "volcano",
    "lon": -70.25,
    "lat": -54.95
  },
  {
    "wikiId": "Q3100052",
    "name": "Gedamsa",
    "cat": "volcano",
    "lon": 39.183333333,
    "lat": 8.35
  },
  {
    "wikiId": "Q3107788",
    "name": "Gish Bar Patera",
    "cat": "volcano",
    "lon": null,
    "lat": null
  },
  {
    "wikiId": "Q3114564",
    "name": "Grand Sarcoui",
    "cat": "volcano",
    "lon": 2.9822,
    "lat": 45.8145
  },
  {
    "wikiId": "Q3114585",
    "name": "Le Grand Suchet",
    "cat": "volcano",
    "lon": 2.95528,
    "lat": 45.7906
  },
  {
    "wikiId": "Q31454374",
    "name": "Sopka Koftuna",
    "cat": "volcano",
    "lon": 134.033055555,
    "lat": 45.848055555
  },
  {
    "wikiId": "Q31454377",
    "name": "Sopka Talitskaya",
    "cat": "volcano",
    "lon": 85.676388888,
    "lat": 52.291388888
  },
  {
    "wikiId": "Q31454381",
    "name": "Sopka Karasukskaya",
    "cat": "volcano",
    "lon": 85.661666666,
    "lat": 52.294722222
  },
  {
    "wikiId": "Q31454384",
    "name": "Sopka Khutorskaya",
    "cat": "volcano",
    "lon": 85.730833333,
    "lat": 52.26
  },
  {
    "wikiId": "Q31454390",
    "name": "Vulkan Novo-Bakening",
    "cat": "volcano",
    "lon": 158.098055555,
    "lat": 53.943888888
  },
  {
    "wikiId": "Q31454412",
    "name": "Sopka Skalistaya",
    "cat": "volcano",
    "lon": 158.035,
    "lat": 53.146111111
  },
  {
    "wikiId": "Q31454418",
    "name": "Sopka Sinyaya",
    "cat": "volcano",
    "lon": 133.8044,
    "lat": 43.8779
  },
  {
    "wikiId": "Q31454505",
    "name": "The Peak",
    "cat": "volcano",
    "lon": -12.283333333,
    "lat": -37.1
  },
  {
    "wikiId": "Q31454532",
    "name": "Cerro El Taburete",
    "cat": "volcano",
    "lon": -88.5317,
    "lat": 13.4367
  },
  {
    "wikiId": "Q31454534",
    "name": "Cerro El Pacayal",
    "cat": "volcano",
    "lon": -88.333333333,
    "lat": 13.466666666
  },
  {
    "wikiId": "Q31454585",
    "name": "Phu Khao Fai Doi Pha Khok Hin Fu",
    "cat": "volcano",
    "lon": 99.627222222,
    "lat": 18.247777777
  },
  {
    "wikiId": "Q31454612",
    "name": "Suzuga Take",
    "cat": "volcano",
    "lon": 139.152222222,
    "lat": 36.555
  },
  {
    "wikiId": "Q31454613",
    "name": "Sōma Yama",
    "cat": "volcano",
    "lon": 138.900277777,
    "lat": 36.475833333
  },
  {
    "wikiId": "Q31454619",
    "name": "Mount Otake",
    "cat": "volcano",
    "lon": 129.7131,
    "lat": 29.6385
  },
  {
    "wikiId": "Q31454626",
    "name": "Mount Kurobi",
    "cat": "volcano",
    "lon": 139.193333333,
    "lat": 36.560833333
  },
  {
    "wikiId": "Q31454633",
    "name": "Mount Haruna Fuji",
    "cat": "volcano",
    "lon": 138.878055555,
    "lat": 36.4775
  },
  {
    "wikiId": "Q31454646",
    "name": "Vulkan Yermak",
    "cat": "volcano",
    "lon": 147.859722222,
    "lat": 45.009722222
  },
  {
    "wikiId": "Q31454647",
    "name": "Drakon",
    "cat": "volcano",
    "lon": 147.88868,
    "lat": 45.01936
  },
  {
    "wikiId": "Q31454758",
    "name": "Kurofu Yama",
    "cat": "volcano",
    "lon": 138.488611111,
    "lat": 36.405833333
  },
  {
    "wikiId": "Q31454763",
    "name": "Hachi Yama",
    "cat": "volcano",
    "lon": 138.51381,
    "lat": 36.69047
  },
  {
    "wikiId": "Q31454769",
    "name": "Mount Kamon",
    "cat": "volcano",
    "lon": 138.85088,
    "lat": 36.4774
  },
  {
    "wikiId": "Q31454770",
    "name": "Bingushi Yama",
    "cat": "volcano",
    "lon": 138.86291,
    "lat": 36.4881
  },
  {
    "wikiId": "Q31454772",
    "name": "Eboshiga Dake",
    "cat": "volcano",
    "lon": 138.87456,
    "lat": 36.48922
  },
  {
    "wikiId": "Q31454774",
    "name": "Futatsu Dake",
    "cat": "volcano",
    "lon": 138.90403,
    "lat": 36.48153
  },
  {
    "wikiId": "Q31454775",
    "name": "Asama Yama",
    "cat": "volcano",
    "lon": 138.93,
    "lat": 36.481666666
  },
  {
    "wikiId": "Q31454776",
    "name": "Takanosu Yama",
    "cat": "volcano",
    "lon": 138.90567,
    "lat": 36.46113
  },
  {
    "wikiId": "Q31454778",
    "name": "Mitsumine San",
    "cat": "volcano",
    "lon": 138.88061,
    "lat": 36.46092
  },
  {
    "wikiId": "Q31454782",
    "name": "Maekake Yama",
    "cat": "volcano",
    "lon": 138.51323,
    "lat": 36.40382
  },
  {
    "wikiId": "Q31454783",
    "name": "Komaga Take",
    "cat": "volcano",
    "lon": 139.193888888,
    "lat": 36.551666666
  },
  {
    "wikiId": "Q31454784",
    "name": "Maru Yama",
    "cat": "volcano",
    "lon": 139.767777777,
    "lat": 32.453055555
  },
  {
    "wikiId": "Q31454785",
    "name": "Mount Ōtaira",
    "cat": "volcano",
    "lon": 139.6883,
    "lat": 33.12554
  },
  {
    "wikiId": "Q31454882",
    "name": "Benbow",
    "cat": "volcano",
    "lon": 168.0967,
    "lat": -16.2608
  },
  {
    "wikiId": "Q31454883",
    "name": "Mount Fiamoe",
    "cat": "volcano",
    "lon": -171.798888888,
    "lat": -13.923611111
  },
  {
    "wikiId": "Q31454885",
    "name": "Mount Savai'i",
    "cat": "volcano",
    "lon": -171.533055555,
    "lat": -13.998055555
  },
  {
    "wikiId": "Q31454886",
    "name": "Mount Mu",
    "cat": "volcano",
    "lon": -172.516388888,
    "lat": -13.608611111
  },
  {
    "wikiId": "Q31454887",
    "name": "Mount Mata o le Afi",
    "cat": "volcano",
    "lon": -172.507222222,
    "lat": -13.608888888
  },
  {
    "wikiId": "Q31458290",
    "name": "Goat Mountain",
    "cat": "volcano",
    "lon": -103.4057342,
    "lat": 29.1877018
  },
  {
    "wikiId": "Q31482326",
    "name": "Mount Mokoto",
    "cat": "volcano",
    "lon": 144.331,
    "lat": 43.704333333
  },
  {
    "wikiId": "Q31602539",
    "name": "Mont Richard-Foy",
    "cat": "volcano",
    "lon": 50.21,
    "lat": -46.098
  },
  {
    "wikiId": "Q31627425",
    "name": "Sopka Baba",
    "cat": "volcano",
    "lon": 156.5967,
    "lat": 51.3017
  },
  {
    "wikiId": "Q31647632",
    "name": "Puy Chopine",
    "cat": "volcano",
    "lon": 2.955119,
    "lat": 45.827964
  },
  {
    "wikiId": "Q31663694",
    "name": "I Vancori",
    "cat": "volcano",
    "lon": 15.21209,
    "lat": 38.78874
  },
  {
    "wikiId": "Q31669881",
    "name": "Puy de Pourcharet",
    "cat": "volcano",
    "lon": 2.93153,
    "lat": 45.70915
  },
  {
    "wikiId": "Q31669898",
    "name": "Q31669898",
    "cat": "volcano",
    "lon": 2.943888888,
    "lat": 45.6925
  },
  {
    "wikiId": "Q31669935",
    "name": "Puy de Vichatel",
    "cat": "volcano",
    "lon": 2.96082,
    "lat": 45.68652
  },
  {
    "wikiId": "Q31682156",
    "name": "Puy de Montjuger",
    "cat": "volcano",
    "lon": 2.9421,
    "lat": 45.70532
  },
  {
    "wikiId": "Q31682172",
    "name": "Puy de Montgy",
    "cat": "volcano",
    "lon": 2.932777777,
    "lat": 45.7
  },
  {
    "wikiId": "Q31718917",
    "name": "Volcán San Bartolo",
    "cat": "volcano",
    "lon": -99.09193,
    "lat": 19.11209
  },
  {
    "wikiId": "Q32158686",
    "name": "Petit Puy de Dôme",
    "cat": "volcano",
    "lon": 2.96883,
    "lat": 45.77819
  },
  {
    "wikiId": "Q32161590",
    "name": "Puy de la Moréno",
    "cat": "volcano",
    "lon": 2.94513,
    "lat": 45.73748
  },
  {
    "wikiId": "Q35723395",
    "name": "Volcán Tutupaca",
    "cat": "volcano",
    "lon": -70.372222222,
    "lat": -17.025555555
  },
  {
    "wikiId": "Q35723403",
    "name": "Volcán Yucamane",
    "cat": "volcano",
    "lon": -70.198888888,
    "lat": -17.1825
  },
  {
    "wikiId": "Q38250852",
    "name": "San Jerónimo volcano",
    "cat": "volcano",
    "lon": -66.5,
    "lat": -24.233333333
  },
  {
    "wikiId": "Q49065877",
    "name": "Pānīʻau",
    "cat": "volcano",
    "lon": -160.0855559,
    "lat": 21.9363983
  },
  {
    "wikiId": "Q53565991",
    "name": "Pipkin",
    "cat": "volcano",
    "lon": -116.62,
    "lat": 34.68666667
  },
  {
    "wikiId": "Q56168257",
    "name": "Volcán de La Mesnera",
    "cat": "volcano",
    "lon": -3.521080555,
    "lat": 38.849063888
  },
  {
    "wikiId": "Q56711358",
    "name": "Shadil-Khokh volcano",
    "cat": "volcano",
    "lon": 44.2975,
    "lat": 42.5425
  },
  {
    "wikiId": "Q60677445",
    "name": "Black Butte",
    "cat": "volcano",
    "lon": -114.352691,
    "lat": 43.185367
  },
  {
    "wikiId": "Q61082784",
    "name": "Mount Maria, Malaysia",
    "cat": "volcano",
    "lon": 117.96,
    "lat": 4.42
  },
  {
    "wikiId": "Q63378369",
    "name": "Caldeirão do Corvo",
    "cat": "volcano",
    "lon": -31.1,
    "lat": 39.7
  },
  {
    "wikiId": "Q63378645",
    "name": "Furnas",
    "cat": "volcano",
    "lon": -25.321521,
    "lat": 37.762134
  },
  {
    "wikiId": "Q65166425",
    "name": "Yuhualixqui",
    "cat": "volcano",
    "lon": -99.052736111,
    "lat": 19.316216666
  },
  {
    "wikiId": "Q79309888",
    "name": "Maungauika",
    "cat": "volcano",
    "lon": 174.812555,
    "lat": -36.827649
  },
  {
    "wikiId": "Q85786701",
    "name": "Mount Roundtop",
    "cat": "volcano",
    "lon": -163.595833333,
    "lat": 54.797777777
  },
  {
    "wikiId": "Q92096639",
    "name": "Puy de la Combregrasse",
    "cat": "volcano",
    "lon": 2.948055555,
    "lat": 45.668055555
  },
  {
    "wikiId": "Q93723144",
    "name": "Mulciber",
    "cat": "volcano",
    "lon": 4.281944444,
    "lat": 54.060555555
  },
  {
    "wikiId": "Q96260282",
    "name": "Volcán de Siete Fuentes",
    "cat": "volcano",
    "lon": -16.512916666,
    "lat": 28.282444444
  },
  {
    "wikiId": "Q97188481",
    "name": "Puy de la Mey",
    "cat": "volcano",
    "lon": 2.963611111,
    "lat": 45.710555555
  },
  {
    "wikiId": "Q97188487",
    "name": "puy de la Toupe",
    "cat": "volcano",
    "lon": 2.943888888,
    "lat": 45.6825
  },
  {
    "wikiId": "Q97188494",
    "name": "Q97188494",
    "cat": "volcano",
    "lon": 2.953888888,
    "lat": 45.7575
  },
  {
    "wikiId": "Q97190114",
    "name": "Q97190114",
    "cat": "volcano",
    "lon": 2.883333333,
    "lat": 45.487777777
  },
  {
    "wikiId": "Q97292947",
    "name": "Q97292947",
    "cat": "volcano",
    "lon": 2.955,
    "lat": 45.6625
  },
  {
    "wikiId": "Q97495941",
    "name": "Volcán de La Atalaya",
    "cat": "volcano",
    "lon": -3.798888888,
    "lat": 38.647222222
  },
  {
    "wikiId": "Q97657513",
    "name": "Mount Nishibetsu",
    "cat": "volcano",
    "lon": 144.581666666,
    "lat": 43.553611111
  },
  {
    "wikiId": "Q97763748",
    "name": "Category:Higashinupukaushinupuri",
    "cat": "volcano",
    "lon": 143.102222222,
    "lat": 43.245833333
  },
  {
    "wikiId": "Q97823981",
    "name": "Mount Tenbo",
    "cat": "volcano",
    "lon": 143.125277777,
    "lat": 43.264166666
  },
  {
    "wikiId": "Q97957440",
    "name": "Stóra-Eldborg undir Geitahlíð",
    "cat": "volcano",
    "lon": -21.998333333,
    "lat": 63.855833333
  },
  {
    "wikiId": "Q98045772",
    "name": "Category:Mount Hakuun (Kamishihoro)",
    "cat": "volcano",
    "lon": 143.115277777,
    "lat": 43.258888888
  },
  {
    "wikiId": "Q98078060",
    "name": "Krýsuvík",
    "cat": "volcano",
    "lon": -22.1,
    "lat": 63.93
  },
  {
    "wikiId": "Q98104210",
    "name": "Mount Ganseki",
    "cat": "volcano",
    "lon": 143.1175,
    "lat": 43.255277777
  },
  {
    "wikiId": "Q99709361",
    "name": "Q99709361",
    "cat": "volcano",
    "lon": -99.749219444,
    "lat": 19.328130555
  },
  {
    "wikiId": "Q104972441",
    "name": "Q104972441",
    "cat": "volcano",
    "lon": 167.830452777,
    "lat": 15.390058333
  },
  {
    "wikiId": "Q106028265",
    "name": "Q106028265",
    "cat": "volcano",
    "lon": -18.766,
    "lat": 64.8148
  },
  {
    "wikiId": "Q106396119",
    "name": "Mate Grande",
    "cat": "volcano",
    "lon": -73.130833,
    "lat": -45.591111
  },
  {
    "wikiId": "Q4093436",
    "name": "Borawli",
    "cat": "volcano",
    "lon": 41.45,
    "lat": 11.633333333
  },
  {
    "wikiId": "Q4095705",
    "name": "Brothers volcano",
    "cat": "volcano",
    "lon": 179.075277777,
    "lat": -34.874722222
  },
  {
    "wikiId": "Q4098205",
    "name": "Q4098205",
    "cat": "volcano",
    "lon": 158.683333333,
    "lat": 56.383333333
  },
  {
    "wikiId": "Q4099160",
    "name": "Q4099160",
    "cat": "volcano",
    "lon": 158.883333333,
    "lat": 56.366666666
  },
  {
    "wikiId": "Q4099736",
    "name": "Q4099736",
    "cat": "volcano",
    "lon": 159.966666666,
    "lat": 54.333333333
  },
  {
    "wikiId": "Q4100074",
    "name": "Bus-Obo",
    "cat": "volcano",
    "lon": 109.083333333,
    "lat": 47.116666666
  },
  {
    "wikiId": "Q4105871",
    "name": "Veer",
    "cat": "volcano",
    "lon": 159.65,
    "lat": 56.7
  },
  {
    "wikiId": "Q4108292",
    "name": "Q4108292",
    "cat": "volcano",
    "lon": 158.15,
    "lat": 52.816666666
  },
  {
    "wikiId": "Q4109966",
    "name": "Q4109966",
    "cat": "volcano",
    "lon": 109.05,
    "lat": 9.833333333
  },
  {
    "wikiId": "Q4110079",
    "name": "Q4110079",
    "cat": "volcano",
    "lon": 158.8,
    "lat": 56.566666666
  },
  {
    "wikiId": "Q4114152",
    "name": "Q4114152",
    "cat": "volcano",
    "lon": 160.65,
    "lat": 56.15
  },
  {
    "wikiId": "Q4126603",
    "name": "Q4126603",
    "cat": "volcano",
    "lon": 159.883333333,
    "lat": 54.333333333
  },
  {
    "wikiId": "Q4128309",
    "name": "Q4128309",
    "cat": "volcano",
    "lon": 154.975277777,
    "lat": 50.200277777
  },
  {
    "wikiId": "Q4128310",
    "name": "Berg Volcano",
    "cat": "volcano",
    "lon": 150.15,
    "lat": 46.116666666
  },
  {
    "wikiId": "Q4128312",
    "name": "Q4128312",
    "cat": "volcano",
    "lon": 152.478888888,
    "lat": 47.343055555
  },
  {
    "wikiId": "Q4128314",
    "name": "Severgin Volcano",
    "cat": "volcano",
    "lon": 154.519444444,
    "lat": 49.118055555
  },
  {
    "wikiId": "Q4128315",
    "name": "Q4128315",
    "cat": "volcano",
    "lon": 158.5479473,
    "lat": 52.906054
  },
  {
    "wikiId": "Q4128316",
    "name": "Vulkan Snou",
    "cat": "volcano",
    "lon": 150.868611111,
    "lat": 46.510833333
  },
  {
    "wikiId": "Q4128318",
    "name": "Q4128318",
    "cat": "volcano",
    "lon": 157.732916666,
    "lat": 52.551827777
  },
  {
    "wikiId": "Q4128319",
    "name": "Vulkan Chernoga",
    "cat": "volcano",
    "lon": 150.866388888,
    "lat": 46.521944444
  },
  {
    "wikiId": "Q4142403",
    "name": "Q4142403",
    "cat": "volcano",
    "lon": 37.27775,
    "lat": 45.334962
  },
  {
    "wikiId": "Q4148786",
    "name": "Q4148786",
    "cat": "volcano",
    "lon": 160.783333333,
    "lat": 58.05
  },
  {
    "wikiId": "Q4152986",
    "name": "Gutanasar",
    "cat": "volcano",
    "lon": 44.68386,
    "lat": 40.36793
  },
  {
    "wikiId": "Q4155060",
    "name": "Dariganga Volcanic Field",
    "cat": "volcano",
    "lon": 114.279,
    "lat": 45.754
  },
  {
    "wikiId": "Q4155855",
    "name": "Q4155855",
    "cat": "volcano",
    "lon": 159.433333333,
    "lat": 54.05
  },
  {
    "wikiId": "Q4175840",
    "name": "Emperor of China",
    "cat": "volcano",
    "lon": 124.21666667,
    "lat": -6.61666667
  },
  {
    "wikiId": "Q4176881",
    "name": "Itasy Volcanic Field",
    "cat": "volcano",
    "lon": 46.783333333,
    "lat": -19.066666666
  },
  {
    "wikiId": "Q4177455",
    "name": "Coronado (volcano)",
    "cat": "volcano",
    "lon": -113.51524,
    "lat": 29.08886
  },
  {
    "wikiId": "Q4179246",
    "name": "Severny",
    "cat": "volcano",
    "lon": 160.871388888,
    "lat": 58.282777777
  },
  {
    "wikiId": "Q4179256",
    "name": "Mount Sanbe",
    "cat": "volcano",
    "lon": 132.6208,
    "lat": 35.1406
  },
  {
    "wikiId": "Q4180518",
    "name": "Methana Volcano",
    "cat": "volcano",
    "lon": 23.336,
    "lat": 37.615
  },
  {
    "wikiId": "Q4180583",
    "name": "Q4180583",
    "cat": "volcano",
    "lon": 158.25,
    "lat": 52.616666666
  },
  {
    "wikiId": "Q4182084",
    "name": "Q4182084",
    "cat": "volcano",
    "lon": 157.904577777,
    "lat": 52.339325
  },
  {
    "wikiId": "Q4182925",
    "name": "Zavaritsky",
    "cat": "volcano",
    "lon": 159.65,
    "lat": 56.7
  },
  {
    "wikiId": "Q4186342",
    "name": "Zaoziornyj",
    "cat": "volcano",
    "lon": 159.95,
    "lat": 56.883333333
  },
  {
    "wikiId": "Q4186559",
    "name": "Q4186559",
    "cat": "volcano",
    "lon": 159.866666666,
    "lat": 54.333333333
  },
  {
    "wikiId": "Q4205381",
    "name": "Q4205381",
    "cat": "volcano",
    "lon": 160.6,
    "lat": 55.233333333
  },
  {
    "wikiId": "Q4209209",
    "name": "Q4209209",
    "cat": "volcano",
    "lon": 159.75,
    "lat": 56.933333333
  },
  {
    "wikiId": "Q4209210",
    "name": "Q4209210",
    "cat": "volcano",
    "lon": 159.9,
    "lat": 57.05
  },
  {
    "wikiId": "Q4210886",
    "name": "Q4210886",
    "cat": "volcano",
    "lon": 160.75,
    "lat": 58.083333333
  },
  {
    "wikiId": "Q4214289",
    "name": "Q4214289",
    "cat": "volcano",
    "lon": 89.654,
    "lat": 54.69
  },
  {
    "wikiId": "Q4215342",
    "name": "Q4215342",
    "cat": "volcano",
    "lon": 89.783333333,
    "lat": 53.583333333
  },
  {
    "wikiId": "Q4216914",
    "name": "Q4216914",
    "cat": "volcano",
    "lon": 160.024444444,
    "lat": 56.895
  },
  {
    "wikiId": "Q4217795",
    "name": "Q4217795",
    "cat": "volcano",
    "lon": 160.833333333,
    "lat": 58.633333333
  },
  {
    "wikiId": "Q4218811",
    "name": "Q4218811",
    "cat": "volcano",
    "lon": 160.616666666,
    "lat": 57.9
  },
  {
    "wikiId": "Q4220676",
    "name": "Q4220676",
    "cat": "volcano",
    "lon": 158.183333333,
    "lat": 55.266666666
  },
  {
    "wikiId": "Q4220812",
    "name": "Kinenin",
    "cat": "volcano",
    "lon": 158.833333333,
    "lat": 53.255555555
  },
  {
    "wikiId": "Q4221257",
    "name": "Q4221257",
    "cat": "volcano",
    "lon": 161.366666666,
    "lat": 56.516666666
  },
  {
    "wikiId": "Q4224399",
    "name": "Q4224399",
    "cat": "volcano",
    "lon": 161.390833333,
    "lat": 56.518611111
  },
  {
    "wikiId": "Q4225045",
    "name": "Q4225045",
    "cat": "volcano",
    "lon": 158.483333333,
    "lat": 56.283333333
  },
  {
    "wikiId": "Q4228245",
    "name": "Q4228245",
    "cat": "volcano",
    "lon": 150.066111111,
    "lat": 46.060277777
  },
  {
    "wikiId": "Q4231222",
    "name": "Q4231222",
    "cat": "volcano",
    "lon": 160.55,
    "lat": 55.083333333
  },
  {
    "wikiId": "Q4232339",
    "name": "Q4232339",
    "cat": "volcano",
    "lon": 158.833333333,
    "lat": 56.466666666
  },
  {
    "wikiId": "Q4237106",
    "name": "Koshkulak",
    "cat": "volcano",
    "lon": 89.685,
    "lat": 54.45
  },
  {
    "wikiId": "Q4240420",
    "name": "Q4240420",
    "cat": "volcano",
    "lon": 160.5,
    "lat": 56.066666666
  },
  {
    "wikiId": "Q4241904",
    "name": "Q4241904",
    "cat": "volcano",
    "lon": 158.983333333,
    "lat": 56.566666666
  },
  {
    "wikiId": "Q4247298",
    "name": "Q4247298",
    "cat": "volcano",
    "lon": 159.9,
    "lat": 57.05
  },
  {
    "wikiId": "Q4250394",
    "name": "Q4250394",
    "cat": "volcano",
    "lon": 158.45,
    "lat": 56.133333333
  },
  {
    "wikiId": "Q4252361",
    "name": "Q4252361",
    "cat": "volcano",
    "lon": 161.033333333,
    "lat": 58.416666666
  },
  {
    "wikiId": "Q4252438",
    "name": "Q4252438",
    "cat": "volcano",
    "lon": -70.299722222,
    "lat": -39.0725
  },
  {
    "wikiId": "Q4253468",
    "name": "Q4253468",
    "cat": "volcano",
    "lon": 142.1,
    "lat": 48.7
  },
  {
    "wikiId": "Q4253681",
    "name": "Q4253681",
    "cat": "volcano",
    "lon": 161.25,
    "lat": 58.583333333
  },
  {
    "wikiId": "Q4253806",
    "name": "Q4253806",
    "cat": "volcano",
    "lon": 160.82,
    "lat": 58.18
  },
  {
    "wikiId": "Q4255259",
    "name": "Q4255259",
    "cat": "volcano",
    "lon": 157.083333333,
    "lat": 55.433333333
  },
  {
    "wikiId": "Q4255261",
    "name": "Q4255261",
    "cat": "volcano",
    "lon": 157.35,
    "lat": 55.466666666
  },
  {
    "wikiId": "Q4257781",
    "name": "Q4257781",
    "cat": "volcano",
    "lon": 161.316666666,
    "lat": 58.033333333
  },
  {
    "wikiId": "Q4266730",
    "name": "Q4266730",
    "cat": "volcano",
    "lon": 168.346111111,
    "lat": -16.506944444
  },
  {
    "wikiId": "Q4274142",
    "name": "Mohabi",
    "cat": "volcano",
    "lon": 34.101944444,
    "lat": 44.464444444
  },
  {
    "wikiId": "Q4276911",
    "name": "Q4276911",
    "cat": "volcano",
    "lon": 156.75,
    "lat": 52.283333333
  },
  {
    "wikiId": "Q4277042",
    "name": "Q4277042",
    "cat": "volcano",
    "lon": 158.4,
    "lat": 56.683333333
  },
  {
    "wikiId": "Q4277438",
    "name": "Q4277438",
    "cat": "volcano",
    "lon": 160.616666666,
    "lat": 55.75
  },
  {
    "wikiId": "Q4278778",
    "name": "Q4278778",
    "cat": "volcano",
    "lon": 159.766666666,
    "lat": 56.466666666
  },
  {
    "wikiId": "Q4279195",
    "name": "Q4279195",
    "cat": "volcano",
    "lon": 159.066666666,
    "lat": 56.8
  },
  {
    "wikiId": "Q4280140",
    "name": "Q4280140",
    "cat": "volcano",
    "lon": 145.037222222,
    "lat": -4.08
  },
  {
    "wikiId": "Q4281547",
    "name": "Mascarin Peak",
    "cat": "volcano",
    "lon": 37.75,
    "lat": -46.9
  },
  {
    "wikiId": "Q4283133",
    "name": "Q4283133",
    "cat": "volcano",
    "lon": -90.466666666,
    "lat": 0.333333333
  },
  {
    "wikiId": "Q4285556",
    "name": "Q4285556",
    "cat": "volcano",
    "lon": 168.4166667,
    "lat": -17.66666667
  },
  {
    "wikiId": "Q4287517",
    "name": "Q4287517",
    "cat": "volcano",
    "lon": 160.45,
    "lat": 57.45
  },
  {
    "wikiId": "Q4290644",
    "name": "Menshoy Brat",
    "cat": "volcano",
    "lon": 148.783333333,
    "lat": 45.383611111
  },
  {
    "wikiId": "Q4293695",
    "name": "Volcano of Milos",
    "cat": "volcano",
    "lon": 24.439,
    "lat": 36.699
  },
  {
    "wikiId": "Q4304777",
    "name": "Q4304777",
    "cat": "volcano",
    "lon": 167.5,
    "lat": -14.2
  },
  {
    "wikiId": "Q4308670",
    "name": "Q4308670",
    "cat": "volcano",
    "lon": 160.383333333,
    "lat": 57.883333333
  },
  {
    "wikiId": "Q4309874",
    "name": "Q4309874",
    "cat": "volcano",
    "lon": 176.25,
    "lat": -37.283333333
  },
  {
    "wikiId": "Q4315181",
    "name": "Q4315181",
    "cat": "volcano",
    "lon": 162.683333333,
    "lat": 57.85
  },
  {
    "wikiId": "Q4320720",
    "name": "Q4320720",
    "cat": "volcano",
    "lon": 159.85,
    "lat": 55.35
  },
  {
    "wikiId": "Q4323465",
    "name": "Q4323465",
    "cat": "volcano",
    "lon": 160.616666666,
    "lat": 57.916666666
  },
  {
    "wikiId": "Q4327234",
    "name": "Q4327234",
    "cat": "volcano",
    "lon": 35.7852139,
    "lat": 33.2456167
  },
  {
    "wikiId": "Q4327352",
    "name": "Mount Keramim",
    "cat": "volcano",
    "lon": 35.7786889,
    "lat": 33.2190306
  },
  {
    "wikiId": "Q4327496",
    "name": "Q4327496",
    "cat": "volcano",
    "lon": 35.7555472,
    "lat": 33.1964861
  },
  {
    "wikiId": "Q4327553",
    "name": "Q4327553",
    "cat": "volcano",
    "lon": 157.933333333,
    "lat": 55.916666666
  },
  {
    "wikiId": "Q4327604",
    "name": "Q4327604",
    "cat": "volcano",
    "lon": 35.7790611,
    "lat": 33.1580778
  },
  {
    "wikiId": "Q4327730",
    "name": "Har Hozek",
    "cat": "volcano",
    "lon": 35.8505889,
    "lat": 33.0537861
  },
  {
    "wikiId": "Q4327787",
    "name": "Mount Shifon",
    "cat": "volcano",
    "lon": 35.7696806,
    "lat": 33.0695361
  },
  {
    "wikiId": "Q4327829",
    "name": "Mount Yosifon",
    "cat": "volcano",
    "lon": 35.7974222,
    "lat": 33.0571528
  },
  {
    "wikiId": "Q4327893",
    "name": "Tel Juhader",
    "cat": "volcano",
    "lon": 35.8524057,
    "lat": 32.9272577
  },
  {
    "wikiId": "Q4327897",
    "name": "Q4327897",
    "cat": "volcano",
    "lon": 158.416666666,
    "lat": 56.266666666
  },
  {
    "wikiId": "Q4327908",
    "name": "Tal Saki",
    "cat": "volcano",
    "lon": 35.8306,
    "lat": 32.8664
  },
  {
    "wikiId": "Q4328180",
    "name": "Q4328180",
    "cat": "volcano",
    "lon": 48.483333333,
    "lat": -13.316666666
  },
  {
    "wikiId": "Q4328517",
    "name": "Q4328517",
    "cat": "volcano",
    "lon": 157.9,
    "lat": 55.883333333
  },
  {
    "wikiId": "Q4330618",
    "name": "Q4330618",
    "cat": "volcano",
    "lon": 158.968447222,
    "lat": 56.99265
  },
  {
    "wikiId": "Q4333566",
    "name": "Q4333566",
    "cat": "volcano",
    "lon": 160.045725,
    "lat": 56.855194444
  },
  {
    "wikiId": "Q4334163",
    "name": "Q4334163",
    "cat": "volcano",
    "lon": 158.666666666,
    "lat": 56.6
  },
  {
    "wikiId": "Q4338469",
    "name": "Ostanets",
    "cat": "volcano",
    "lon": 157.321944444,
    "lat": 52.146111111
  },
  {
    "wikiId": "Q4340749",
    "name": "Q4340749",
    "cat": "volcano",
    "lon": 158.166666666,
    "lat": 55.616666666
  },
  {
    "wikiId": "Q4347144",
    "name": "Q4347144",
    "cat": "volcano",
    "lon": 157.55,
    "lat": 51.716666666
  },
  {
    "wikiId": "Q4347176",
    "name": "Q4347176",
    "cat": "volcano",
    "lon": -55.791763888,
    "lat": -63.5813
  },
  {
    "wikiId": "Q4347712",
    "name": "Q4347712",
    "cat": "volcano",
    "lon": 157.983333333,
    "lat": 55.816666666
  },
  {
    "wikiId": "Q4349988",
    "name": "Q4349988",
    "cat": "volcano",
    "lon": 159.44405,
    "lat": 56.783627777
  },
  {
    "wikiId": "Q4362536",
    "name": "Q4362536",
    "cat": "volcano",
    "lon": 42.7171452,
    "lat": 43.2495
  },
  {
    "wikiId": "Q4363278",
    "name": "Piratkovsky",
    "cat": "volcano",
    "lon": 157.85,
    "lat": 52.116666666
  },
  {
    "wikiId": "Q4363429",
    "name": "Q4363429",
    "cat": "volcano",
    "lon": 160.338236111,
    "lat": 57.529972222
  },
  {
    "wikiId": "Q4365213",
    "name": "Plosky",
    "cat": "volcano",
    "lon": 158.477511111,
    "lat": 55.189111111
  },
  {
    "wikiId": "Q4367182",
    "name": "Q4367182",
    "cat": "volcano",
    "lon": 152.683333333,
    "lat": 47.416666666
  },
  {
    "wikiId": "Q4370461",
    "name": "Q4370461",
    "cat": "volcano",
    "lon": 159.866666666,
    "lat": 56.466666666
  },
  {
    "wikiId": "Q4379957",
    "name": "Q4379957",
    "cat": "volcano",
    "lon": 157.216666666,
    "lat": 55.433333333
  },
  {
    "wikiId": "Q4388970",
    "name": "Q4388970",
    "cat": "volcano",
    "lon": 153.25,
    "lat": 48.293055555
  },
  {
    "wikiId": "Q4390475",
    "name": "Q4390475",
    "cat": "volcano",
    "lon": 159.992508333,
    "lat": 57.410941666
  },
  {
    "wikiId": "Q4390689",
    "name": "Q4390689",
    "cat": "volcano",
    "lon": 153.024722222,
    "lat": 47.758055555
  },
  {
    "wikiId": "Q4400196",
    "name": "Ruruy",
    "cat": "volcano",
    "lon": 146.13889,
    "lat": 44.45278
  },
  {
    "wikiId": "Q4412857",
    "name": "Sedankinsky",
    "cat": "volcano",
    "lon": 160.083333333,
    "lat": 57.266666666
  },
  {
    "wikiId": "Q4416865",
    "name": "Q4416865",
    "cat": "volcano",
    "lon": 160.55,
    "lat": 57.766666666
  },
  {
    "wikiId": "Q4424142",
    "name": "Q4424142",
    "cat": "volcano",
    "lon": 160.75,
    "lat": 57.983333333
  },
  {
    "wikiId": "Q4425558",
    "name": "Snezhniy",
    "cat": "volcano",
    "lon": 160.811944444,
    "lat": 58.020277777
  },
  {
    "wikiId": "Q4425889",
    "name": "Q4425889",
    "cat": "volcano",
    "lon": 159.439230555,
    "lat": 54.147758333
  },
  {
    "wikiId": "Q4428426",
    "name": "Q4428426",
    "cat": "volcano",
    "lon": 136.565277777,
    "lat": 45.439722222
  },
  {
    "wikiId": "Q4438004",
    "name": "Spokoyny",
    "cat": "volcano",
    "lon": 160.81666667,
    "lat": 58.13333333
  },
  {
    "wikiId": "Q4438597",
    "name": "Q4438597",
    "cat": "volcano",
    "lon": 160.037397222,
    "lat": 57.326847222
  },
  {
    "wikiId": "Q4438741",
    "name": "Q4438741",
    "cat": "volcano",
    "lon": 160.578388888,
    "lat": 56.110916666
  },
  {
    "wikiId": "Q4442785",
    "name": "Gora Stokap",
    "cat": "volcano",
    "lon": 147.3425,
    "lat": 44.8375
  },
  {
    "wikiId": "Q4442861",
    "name": "Q4442861",
    "cat": "volcano",
    "lon": 158.65,
    "lat": 55.43
  },
  {
    "wikiId": "Q4453317",
    "name": "Q4453317",
    "cat": "volcano",
    "lon": 159.972597222,
    "lat": 57.344541666
  },
  {
    "wikiId": "Q4453832",
    "name": "Tekletunup",
    "cat": "volcano",
    "lon": 160.3224,
    "lat": 57.707083333
  },
  {
    "wikiId": "Q4454020",
    "name": "Q4454020",
    "cat": "volcano",
    "lon": 36.599579,
    "lat": 2.3782
  },
  {
    "wikiId": "Q4456140",
    "name": "Terpuk",
    "cat": "volcano",
    "lon": 159.836111111,
    "lat": 57.2
  },
  {
    "wikiId": "Q4457089",
    "name": "Q4457089",
    "cat": "volcano",
    "lon": 159.6,
    "lat": 56.566666666
  },
  {
    "wikiId": "Q4457157",
    "name": "Q4457157",
    "cat": "volcano",
    "lon": 37.099263833,
    "lat": 45.357036
  },
  {
    "wikiId": "Q4457294",
    "name": "Q4457294",
    "cat": "volcano",
    "lon": 160.596841666,
    "lat": 58.284363888
  },
  {
    "wikiId": "Q4458318",
    "name": "Titovskaya Sopka",
    "cat": "volcano",
    "lon": 113.458888888,
    "lat": 52.008611111
  },
  {
    "wikiId": "Q4459093",
    "name": "Q4459093",
    "cat": "volcano",
    "lon": 160.734772222,
    "lat": 58.263783333
  },
  {
    "wikiId": "Q4462341",
    "name": "Q4462341",
    "cat": "volcano",
    "lon": 150.2,
    "lat": 46.116666666
  },
  {
    "wikiId": "Q4465422",
    "name": "Tumrok",
    "cat": "volcano",
    "lon": 160.883333333,
    "lat": 55.383333333
  },
  {
    "wikiId": "Q4465503",
    "name": "Q4465503",
    "cat": "volcano",
    "lon": 157.339425,
    "lat": 52.543217
  },
  {
    "wikiId": "Q4465553",
    "name": "Q4465553",
    "cat": "volcano",
    "lon": 160.665922222,
    "lat": 58.089311111
  },
  {
    "wikiId": "Q4467084",
    "name": "Q4467084",
    "cat": "volcano",
    "lon": 157.866666666,
    "lat": 55.85
  },
  {
    "wikiId": "Q4474910",
    "name": "Q4474910",
    "cat": "volcano",
    "lon": 160.540452777,
    "lat": 57.771175
  },
  {
    "wikiId": "Q4475610",
    "name": "Q4475610",
    "cat": "volcano",
    "lon": 159.717936111,
    "lat": 54.643097222
  },
  {
    "wikiId": "Q4476967",
    "name": "Ureparapara",
    "cat": "volcano",
    "lon": 167.3166667,
    "lat": -13.46666667
  },
  {
    "wikiId": "Q4479644",
    "name": "Q4479644",
    "cat": "volcano",
    "lon": 152.814444444,
    "lat": 47.512222222
  },
  {
    "wikiId": "Q4493490",
    "name": "Furi",
    "cat": "volcano",
    "lon": 38.683333333,
    "lat": 8.9
  },
  {
    "wikiId": "Q4494785",
    "name": "Q4494785",
    "cat": "volcano",
    "lon": 161.633333333,
    "lat": 58.05
  },
  {
    "wikiId": "Q4496052",
    "name": "Harra of Arhab",
    "cat": "volcano",
    "lon": 44.046111111,
    "lat": 15.5975
  },
  {
    "wikiId": "Q4496185",
    "name": "Q4496185",
    "cat": "volcano",
    "lon": 160.816666666,
    "lat": 56.433333333
  },
  {
    "wikiId": "Q4504236",
    "name": "Q4504236",
    "cat": "volcano",
    "lon": 159.731755555,
    "lat": 56.844372222
  },
  {
    "wikiId": "Q4504259",
    "name": "Q4504259",
    "cat": "volcano",
    "lon": 159.876980555,
    "lat": 54.278655555
  },
  {
    "wikiId": "Q4506630",
    "name": "Q4506630",
    "cat": "volcano",
    "lon": 158.50635,
    "lat": 56.63145
  },
  {
    "wikiId": "Q4507856",
    "name": "Q4507856",
    "cat": "volcano",
    "lon": 159.651247222,
    "lat": 56.6153
  },
  {
    "wikiId": "Q4514578",
    "name": "Q4514578",
    "cat": "volcano",
    "lon": 157.616666666,
    "lat": 55.6
  },
  {
    "wikiId": "Q4516054",
    "name": "Q4516054",
    "cat": "volcano",
    "lon": 158.3,
    "lat": 56.15
  },
  {
    "wikiId": "Q4516190",
    "name": "Q4516190",
    "cat": "volcano",
    "lon": 153.486666666,
    "lat": 48.979722222
  },
  {
    "wikiId": "Q4518690",
    "name": "Chyornaya Sopka",
    "cat": "volcano",
    "lon": 93.070833333,
    "lat": 55.917777777
  },
  {
    "wikiId": "Q4524683",
    "name": "Q4524683",
    "cat": "volcano",
    "lon": 161.166666666,
    "lat": 55.75
  },
  {
    "wikiId": "Q4524701",
    "name": "Shisheika",
    "cat": "volcano",
    "lon": 161.083333333,
    "lat": 57.15
  },
  {
    "wikiId": "Q4525411",
    "name": "Q4525411",
    "cat": "volcano",
    "lon": 159.55,
    "lat": 57.466666666
  },
  {
    "wikiId": "Q4529521",
    "name": "Q4529521",
    "cat": "volcano",
    "lon": 158.433333333,
    "lat": 55.95
  },
  {
    "wikiId": "Q4530140",
    "name": "Q4530140",
    "cat": "volcano",
    "lon": 153.941944444,
    "lat": 48.9475
  },
  {
    "wikiId": "Q4530142",
    "name": "Volcán Ecuador",
    "cat": "volcano",
    "lon": -91.9,
    "lat": -0.0333333
  },
  {
    "wikiId": "Q4533117",
    "name": "Q4533117",
    "cat": "volcano",
    "lon": 157.639533333,
    "lat": 55.975813888
  },
  {
    "wikiId": "Q4536015",
    "name": "Q4536015",
    "cat": "volcano",
    "lon": 156.6,
    "lat": 51.55
  },
  {
    "wikiId": "Q4538233",
    "name": "Q4538233",
    "cat": "volcano",
    "lon": 158.8,
    "lat": 56.533333333
  },
  {
    "wikiId": "Q4707433",
    "name": "Girekol",
    "cat": "volcano",
    "lon": 43.416666666,
    "lat": 39.1
  },
  {
    "wikiId": "Q5046480",
    "name": "Carrizozo Malpais",
    "cat": "volcano",
    "lon": -106,
    "lat": 33.77
  },
  {
    "wikiId": "Q5047973",
    "name": "Casablanca",
    "cat": "volcano",
    "lon": -72.2126,
    "lat": -40.7635
  },
  {
    "wikiId": "Q5064896",
    "name": "Cerro Colorado",
    "cat": "volcano",
    "lon": -67.92216667,
    "lat": -22.59233333
  },
  {
    "wikiId": "Q5064965",
    "name": "Cerro Prieto",
    "cat": "volcano",
    "lon": -115.308,
    "lat": 32.418
  },
  {
    "wikiId": "Q5065021",
    "name": "Cerro del Nacimiento",
    "cat": "volcano",
    "lon": -68.5247,
    "lat": -27.2783
  },
  {
    "wikiId": "Q5139756",
    "name": "Cocoa Crater",
    "cat": "volcano",
    "lon": -130.7,
    "lat": 57.65
  },
  {
    "wikiId": "Q5140902",
    "name": "Coffee Crater",
    "cat": "volcano",
    "lon": -130.67,
    "lat": 57.63
  },
  {
    "wikiId": "Q5157189",
    "name": "Compton–Belkovich Thorium Anomaly",
    "cat": "volcano",
    "lon": null,
    "lat": null
  },
  {
    "wikiId": "Q5189097",
    "name": "Crow Lagoon",
    "cat": "volcano",
    "lon": -130.233333333,
    "lat": 54.7
  },
  {
    "wikiId": "Q5209925",
    "name": "Dakataua",
    "cat": "volcano",
    "lon": 150.10833333,
    "lat": -5.05555556
  },
  {
    "wikiId": "Q5299483",
    "name": "Dotsero",
    "cat": "volcano",
    "lon": -107.035,
    "lat": 39.6606
  },
  {
    "wikiId": "Q5307509",
    "name": "Giggenbach",
    "cat": "volcano",
    "lon": -178.7125,
    "lat": -30.035833333
  },
  {
    "wikiId": "Q5307516",
    "name": "Q5307516",
    "cat": "volcano",
    "lon": 42.2,
    "lat": 11.416666666
  },
  {
    "wikiId": "Q5351239",
    "name": "El Ermitaño",
    "cat": "volcano",
    "lon": -68.603333333,
    "lat": -26.786944444
  },
  {
    "wikiId": "Q5483967",
    "name": "Harras of Dhamar",
    "cat": "volcano",
    "lon": 44.40166667,
    "lat": 14.55
  },
  {
    "wikiId": "Q5492444",
    "name": "Q5492444",
    "cat": "volcano",
    "lon": -89.98333,
    "lat": 14.3
  },
  {
    "wikiId": "Q5674083",
    "name": "Q5674083",
    "cat": "volcano",
    "lon": -71.3667,
    "lat": -36.8667
  },
  {
    "wikiId": "Q5979278",
    "name": "Monumento Natural de Los Ajaches",
    "cat": "volcano",
    "lon": -13.781958333,
    "lat": 28.8984
  },
  {
    "wikiId": "Q6022944",
    "name": "Montaña de Guaza",
    "cat": "volcano",
    "lon": -16.69166667,
    "lat": 28.05
  },
  {
    "wikiId": "Q6044027",
    "name": "Q6044027",
    "cat": "volcano",
    "lon": 28.430833333,
    "lat": 38.620277777
  },
  {
    "wikiId": "Q6109088",
    "name": "La Caldereta",
    "cat": "volcano",
    "lon": -17.771475,
    "lat": 28.673522222
  },
  {
    "wikiId": "Q6117785",
    "name": "Jackson Volcano",
    "cat": "volcano",
    "lon": -90.1721,
    "lat": 32.3001
  },
  {
    "wikiId": "Q6164630",
    "name": "Volcán  Evermakk",
    "cat": "volcano",
    "lon": -110.95,
    "lat": 18.7833
  },
  {
    "wikiId": "Q6164632",
    "name": "Tetlalmanche Volcano",
    "cat": "volcano",
    "lon": -99.0015,
    "lat": 19.3251
  },
  {
    "wikiId": "Q6164644",
    "name": "Peña Blanca",
    "cat": "volcano",
    "lon": -68.649444444,
    "lat": -26.825555555
  },
  {
    "wikiId": "Q6164646",
    "name": "Q6164646",
    "cat": "volcano",
    "lon": -70.574166666,
    "lat": -35.244583333
  },
  {
    "wikiId": "Q6164647",
    "name": "Q6164647",
    "cat": "volcano",
    "lon": -66.7306,
    "lat": -24.3086
  },
  {
    "wikiId": "Q6164654",
    "name": "Santiaguito",
    "cat": "volcano",
    "lon": -91.5681,
    "lat": 14.7394
  },
  {
    "wikiId": "Q6164668",
    "name": "Q6164668",
    "cat": "volcano",
    "lon": -4.138227777,
    "lat": 39.061405555
  },
  {
    "wikiId": "Q6169317",
    "name": "Jocotitlán",
    "cat": "volcano",
    "lon": -99.7589,
    "lat": 19.7381
  },
  {
    "wikiId": "Q6446390",
    "name": "Kurose Hole",
    "cat": "volcano",
    "lon": 139.68,
    "lat": 33.4
  },
  {
    "wikiId": "Q6580653",
    "name": "Little Matterhorn",
    "cat": "volcano",
    "lon": 73.5,
    "lat": -53.0667
  },
  {
    "wikiId": "Q6587022",
    "name": "Q6587022",
    "cat": "volcano",
    "lon": 35.82650278,
    "lat": 33.15952778
  },
  {
    "wikiId": "Q6620789",
    "name": "Singu Plateau",
    "cat": "volcano",
    "lon": 95.96666667,
    "lat": 22.68333333
  },
  {
    "wikiId": "Q6638133",
    "name": "Q6638133",
    "cat": "volcano",
    "lon": 35.8338309,
    "lat": 33.081932
  },
  {
    "wikiId": "Q6651058",
    "name": "Little Mount Cameroon",
    "cat": "volcano",
    "lon": 9.11583,
    "lat": 4.07306
  },
  {
    "wikiId": "Q6792514",
    "name": "West Molokai Volcano",
    "cat": "volcano",
    "lon": -157.2,
    "lat": 21.13
  },
  {
    "wikiId": "Q6792560",
    "name": "Maungataketake",
    "cat": "volcano",
    "lon": 174.747548,
    "lat": -36.994635
  },
  {
    "wikiId": "Q6792572",
    "name": "Maungaturoto",
    "cat": "volcano",
    "lon": 173.881,
    "lat": -35.3694
  },
  {
    "wikiId": "Q6837962",
    "name": "Michoacán-Guanajuato volcanic field",
    "cat": "volcano",
    "lon": -101.75,
    "lat": 19.85
  },
  {
    "wikiId": "Q6850826",
    "name": "Milbanke Sound Group",
    "cat": "volcano",
    "lon": -128.35027778,
    "lat": 52.35472222
  },
  {
    "wikiId": "Q6884939",
    "name": "Miño Volcano",
    "cat": "volcano",
    "lon": -68.6,
    "lat": -21.183333333
  },
  {
    "wikiId": "Q6904839",
    "name": "Monte Muambe",
    "cat": "volcano",
    "lon": 34.094166666,
    "lat": -16.323055555
  },
  {
    "wikiId": "Q6919794",
    "name": "Mount Boucherie",
    "cat": "volcano",
    "lon": -119.581,
    "lat": 49.8539
  },
  {
    "wikiId": "Q6920162",
    "name": "Mount Chūbetsu",
    "cat": "volcano",
    "lon": 142.894444444,
    "lat": 43.591111111
  },
  {
    "wikiId": "Q6920365",
    "name": "Mount Darnley",
    "cat": "volcano",
    "lon": -26.5,
    "lat": -59.05
  },
  {
    "wikiId": "Q6920651",
    "name": "Mount Eniwa",
    "cat": "volcano",
    "lon": 141.28555556,
    "lat": 42.79333333
  },
  {
    "wikiId": "Q6920840",
    "name": "Mount Fuppushi",
    "cat": "volcano",
    "lon": 141.35888889,
    "lat": 42.71694444
  },
  {
    "wikiId": "Q6921213",
    "name": "Mount Hodson",
    "cat": "volcano",
    "lon": -27.15,
    "lat": -56.7
  },
  {
    "wikiId": "Q6921721",
    "name": "Kuju Mountains",
    "cat": "volcano",
    "lon": 131.24083333,
    "lat": 33.08222222
  },
  {
    "wikiId": "Q6923124",
    "name": "Mount Raiden",
    "cat": "volcano",
    "lon": 140.4683,
    "lat": 42.9042
  },
  {
    "wikiId": "Q6923216",
    "name": "Ōtāhuhu / Mount Richmond",
    "cat": "volcano",
    "lon": 174.839,
    "lat": -36.9326
  },
  {
    "wikiId": "Q6923757",
    "name": "Mount Sourabaya",
    "cat": "volcano",
    "lon": -26.6,
    "lat": -59.05
  },
  {
    "wikiId": "Q6923984",
    "name": "Mount Tabor",
    "cat": "volcano",
    "lon": -122.595556,
    "lat": 45.510833
  },
  {
    "wikiId": "Q6942101",
    "name": "Q6942101",
    "cat": "volcano",
    "lon": 35.8113,
    "lat": 32.9793
  },
  {
    "wikiId": "Q6957032",
    "name": "Nabukelevu",
    "cat": "volcano",
    "lon": 177.98,
    "lat": -19.12
  },
  {
    "wikiId": "Q7022658",
    "name": "Ngualla",
    "cat": "volcano",
    "lon": 32.83932176,
    "lat": -7.7086222
  },
  {
    "wikiId": "Q7064057",
    "name": "Nova Iguaçu Volcano",
    "cat": "volcano",
    "lon": -43.46638889,
    "lat": -22.76694444
  },
  {
    "wikiId": "Q7128689",
    "name": "Palpana",
    "cat": "volcano",
    "lon": -68.5225,
    "lat": -21.546666666
  },
  {
    "wikiId": "Q7270076",
    "name": "Q7270076",
    "cat": "volcano",
    "lon": 160.833333333,
    "lat": 56.366666666
  },
  {
    "wikiId": "Q7395365",
    "name": "S P Crater",
    "cat": "volcano",
    "lon": -111.629322222,
    "lat": 35.582225
  },
  {
    "wikiId": "Q7413507",
    "name": "San Carlos",
    "cat": "volcano",
    "lon": 8.539166666,
    "lat": 3.360833333
  },
  {
    "wikiId": "Q7415041",
    "name": "San Pablo",
    "cat": "volcano",
    "lon": -68.36666667,
    "lat": -21.86666667
  },
  {
    "wikiId": "Q7419347",
    "name": "Santa Clara Volcano",
    "cat": "volcano",
    "lon": -113.625,
    "lat": 37.256944444
  },
  {
    "wikiId": "Q7490670",
    "name": "Shatsky Rise",
    "cat": "volcano",
    "lon": 158.0666667,
    "lat": 32.03333333
  },
  {
    "wikiId": "Q7565236",
    "name": "Sousaki volcano",
    "cat": "volcano",
    "lon": 23.08720016,
    "lat": 37.9367981
  },
  {
    "wikiId": "Q7682801",
    "name": "Tanganasoga",
    "cat": "volcano",
    "lon": -18.000000048,
    "lat": 27.765512814
  },
  {
    "wikiId": "Q7689143",
    "name": "Tavkvetili",
    "cat": "volcano",
    "lon": 43.7214,
    "lat": 41.6811
  },
  {
    "wikiId": "Q7689271",
    "name": "Tawhaki Patera",
    "cat": "volcano",
    "lon": null,
    "lat": null
  },
  {
    "wikiId": "Q7690242",
    "name": "Taurere / Taylor Hill",
    "cat": "volcano",
    "lon": 174.87,
    "lat": -36.8642
  },